{"url": "https://job-boards.greenhouse.io/scaleai/jobs/4713608005", "company_key": "greenhouse:scaleai", "location": "New York, NY; San Francisco, CA; Seattle, WA; New York, NY", "lat": null, "lng": null, "first_published": "2026-07-09T14:54:54-04:00"}
{"url": "https://boards.greenhouse.io/chime/jobs/8587249002?gh_jid=8587249002", "company_key": "greenhouse:chime", "location": "San Francisco, CA, USA", "lat": 37.7879363, "lng": -122.4075201, "first_published": "2026-07-09T19:10:50-04:00"}
{"url": "https://aurora.tech/jobs/8620384002?gh_jid=8620384002", "company_key": "greenhouse:aurorainnovation", "location": "Mountain View, California", "lat": null, "lng": null, "first_published": "2026-07-09T18:54:09-04:00"}
{"url": "https://job-boards.greenhouse.io/afresh/jobs/6108311004", "company_key": "greenhouse:afresh", "location": "San Francisco, CA", "lat": 37.7879363, "lng": -122.4075201, "first_published": "2026-07-09T17:21:28-04:00"}
{"url": "https://job-boards.greenhouse.io/afresh/jobs/6108318004", "company_key": "greenhouse:afresh", "location": "San Francisco, CA", "lat": 37.7879363, "lng": -122.4075201, "first_published": "2026-07-09T17:34:58-04:00"}
{"url": "https://job-boards.greenhouse.io/archer56/jobs/7797796003", "company_key": "greenhouse:archer56", "location": "San Jose, California, United States", "lat": 37.3361663, "lng": -121.890591, "first_published": "2026-07-09T18:54:45-04:00"}
{"url": "https://job-boards.greenhouse.io/archer56/jobs/7797802003", "company_key": "greenhouse:archer56", "location": "San Jose, California, United States", "lat": 37.3361663, "lng": -121.890591, "first_published": "2026-07-09T18:48:42-04:00"}
{"url": "https://boards.greenhouse.io/cordial81/jobs/8627498002?gh_jid=8627498002", "company_key": "greenhouse:cordial81", "location": "Remote (US)", "lat": 43.0059455, "lng": -123.8925908, "first_published": "2026-07-09T18:31:14-04:00"}
{"url": "https://job-boards.greenhouse.io/fuseglobalpartners/jobs/5317998008", "company_key": "greenhouse:fuseglobalpartners", "location": "remote", "lat": 43.0059455, "lng": -123.8925908, "first_published": "2026-07-09T16:37:58-04:00"}
{"url": "https://job-boards.greenhouse.io/honeycomb/jobs/5304116008", "company_key": "greenhouse:honeycomb", "location": "Remote - United States", "lat": 43.0059455, "lng": -123.8925908, "first_published": "2026-07-09T19:24:01-04:00"}
{"url": "https://job-boards.greenhouse.io/mochihealth/jobs/5318664008", "company_key": "greenhouse:mochihealth", "location": "San Francisco, CA", "lat": 37.7879363, "lng": -122.4075201, "first_published": "2026-07-09T18:15:53-04:00"}
{"url": "https://pantheon.io/about/careers/detail?gh_jid=8054337", "company_key": "greenhouse:pantheon", "location": "United States (Remote)", "lat": 43.0059455, "lng": -123.8925908, "first_published": "2026-07-09T16:27:53-04:00"}
{"url": "https://careers.roblox.com/jobs/8011273?gh_jid=8011273", "company_key": "greenhouse:roblox", "location": "San Mateo, CA, United States", "lat": 37.496904, "lng": -122.3330573, "first_published": "2026-07-09T17:39:50-04:00"}
{"url": "https://senecaholdings.com/jobs/?gh_jid=4713630005", "company_key": "greenhouse:shinvestmentsllc", "location": "Remote", "lat": 43.0059455, "lng": -123.8925908, "first_published": "2026-07-09T15:34:20-04:00"}
{"url": "https://job-boards.eu.greenhouse.io/stubhubinc/jobs/4924201101", "company_key": "greenhouse:stubhubinc", "location": "San Francisco, California, United States", "lat": 37.7879363, "lng": -122.4075201, "first_published": "2026-07-09T17:58:02-04:00"}
{"url": "https://job-boards.eu.greenhouse.io/stubhubinc/jobs/4924172101", "company_key": "greenhouse:stubhubinc", "location": "San Francisco, California, United States", "lat": 37.7879363, "lng": -122.4075201, "first_published": "2026-07-09T17:10:46-04:00"}
{"url": "https://jobs.lever.co/agile-defense/d3c5026c-7184-4d65-a6d9-26437e987ffd", "company_key": "lever:agile-defense", "location": "Remote", "lat": 43.0059455, "lng": -123.8925908, "first_published": "2026-07-09T18:36:26.776000+00:00"}
{"url": "https://jobs.ashbyhq.com/mudflap/759ba690-5550-4148-8a62-60e8fe588673", "company_key": "ashby:mudflap", "location": "Palo Alto, CA", "lat": 37.4443293, "lng": -122.1598465, "first_published": "2026-07-09T21:56:00.068+00:00"}
{"url": "https://jobs.ashbyhq.com/openai/ca54cd23-2bcc-4327-bcb6-46d81ed414a8", "company_key": "ashby:openai", "location": "San Francisco", "lat": 37.7879363, "lng": -122.4075201, "first_published": "2026-07-09T22:15:49.719+00:00"}
{"url": "https://jobs.ashbyhq.com/openai/86450337-b12a-48c1-836e-cc0c5766eb8e", "company_key": "ashby:openai", "location": "San Francisco", "lat": 37.7879363, "lng": -122.4075201, "first_published": "2026-07-09T19:05:39.562+00:00"}
{"url": "https://jobs.ashbyhq.com/openai/6c552323-f0bd-4756-a5fb-db2cda70173f", "company_key": "ashby:openai", "location": "San Francisco", "lat": 37.7879363, "lng": -122.4075201, "first_published": "2026-07-09T21:41:46.386+00:00"}
{"url": "https://jobs.ashbyhq.com/perplexity/ea87532c-69a0-497d-9cf3-04cc2a6c6410", "company_key": "ashby:perplexity", "location": "San Francisco", "lat": 37.7879363, "lng": -122.4075201, "first_published": "2026-07-09T22:28:24.241+00:00"}
{"url": "https://jobs.ashbyhq.com/perplexity/2c5fdd71-472a-4c62-bc53-deafb66e7941", "company_key": "ashby:perplexity", "location": "San Francisco | Seattle | New York City", "lat": null, "lng": null, "first_published": "2026-07-09T23:24:48.580+00:00"}
{"url": "https://jobs.ashbyhq.com/turquoise-health/1fbc3cd7-fc6a-4b8a-8e73-d2c14f737826", "company_key": "ashby:turquoise-health", "location": "Remote", "lat": 43.0059455, "lng": -123.8925908, "first_published": "2026-07-09T18:46:37.758+00:00"}
{"url": "https://jobs.ashbyhq.com/Wisdom-AI/4e6846ea-9fca-4243-a5bb-11832ed54fc4", "company_key": "ashby:Wisdom-AI", "location": "San Mateo", "lat": null, "lng": null, "first_published": "2026-07-09T21:56:47.849+00:00"}
{"url": "https://boards.greenhouse.io/andurilindustries/jobs/5184036007?gh_jid=5184036007", "company_key": "greenhouse:andurilindustries", "location": "Lexington, Massachusetts, United States", "lat": 42.4473175, "lng": -71.2245003, "first_published": "2026-07-09T19:50:02-04:00"}
{"url": "https://boards.greenhouse.io/andurilindustries/jobs/5184035007?gh_jid=5184035007", "company_key": "greenhouse:andurilindustries", "location": "Lexington, Massachusetts, United States", "lat": 42.4473175, "lng": -71.2245003, "first_published": "2026-07-09T19:49:30-04:00"}
{"url": "https://boards.greenhouse.io/andurilindustries/jobs/5184034007?gh_jid=5184034007", "company_key": "greenhouse:andurilindustries", "location": "Lexington, Massachusetts, United States", "lat": 42.4473175, "lng": -71.2245003, "first_published": "2026-07-09T19:48:55-04:00"}
{"url": "https://job-boards.greenhouse.io/torcrobotics/jobs/8626977002", "company_key": "greenhouse:torcrobotics", "location": "Blacksburg, VA ", "lat": null, "lng": null, "first_published": "2026-07-09T14:22:16-04:00"}
{"url": "https://boards.greenhouse.io/spacex/jobs/8624833002?gh_jid=8624833002", "company_key": "greenhouse:spacex", "location": "Bastrop, TX", "lat": 30.0541116, "lng": -97.3887764, "first_published": "2026-07-09T14:31:20-04:00"}
{"url": "https://boards.greenhouse.io/spacex/jobs/8624705002?gh_jid=8624705002", "company_key": "greenhouse:spacex", "location": "Redmond, WA", "lat": 47.6694141, "lng": -122.1238767, "first_published": "2026-07-09T14:32:03-04:00"}
{"url": "https://boards.greenhouse.io/spacex/jobs/8624864002?gh_jid=8624864002", "company_key": "greenhouse:spacex", "location": "Bastrop, TX", "lat": 30.0541116, "lng": -97.3887764, "first_published": "2026-07-09T14:30:24-04:00"}
{"url": "https://job-boards.greenhouse.io/thenewyorktimes/jobs/4713551005", "company_key": "greenhouse:thenewyorktimes", "location": "New York, NY", "lat": 40.7127281, "lng": -74.0060152, "first_published": "2026-07-09T16:58:41-04:00"}
{"url": "https://job-boards.greenhouse.io/thenewyorktimes/jobs/4713567005", "company_key": "greenhouse:thenewyorktimes", "location": "New York, NY", "lat": 40.7127281, "lng": -74.0060152, "first_published": "2026-07-09T16:57:24-04:00"}
{"url": "https://boards.greenhouse.io/accenturefederalservices/jobs/4695928006?gh_jid=4695928006", "company_key": "greenhouse:accenturefederalservices", "location": "Washington, DC", "lat": 38.8950982, "lng": -77.0363849, "first_published": "2026-07-09T14:30:36-04:00"}
{"url": "https://job-boards.greenhouse.io/emslinqinc/jobs/5317298008", "company_key": "greenhouse:emslinqinc", "location": "Denver, Colorado", "lat": 39.7392364, "lng": -104.984862, "first_published": "2026-07-09T14:45:03-04:00"}
{"url": "https://job-boards.greenhouse.io/fuseglobalpartners/jobs/5317566008", "company_key": "greenhouse:fuseglobalpartners", "location": "St. Louis, MO", "lat": 38.6254063, "lng": -90.190009, "first_published": "2026-07-09T15:32:25-04:00"}
{"url": "https://job-boards.greenhouse.io/greenpointtechnologies/jobs/5285687008", "company_key": "greenhouse:greenpointtechnologies", "location": "Bothell, Washington, United States", "lat": 47.7623204, "lng": -122.2054035, "first_published": "2026-07-09T15:39:22-04:00"}
{"url": "https://job-boards.greenhouse.io/grvty/jobs/4312743009", "company_key": "greenhouse:grvty", "location": "Chantilly, Virginia, United States", "lat": 38.885219, "lng": -77.4486772, "first_published": "2026-07-09T19:44:27-04:00"}
{"url": "https://boards.eu.greenhouse.io/nice/jobs/4922013101?gh_jid=4922013101", "company_key": "greenhouse:nice", "location": "USA - Richardson, TX", "lat": 33.0005293, "lng": -96.7548427, "first_published": "2026-07-09T14:59:53-04:00"}
{"url": "https://boards.eu.greenhouse.io/nice/jobs/4921997101?gh_jid=4921997101", "company_key": "greenhouse:nice", "location": "USA - Sandy, UT", "lat": 40.5865748, "lng": -111.8966822, "first_published": "2026-07-09T14:57:52-04:00"}
{"url": "https://boards.eu.greenhouse.io/nice/jobs/4922011101?gh_jid=4922011101", "company_key": "greenhouse:nice", "location": "USA - Richardson, TX", "lat": 33.0005293, "lng": -96.7548427, "first_published": "2026-07-09T14:59:48-04:00"}
{"url": "https://boards.greenhouse.io/pathrobotics/jobs/8627330002?gh_jid=8627330002", "company_key": "greenhouse:pathrobotics", "location": "Columbus, Ohio", "lat": 39.9622601, "lng": -83.0007065, "first_published": "2026-07-09T16:15:24-04:00"}
{"url": "https://job-boards.greenhouse.io/systemstechnologyresearch/jobs/4695956006", "company_key": "greenhouse:systemstechnologyresearch", "location": "Woburn, MA", "lat": 42.4792618, "lng": -71.1522766, "first_published": "2026-07-09T15:18:13-04:00"}
{"url": "https://job-boards.greenhouse.io/systemstechnologyresearch/jobs/4695958006", "company_key": "greenhouse:systemstechnologyresearch", "location": "Arlington, VA", "lat": 38.8769326, "lng": -77.0893094, "first_published": "2026-07-09T15:18:14-04:00"}
{"url": "https://job-boards.greenhouse.io/systemstechnologyresearch/jobs/4695959006", "company_key": "greenhouse:systemstechnologyresearch", "location": "Dayton, OH", "lat": null, "lng": null, "first_published": "2026-07-09T15:18:15-04:00"}
{"url": "https://tulip.co/careers/job-posting/?gh_jid=7800511003", "company_key": "greenhouse:tulip", "location": "Somerville, MA", "lat": 42.3875968, "lng": -71.0994968, "first_published": "2026-07-09T17:47:42-04:00"}
{"url": "https://job-boards.greenhouse.io/yoodliinc/jobs/4311193009", "company_key": "greenhouse:yoodliinc", "location": "Seattle, WA", "lat": 47.6038321, "lng": -122.330062, "first_published": "2026-07-09T15:23:44-04:00"}
{"url": "https://jobs.ashbyhq.com/adaptive-innovations/55efab82-3f2b-4681-b49c-bbab87bd65dd", "company_key": "ashby:adaptive-innovations", "location": "New York, NY", "lat": 40.7127281, "lng": -74.0060152, "first_published": "2026-07-09T21:58:04.405+00:00"}
{"url": "https://job-boards.greenhouse.io/anthropic/jobs/5309805008", "company_key": "greenhouse:anthropic", "location": "London, UK", "lat": 51.5074456, "lng": -0.1277653, "first_published": "2026-07-09T17:59:48-04:00"}
{"url": "https://job-boards.greenhouse.io/anthropic/jobs/5317734008", "company_key": "greenhouse:anthropic", "location": "San Francisco, CA | New York City, NY", "lat": null, "lng": null, "first_published": "2026-07-09T17:42:29-04:00"}
{"url": "https://boards.greenhouse.io/andurilindustries/jobs/5167865007?gh_jid=5167865007", "company_key": "greenhouse:andurilindustries", "location": "Costa Mesa, California, United States", "lat": 33.6633386, "lng": -117.903317, "first_published": "2026-07-09T17:38:19-04:00"}
{"url": "https://boards.greenhouse.io/andurilindustries/jobs/5182866007?gh_jid=5182866007", "company_key": "greenhouse:andurilindustries", "location": "Atlanta, Georgia, United States", "lat": 33.7544657, "lng": -84.3898151, "first_published": "2026-07-09T18:39:10-04:00"}
{"url": "https://boards.greenhouse.io/andurilindustries/jobs/5025986007?gh_jid=5025986007", "company_key": "greenhouse:andurilindustries", "location": "Costa Mesa, California, United States", "lat": 33.6633386, "lng": -117.903317, "first_published": "2026-07-09T20:47:09-04:00"}
{"url": "https://boards.greenhouse.io/andurilindustries/jobs/5183808007?gh_jid=5183808007", "company_key": "greenhouse:andurilindustries", "location": "Quincy, Massachusetts, United States", "lat": null, "lng": null, "first_published": "2026-07-09T16:40:20-04:00"}
{"url": "https://boards.greenhouse.io/andurilindustries/jobs/5183938007?gh_jid=5183938007", "company_key": "greenhouse:andurilindustries", "location": "Atlanta, Georgia, United States", "lat": 33.7544657, "lng": -84.3898151, "first_published": "2026-07-09T20:09:27-04:00"}
{"url": "https://boards.greenhouse.io/andurilindustries/jobs/5171647007?gh_jid=5171647007", "company_key": "greenhouse:andurilindustries", "location": "Costa Mesa, California, United States", "lat": 33.6633386, "lng": -117.903317, "first_published": "2026-07-09T17:27:10-04:00"}
{"url": "https://job-boards.greenhouse.io/defenseunicorns/jobs/5183597007", "company_key": "greenhouse:defenseunicorns", "location": "Remote", "lat": 43.0059455, "lng": -123.8925908, "first_published": "2026-07-09T14:25:03-04:00"}
{"url": "https://job-boards.greenhouse.io/defenseunicorns/jobs/5183644007", "company_key": "greenhouse:defenseunicorns", "location": "Remote", "lat": 43.0059455, "lng": -123.8925908, "first_published": "2026-07-09T15:15:58-04:00"}
{"url": "https://job-boards.greenhouse.io/astranis/jobs/4609434006", "company_key": "greenhouse:astranis", "location": "San Francisco", "lat": 37.7879363, "lng": -122.4075201, "first_published": "2026-07-09T15:10:28-04:00"}
{"url": "https://job-boards.greenhouse.io/torcrobotics/jobs/8627037002", "company_key": "greenhouse:torcrobotics", "location": "Blacksburg, VA", "lat": 37.2296566, "lng": -80.4136767, "first_published": "2026-07-09T14:44:13-04:00"}
{"url": "https://careers.airbnb.com/positions/8054361?gh_jid=8054361", "company_key": "greenhouse:airbnb", "location": "United States ", "lat": 39.7837304, "lng": -100.445882, "first_published": "2026-07-09T16:55:00-04:00"}
{"url": "https://stripe.com/jobs/search?gh_jid=7728618", "company_key": "greenhouse:stripe", "location": "Remote", "lat": 43.0059455, "lng": -123.8925908, "first_published": "2026-07-09T15:42:53-04:00"}
{"url": "https://stripe.com/jobs/search?gh_jid=8036325", "company_key": "greenhouse:stripe", "location": "SF, SEA, NYC, CHI, US-Remote", "lat": null, "lng": null, "first_published": "2026-07-09T15:58:30-04:00"}
{"url": "https://databricks.com/company/careers/open-positions/job?gh_jid=8604596002", "company_key": "greenhouse:databricks", "location": "West Coast - United States", "lat": null, "lng": null, "first_published": "2026-07-09T21:40:14-04:00"}
{"url": "https://databricks.com/company/careers/open-positions/job?gh_jid=8605979002", "company_key": "greenhouse:databricks", "location": "Mountain View, California; San Francisco, California", "lat": null, "lng": null, "first_published": "2026-07-09T15:07:20-04:00"}
{"url": "https://app.careerpuck.com/job-board/lyft/job/8626589002?gh_jid=8626589002", "company_key": "greenhouse:lyft", "location": "San Francisco, CA", "lat": 37.7879363, "lng": -122.4075201, "first_published": "2026-07-09T17:41:58-04:00"}
{"url": "https://www.pinterestcareers.com/jobs/?gh_jid=8027260", "company_key": "greenhouse:pinterest", "location": "San Francisco, CA, US; Remote, US", "lat": null, "lng": null, "first_published": "2026-07-09T15:31:12-04:00"}
{"url": "https://www.pinterestcareers.com/jobs/?gh_jid=8046836", "company_key": "greenhouse:pinterest", "location": "New York, NY, US; Remote, US", "lat": null, "lng": null, "first_published": "2026-07-09T14:41:26-04:00"}
{"url": "https://careers.duolingo.com/jobs/8627568002?gh_jid=8627568002", "company_key": "greenhouse:duolingo", "location": "New York, NY", "lat": 40.7127281, "lng": -74.0060152, "first_published": "2026-07-09T19:45:51-04:00"}
{"url": "https://careers.duolingo.com/jobs/8627565002?gh_jid=8627565002", "company_key": "greenhouse:duolingo", "location": "Pittsburgh, PA", "lat": 40.4406968, "lng": -80.0025666, "first_published": "2026-07-09T19:45:50-04:00"}
{"url": "https://www.weareroku.com/jobs/8054166?gh_jid=8054166", "company_key": "greenhouse:roku", "location": "Santa Monica, California", "lat": null, "lng": null, "first_published": "2026-07-09T14:50:48-04:00"}
{"url": "https://boards.greenhouse.io/cloudflare/jobs/8043974?gh_jid=8043974", "company_key": "greenhouse:cloudflare", "location": "Hybrid", "lat": 47.1188391, "lng": 1.0982204, "first_published": "2026-07-09T15:53:44-04:00"}
{"url": "https://jobs.elastic.co/jobs?gh_jid=8048313&gh_jid=8048313", "company_key": "greenhouse:elastic", "location": "Virginia, United States", "lat": null, "lng": null, "first_published": "2026-07-09T15:16:39-04:00"}
{"url": "https://jobs.elastic.co/jobs?gh_jid=8053957&gh_jid=8053957", "company_key": "greenhouse:elastic", "location": "Pennsylvania, United States", "lat": 40.9699889, "lng": -77.7278831, "first_published": "2026-07-09T15:16:40-04:00"}
{"url": "https://jobs.elastic.co/jobs?gh_jid=8053955&gh_jid=8053955", "company_key": "greenhouse:elastic", "location": "Florida, United States", "lat": 27.7567667, "lng": -81.4639835, "first_published": "2026-07-09T15:16:41-04:00"}
{"url": "https://www.samsara.com/company/careers/roles/8044609?gh_jid=8044609", "company_key": "greenhouse:samsara", "location": "Remote - Seattle", "lat": null, "lng": null, "first_published": "2026-07-09T18:16:01-04:00"}
{"url": "https://job-boards.greenhouse.io/webflow/jobs/8054253", "company_key": "greenhouse:webflow", "location": "CA Remote (BC & ON only); U.S. Remote", "lat": null, "lng": null, "first_published": "2026-07-09T17:31:42-04:00"}
{"url": "https://careers.toasttab.com/jobs?gh_jid=8029612", "company_key": "greenhouse:toast", "location": "Remote", "lat": 43.0059455, "lng": -123.8925908, "first_published": "2026-07-09T15:53:47-04:00"}
{"url": "https://careers.toasttab.com/jobs?gh_jid=8049262", "company_key": "greenhouse:toast", "location": "Scranton, PA", "lat": null, "lng": null, "first_published": "2026-07-09T17:00:25-04:00"}
{"url": "https://job-boards.greenhouse.io/clickhouse/jobs/6110227004", "company_key": "greenhouse:clickhouse", "location": "United States", "lat": 39.7837304, "lng": -100.445882, "first_published": "2026-07-09T17:30:05-04:00"}
{"url": "https://job-boards.greenhouse.io/clickhouse/jobs/6103393004", "company_key": "greenhouse:clickhouse", "location": "Germany", "lat": 51.1638175, "lng": 10.4478313, "first_published": "2026-07-09T18:16:38-04:00"}
{"url": "https://www.brex.com/careers/8627225002?gh_jid=8627225002", "company_key": "greenhouse:brex", "location": "San Francisco, California, United States", "lat": 37.7879363, "lng": -122.4075201, "first_published": "2026-07-09T15:52:40-04:00"}
{"url": "https://www.brex.com/careers/8627262002?gh_jid=8627262002", "company_key": "greenhouse:brex", "location": "New York, New York, United States", "lat": 40.7127281, "lng": -74.0060152, "first_published": "2026-07-09T15:54:07-04:00"}
{"url": "https://www.brex.com/careers/8627269002?gh_jid=8627269002", "company_key": "greenhouse:brex", "location": "Seattle, Washington, United States", "lat": 47.6038321, "lng": -122.330062, "first_published": "2026-07-09T15:57:17-04:00"}
{"url": "https://www.brex.com/careers/8627283002?gh_jid=8627283002", "company_key": "greenhouse:brex", "location": "Salt Lake City, Utah, United States", "lat": 40.7596198, "lng": -111.886797, "first_published": "2026-07-09T15:59:36-04:00"}
{"url": "https://www.brex.com/careers/8627541002?gh_jid=8627541002", "company_key": "greenhouse:brex", "location": "San Francisco, California, United States", "lat": 37.7879363, "lng": -122.4075201, "first_published": "2026-07-09T19:28:49-04:00"}
{"url": "https://www.brex.com/careers/8627546002?gh_jid=8627546002", "company_key": "greenhouse:brex", "location": "New York, New York, United States", "lat": 40.7127281, "lng": -74.0060152, "first_published": "2026-07-09T19:28:50-04:00"}
{"url": "https://www.brex.com/careers/8627514002?gh_jid=8627514002", "company_key": "greenhouse:brex", "location": "S\u00e3o Paulo, S\u00e3o Paulo, Brazil", "lat": -23.5506507, "lng": -46.6333824, "first_published": "2026-07-09T19:03:36-04:00"}
{"url": "https://job-boards.greenhouse.io/gusto/jobs/8039570", "company_key": "greenhouse:gusto", "location": "San Francisco, CA", "lat": 37.7879363, "lng": -122.4075201, "first_published": "2026-07-09T19:27:49-04:00"}
{"url": "https://www.coinbase.com/careers/positions/8054055?gh_jid=8054055", "company_key": "greenhouse:coinbase", "location": "Remote - India", "lat": null, "lng": null, "first_published": "2026-07-09T14:24:09-04:00"}
{"url": "https://www.coinbase.com/careers/positions/8054153?gh_jid=8054153", "company_key": "greenhouse:coinbase", "location": "Remote - India", "lat": null, "lng": null, "first_published": "2026-07-09T15:05:42-04:00"}
{"url": "https://job-boards.greenhouse.io/affirm/jobs/7791742003", "company_key": "greenhouse:affirm", "location": "Remote US", "lat": 43.0059455, "lng": -123.8925908, "first_published": "2026-07-09T18:31:31-04:00"}
{"url": "https://job-boards.greenhouse.io/affirm/jobs/7792932003", "company_key": "greenhouse:affirm", "location": "Remote Canada", "lat": 70.8553058, "lng": -70.9174507, "first_published": "2026-07-09T17:11:30-04:00"}
{"url": "https://sofi.com/careers/job/7800206003?gh_jid=7800206003", "company_key": "greenhouse:sofi", "location": "TX - Frisco", "lat": null, "lng": null, "first_published": "2026-07-09T15:23:57-04:00"}
{"url": "https://boards.greenhouse.io/embed/job_app?for=gemini&token=8053939&gh_jid=8053939", "company_key": "greenhouse:gemini", "location": "New York, New York; Miami, Florida; Remote (USA)", "lat": null, "lng": null, "first_published": "2026-07-09T15:27:17-04:00"}
{"url": "https://job-boards.greenhouse.io/bitgo/jobs/8627534002", "company_key": "greenhouse:bitgo", "location": "Singapore, North West, Singapore", "lat": null, "lng": null, "first_published": "2026-07-09T19:17:39-04:00"}
{"url": "https://job-boards.greenhouse.io/bitgo/jobs/8627529002", "company_key": "greenhouse:bitgo", "location": "London, England, United Kingdom", "lat": 51.5074456, "lng": -0.1277653, "first_published": "2026-07-09T19:13:10-04:00"}
{"url": "https://job-boards.greenhouse.io/alpaca/jobs/6112157004", "company_key": "greenhouse:alpaca", "location": "Remote - North America ", "lat": null, "lng": null, "first_published": "2026-07-09T15:42:52-04:00"}
{"url": "https://www.asana.com/jobs/apply/8029480?gh_jid=8029480", "company_key": "greenhouse:asana", "location": "Warsaw", "lat": 52.2333742, "lng": 21.0711489, "first_published": "2026-07-09T15:21:22-04:00"}
{"url": "https://www.asana.com/jobs/apply/7977197?gh_jid=7977197", "company_key": "greenhouse:asana", "location": "New York City", "lat": 40.7127281, "lng": -74.0060152, "first_published": "2026-07-09T14:29:49-04:00"}
{"url": "https://job-boards.greenhouse.io/mixpanel/jobs/8040016", "company_key": "greenhouse:mixpanel", "location": "Sydney, Australia (Hybrid)", "lat": null, "lng": null, "first_published": "2026-07-09T21:36:02-04:00"}
{"url": "https://job-boards.greenhouse.io/mixpanel/jobs/8040010", "company_key": "greenhouse:mixpanel", "location": "Sydney, Australia (Hybrid)", "lat": null, "lng": null, "first_published": "2026-07-09T21:44:25-04:00"}
{"url": "https://job-boards.greenhouse.io/mixpanel/jobs/8039885", "company_key": "greenhouse:mixpanel", "location": "Sydney, Australia (Hybrid)", "lat": null, "lng": null, "first_published": "2026-07-09T21:40:48-04:00"}
{"url": "https://job-boards.greenhouse.io/mixpanel/jobs/8039991", "company_key": "greenhouse:mixpanel", "location": "Sydney, Australia (Hybrid)", "lat": null, "lng": null, "first_published": "2026-07-09T21:38:11-04:00"}
{"url": "https://abnormal.ai/careers/jobs/7799508003?gh_jid=7799508003", "company_key": "greenhouse:abnormalsecurity", "location": "Remote - Australia", "lat": null, "lng": null, "first_published": "2026-07-09T18:52:09-04:00"}
{"url": "http://www.onemedical.com/careers/all-departments/8054531?gh_jid=8054531", "company_key": "greenhouse:onemedical", "location": "Englewood, NJ", "lat": null, "lng": null, "first_published": "2026-07-09T18:01:02-04:00"}
{"url": "http://www.onemedical.com/careers/all-departments/8054567?gh_jid=8054567", "company_key": "greenhouse:onemedical", "location": "Edgewater, NJ", "lat": null, "lng": null, "first_published": "2026-07-09T18:02:12-04:00"}
{"url": "http://www.onemedical.com/careers/all-departments/8054570?gh_jid=8054570", "company_key": "greenhouse:onemedical", "location": "Hoboken, NJ", "lat": null, "lng": null, "first_published": "2026-07-09T18:03:56-04:00"}
{"url": "http://www.onemedical.com/careers/all-departments/8054370?gh_jid=8054370", "company_key": "greenhouse:onemedical", "location": "Portland, OR", "lat": 45.5202471, "lng": -122.674194, "first_published": "2026-07-09T16:38:27-04:00"}
{"url": "http://www.onemedical.com/careers/all-departments/8050054?gh_jid=8050054", "company_key": "greenhouse:onemedical", "location": "Portland, OR", "lat": 45.5202471, "lng": -122.674194, "first_published": "2026-07-09T16:33:29-04:00"}
{"url": "http://www.onemedical.com/careers/all-departments/8054572?gh_jid=8054572", "company_key": "greenhouse:onemedical", "location": "Hoboken, NJ", "lat": null, "lng": null, "first_published": "2026-07-09T18:04:49-04:00"}
{"url": "https://job-boards.greenhouse.io/natera/jobs/6112949004", "company_key": "greenhouse:natera", "location": "Tucson, AZ", "lat": null, "lng": null, "first_published": "2026-07-09T17:53:39-04:00"}
{"url": "https://job-boards.greenhouse.io/natera/jobs/6111260004", "company_key": "greenhouse:natera", "location": "Chicago, IL", "lat": 41.8755616, "lng": -87.6244212, "first_published": "2026-07-09T17:32:56-04:00"}
{"url": "https://job-boards.greenhouse.io/natera/jobs/6110598004", "company_key": "greenhouse:natera", "location": "San Carlos, CA", "lat": null, "lng": null, "first_published": "2026-07-09T17:24:23-04:00"}
{"url": "https://job-boards.greenhouse.io/natera/jobs/6110225004", "company_key": "greenhouse:natera", "location": "US Remote", "lat": 43.0059455, "lng": -123.8925908, "first_published": "2026-07-09T17:24:22-04:00"}
{"url": "https://job-boards.greenhouse.io/natera/jobs/5734564004", "company_key": "greenhouse:natera", "location": "Austin, TX", "lat": 30.2711286, "lng": -97.7436995, "first_published": "2026-07-09T17:09:32-04:00"}
{"url": "https://job-boards.greenhouse.io/freenome/jobs/8616849002", "company_key": "greenhouse:freenome", "location": "Remote", "lat": 43.0059455, "lng": -123.8925908, "first_published": "2026-07-09T15:28:03-04:00"}
{"url": "https://job-boards.greenhouse.io/garnerhealth/jobs/6112985004", "company_key": "greenhouse:garnerhealth", "location": "Remote", "lat": 43.0059455, "lng": -123.8925908, "first_published": "2026-07-09T17:52:50-04:00"}
{"url": "https://job-boards.greenhouse.io/garnerhealth/jobs/6112922004", "company_key": "greenhouse:garnerhealth", "location": "New York City, New York", "lat": null, "lng": null, "first_published": "2026-07-09T15:38:14-04:00"}
{"url": "https://job-boards.greenhouse.io/garnerhealth/jobs/6113093004", "company_key": "greenhouse:garnerhealth", "location": "New York City, New York", "lat": null, "lng": null, "first_published": "2026-07-09T19:09:42-04:00"}
{"url": "https://job-boards.greenhouse.io/garnerhealth/jobs/6112947004", "company_key": "greenhouse:garnerhealth", "location": "New York City, New York", "lat": null, "lng": null, "first_published": "2026-07-09T17:01:51-04:00"}
{"url": "https://job-boards.greenhouse.io/garnerhealth/jobs/6113066004", "company_key": "greenhouse:garnerhealth", "location": "Remote", "lat": 43.0059455, "lng": -123.8925908, "first_published": "2026-07-09T18:30:37-04:00"}
{"url": "https://job-boards.greenhouse.io/iterativehealth/jobs/4695430006", "company_key": "greenhouse:iterativehealth", "location": "New Albany, IN", "lat": null, "lng": null, "first_published": "2026-07-09T15:50:32-04:00"}
{"url": "https://job-boards.greenhouse.io/iterativehealth/jobs/4695759006", "company_key": "greenhouse:iterativehealth", "location": "Tyler, Texas", "lat": null, "lng": null, "first_published": "2026-07-09T14:20:22-04:00"}
{"url": "https://aurora.tech/jobs/8618752002?gh_jid=8618752002", "company_key": "greenhouse:aurorainnovation", "location": "Mountain View, California", "lat": null, "lng": null, "first_published": "2026-07-09T18:34:26-04:00"}
{"url": "https://aurora.tech/jobs/8627479002?gh_jid=8627479002", "company_key": "greenhouse:aurorainnovation", "location": "Pittsburgh, Pennsylvania", "lat": 40.4406968, "lng": -80.0025666, "first_published": "2026-07-09T18:30:47-04:00"}
{"url": "https://motional.com/open-positions/?gh_jid=7798656003#/7798656003", "company_key": "greenhouse:motional", "location": "Singapore, Central, Singapore", "lat": 1.2959845, "lng": 103.7766186, "first_published": "2026-07-09T22:18:30-04:00"}
{"url": "https://boards.greenhouse.io/spacex/jobs/8621989002?gh_jid=8621989002", "company_key": "greenhouse:spacex", "location": "Bastrop, TX", "lat": 30.0541116, "lng": -97.3887764, "first_published": "2026-07-09T18:09:05-04:00"}
{"url": "https://boards.greenhouse.io/spacex/jobs/8627507002?gh_jid=8627507002", "company_key": "greenhouse:spacex", "location": "Starbase, TX", "lat": 25.9914611, "lng": -97.1829783, "first_published": "2026-07-09T18:28:16-04:00"}
{"url": "https://boards.greenhouse.io/spacex/jobs/8627510002?gh_jid=8627510002", "company_key": "greenhouse:spacex", "location": "Starbase, TX", "lat": 25.9914611, "lng": -97.1829783, "first_published": "2026-07-09T18:30:03-04:00"}
{"url": "https://boards.greenhouse.io/spacex/jobs/8624836002?gh_jid=8624836002", "company_key": "greenhouse:spacex", "location": "Bastrop, TX", "lat": 30.0541116, "lng": -97.3887764, "first_published": "2026-07-09T14:31:18-04:00"}
{"url": "https://boards.greenhouse.io/spacex/jobs/8627520002?gh_jid=8627520002", "company_key": "greenhouse:spacex", "location": "Bastrop, TX", "lat": 30.0541116, "lng": -97.3887764, "first_published": "2026-07-09T18:55:04-04:00"}
{"url": "https://boards.greenhouse.io/spacex/jobs/8627533002?gh_jid=8627533002", "company_key": "greenhouse:spacex", "location": "Cape Canaveral, FL", "lat": 28.4513556, "lng": -80.5283059, "first_published": "2026-07-09T20:17:50-04:00"}
{"url": "https://boards.greenhouse.io/spacex/jobs/8627069002?gh_jid=8627069002", "company_key": "greenhouse:spacex", "location": "Memphis, TN", "lat": 35.146026, "lng": -90.0517786, "first_published": "2026-07-09T18:24:51-04:00"}
{"url": "https://boards.greenhouse.io/spacex/jobs/8626679002?gh_jid=8626679002", "company_key": "greenhouse:spacex", "location": "Hawthorne, CA", "lat": 33.9128272, "lng": -118.3426122, "first_published": "2026-07-09T14:33:24-04:00"}
{"url": "https://boards.greenhouse.io/spacex/jobs/8627410002?gh_jid=8627410002", "company_key": "greenhouse:spacex", "location": "Hawthorne, CA", "lat": 33.9128272, "lng": -118.3426122, "first_published": "2026-07-09T17:14:36-04:00"}
{"url": "https://boards.greenhouse.io/spacex/jobs/8627222002?gh_jid=8627222002", "company_key": "greenhouse:spacex", "location": "Starbase, TX", "lat": 25.9914611, "lng": -97.1829783, "first_published": "2026-07-09T17:14:35-04:00"}
{"url": "https://boards.greenhouse.io/spacex/jobs/8626973002?gh_jid=8626973002", "company_key": "greenhouse:spacex", "location": "Canandaigua, NY ", "lat": 42.850682, "lng": -77.3191454, "first_published": "2026-07-09T14:28:22-04:00"}
{"url": "https://boards.greenhouse.io/spacex/jobs/8627025002?gh_jid=8627025002", "company_key": "greenhouse:spacex", "location": "Hawthorne, CA", "lat": 33.9128272, "lng": -118.3426122, "first_published": "2026-07-09T14:50:00-04:00"}
{"url": "https://boards.greenhouse.io/spacex/jobs/8624835002?gh_jid=8624835002", "company_key": "greenhouse:spacex", "location": "Bastrop, TX", "lat": 30.0541116, "lng": -97.3887764, "first_published": "2026-07-09T14:31:19-04:00"}
{"url": "https://boards.greenhouse.io/spacex/jobs/8621675002?gh_jid=8621675002", "company_key": "greenhouse:spacex", "location": "Hawthorne, CA", "lat": 33.9128272, "lng": -118.3426122, "first_published": "2026-07-09T15:03:39-04:00"}
{"url": "https://boards.greenhouse.io/spacex/jobs/8623403002?gh_jid=8623403002", "company_key": "greenhouse:spacex", "location": "Woodinville, WA", "lat": null, "lng": null, "first_published": "2026-07-09T16:16:27-04:00"}
{"url": "https://boards.greenhouse.io/spacex/jobs/8624695002?gh_jid=8624695002", "company_key": "greenhouse:spacex", "location": "Redmond, WA", "lat": 47.6694141, "lng": -122.1238767, "first_published": "2026-07-09T14:32:48-04:00"}
{"url": "https://boards.greenhouse.io/spacex/jobs/8624708002?gh_jid=8624708002", "company_key": "greenhouse:spacex", "location": "Redmond, WA", "lat": 47.6694141, "lng": -122.1238767, "first_published": "2026-07-09T14:32:01-04:00"}
{"url": "https://boards.greenhouse.io/spacex/jobs/8624866002?gh_jid=8624866002", "company_key": "greenhouse:spacex", "location": "Bastrop, TX", "lat": 30.0541116, "lng": -97.3887764, "first_published": "2026-07-09T14:30:22-04:00"}
{"url": "https://boards.greenhouse.io/spacex/jobs/8627595002?gh_jid=8627595002", "company_key": "greenhouse:spacex", "location": "Starbase, TX", "lat": 25.9914611, "lng": -97.1829783, "first_published": "2026-07-09T20:23:38-04:00"}
{"url": "https://boards.greenhouse.io/spacex/jobs/8627593002?gh_jid=8627593002", "company_key": "greenhouse:spacex", "location": "Hawthorne, CA", "lat": 33.9128272, "lng": -118.3426122, "first_published": "2026-07-09T20:23:37-04:00"}
{"url": "https://boards.greenhouse.io/spacex/jobs/8626661002?gh_jid=8626661002", "company_key": "greenhouse:spacex", "location": "Hawthorne, CA", "lat": 33.9128272, "lng": -118.3426122, "first_published": "2026-07-09T14:58:18-04:00"}
{"url": "https://boards.greenhouse.io/spacex/jobs/8627630002?gh_jid=8627630002", "company_key": "greenhouse:spacex", "location": "Redmond, WA", "lat": 47.6694141, "lng": -122.1238767, "first_published": "2026-07-09T22:32:09-04:00"}
{"url": "https://boards.greenhouse.io/spacex/jobs/8627633002?gh_jid=8627633002", "company_key": "greenhouse:spacex", "location": "Bastrop, TX", "lat": 30.0541116, "lng": -97.3887764, "first_published": "2026-07-09T22:32:10-04:00"}
{"url": "https://boards.greenhouse.io/spacex/jobs/8627634002?gh_jid=8627634002", "company_key": "greenhouse:spacex", "location": "Starbase, TX", "lat": 25.9914611, "lng": -97.1829783, "first_published": "2026-07-09T22:32:11-04:00"}
{"url": "https://boards.greenhouse.io/spacex/jobs/8624707002?gh_jid=8624707002", "company_key": "greenhouse:spacex", "location": "Redmond, WA", "lat": 47.6694141, "lng": -122.1238767, "first_published": "2026-07-09T14:32:02-04:00"}
{"url": "https://boards.greenhouse.io/spacex/jobs/8624867002?gh_jid=8624867002", "company_key": "greenhouse:spacex", "location": "Bastrop, TX", "lat": 30.0541116, "lng": -97.3887764, "first_published": "2026-07-09T14:30:23-04:00"}
{"url": "https://boards.greenhouse.io/spacex/jobs/8627586002?gh_jid=8627586002", "company_key": "greenhouse:spacex", "location": "Bastrop, TX", "lat": 30.0541116, "lng": -97.3887764, "first_published": "2026-07-09T19:56:27-04:00"}
{"url": "https://boards.greenhouse.io/spacex/jobs/8621590002?gh_jid=8621590002", "company_key": "greenhouse:spacex", "location": "Hawthorne, CA", "lat": 33.9128272, "lng": -118.3426122, "first_published": "2026-07-09T15:02:58-04:00"}
{"url": "https://job-boards.greenhouse.io/checkr/jobs/8047574", "company_key": "greenhouse:checkr", "location": "San Francisco, California, United States", "lat": 37.7879363, "lng": -122.4075201, "first_published": "2026-07-09T16:59:10-04:00"}
{"url": "https://job-boards.greenhouse.io/smartsheet/jobs/8054647", "company_key": "greenhouse:smartsheet", "location": "Chicago, IL, USA", "lat": null, "lng": null, "first_published": "2026-07-09T19:12:36-04:00"}
{"url": "https://job-boards.greenhouse.io/smartsheet/jobs/8054608", "company_key": "greenhouse:smartsheet", "location": "San Francisco, CA, USA", "lat": 37.7879363, "lng": -122.4075201, "first_published": "2026-07-09T18:32:21-04:00"}
{"url": "https://www.jamf.com/about/careers/jobs/?gh_jid=6110775004&gh_jid=6110775004", "company_key": "greenhouse:jamf", "location": "Minneapolis, MN", "lat": 44.9772995, "lng": -93.2654692, "first_published": "2026-07-09T16:42:03-04:00"}
{"url": "https://job-boards.greenhouse.io/thenewyorktimes/jobs/4713547005", "company_key": "greenhouse:thenewyorktimes", "location": "New York, NY", "lat": 40.7127281, "lng": -74.0060152, "first_published": "2026-07-09T16:55:12-04:00"}
{"url": "https://job-boards.greenhouse.io/flexport/jobs/8044163", "company_key": "greenhouse:flexport", "location": "San Francisco, California, United States", "lat": 37.7879363, "lng": -122.4075201, "first_published": "2026-07-09T19:07:13-04:00"}
{"url": "https://job-boards.greenhouse.io/flexport/jobs/8054644", "company_key": "greenhouse:flexport", "location": "New York City, New York, United States", "lat": null, "lng": null, "first_published": "2026-07-09T19:07:14-04:00"}
{"url": "https://job-boards.greenhouse.io/flexport/jobs/8054645", "company_key": "greenhouse:flexport", "location": "Chicago, Illinois, United States", "lat": 41.8755616, "lng": -87.6244212, "first_published": "2026-07-09T19:07:15-04:00"}
{"url": "https://job-boards.greenhouse.io/adyen/jobs/8015993", "company_key": "greenhouse:adyen", "location": "San Francisco", "lat": 37.7879363, "lng": -122.4075201, "first_published": "2026-07-09T18:56:56-04:00"}
{"url": "https://job-boards.greenhouse.io/adyen/jobs/8053736", "company_key": "greenhouse:adyen", "location": "San Francisco", "lat": 37.7879363, "lng": -122.4075201, "first_published": "2026-07-09T17:52:04-04:00"}
{"url": "https://job-boards.greenhouse.io/afresh/jobs/6108303004", "company_key": "greenhouse:afresh", "location": "San Francisco, CA", "lat": 37.7879363, "lng": -122.4075201, "first_published": "2026-07-09T17:21:25-04:00"}
{"url": "https://job-boards.greenhouse.io/afresh/jobs/6108299004", "company_key": "greenhouse:afresh", "location": "San Francisco, CA", "lat": 37.7879363, "lng": -122.4075201, "first_published": "2026-07-09T17:31:39-04:00"}
{"url": "https://job-boards.greenhouse.io/altanaai/jobs/7800193003", "company_key": "greenhouse:altanaai", "location": "Brooklyn, NY", "lat": null, "lng": null, "first_published": "2026-07-09T17:27:02-04:00"}
{"url": "https://www.playlist.com/careers/opportunities/4696018006?gh_jid=4696018006", "company_key": "greenhouse:classpass", "location": "United States", "lat": 39.7837304, "lng": -100.445882, "first_published": "2026-07-09T16:46:45-04:00"}
{"url": "https://job-boards.greenhouse.io/enova/jobs/8054386", "company_key": "greenhouse:enova", "location": "Chicago, IL ", "lat": null, "lng": null, "first_published": "2026-07-09T16:45:38-04:00"}
{"url": "https://job-boards.greenhouse.io/enova/jobs/8054707", "company_key": "greenhouse:enova", "location": "Remote", "lat": 43.0059455, "lng": -123.8925908, "first_published": "2026-07-09T20:37:41-04:00"}
{"url": "https://job-boards.greenhouse.io/figure/jobs/8582241002", "company_key": "greenhouse:figure", "location": "Remote", "lat": 43.0059455, "lng": -123.8925908, "first_published": "2026-07-09T15:16:05-04:00"}
{"url": "https://careers.godaddy/jobs?gh_jid=7777468003", "company_key": "greenhouse:godaddy", "location": "Gurugram, Haryana, India", "lat": null, "lng": null, "first_published": "2026-07-09T14:31:21-04:00"}
{"url": "https://careers.hellofresh.com/global/en/job/8043872?gh_jid=8043872", "company_key": "greenhouse:hellofresh", "location": "Irving, TX, United States", "lat": null, "lng": null, "first_published": "2026-07-09T14:54:05-04:00"}
{"url": "https://job-boards.greenhouse.io/hudl/jobs/8054341", "company_key": "greenhouse:hudl", "location": "Lincoln, NE, United States; Omaha, NE, United States", "lat": null, "lng": null, "first_published": "2026-07-09T17:35:33-04:00"}
{"url": "https://job-boards.greenhouse.io/ionq/jobs/6110256004", "company_key": "greenhouse:ionq", "location": "Bothell, Washington, United States", "lat": 47.7623204, "lng": -122.2054035, "first_published": "2026-07-09T14:51:46-04:00"}
{"url": "https://job-boards.greenhouse.io/knowbe4/jobs/8627562002", "company_key": "greenhouse:knowbe4", "location": "Chicago, Illinois", "lat": null, "lng": null, "first_published": "2026-07-09T19:43:58-04:00"}
{"url": "https://job-boards.greenhouse.io/knowbe4/jobs/8627569002", "company_key": "greenhouse:knowbe4", "location": "Austin, Texas", "lat": 30.2711286, "lng": -97.7436995, "first_published": "2026-07-09T19:48:22-04:00"}
{"url": "https://job-boards.greenhouse.io/knowbe4/jobs/8627583002", "company_key": "greenhouse:knowbe4", "location": "Boston, Massachusetts", "lat": 42.3588336, "lng": -71.0578303, "first_published": "2026-07-09T19:57:24-04:00"}
{"url": "https://job-boards.greenhouse.io/knowbe4/jobs/8627589002", "company_key": "greenhouse:knowbe4", "location": "Dallas, Texas", "lat": 32.7762719, "lng": -96.7968559, "first_published": "2026-07-09T20:01:10-04:00"}
{"url": "https://job-boards.greenhouse.io/knowbe4/jobs/8627213002", "company_key": "greenhouse:knowbe4", "location": "Remote", "lat": 43.0059455, "lng": -123.8925908, "first_published": "2026-07-09T15:47:50-04:00"}
{"url": "https://job-boards.greenhouse.io/missionlane/jobs/8627321002", "company_key": "greenhouse:missionlane", "location": "Remote, United States", "lat": 43.0059455, "lng": -123.8925908, "first_published": "2026-07-09T18:07:45-04:00"}
{"url": "https://job-boards.greenhouse.io/odeko/jobs/6113150004", "company_key": "greenhouse:odeko", "location": "Portland, Oregon, United States", "lat": null, "lng": null, "first_published": "2026-07-09T20:56:28-04:00"}
{"url": "https://job-boards.greenhouse.io/odeko/jobs/6112874004", "company_key": "greenhouse:odeko", "location": "Moonachie, New Jersey, United States", "lat": null, "lng": null, "first_published": "2026-07-09T15:02:42-04:00"}
{"url": "https://www.optiver.com/join-us/jobs/8627587002/?gh_jid=8627587002", "company_key": "greenhouse:optiverus", "location": "Sydney, Australia", "lat": -33.8698439, "lng": 151.2082848, "first_published": "2026-07-09T21:01:36-04:00"}
{"url": "https://job-boards.greenhouse.io/outsetmedical/jobs/8606943002", "company_key": "greenhouse:outsetmedical", "location": "Akron, OH", "lat": null, "lng": null, "first_published": "2026-07-09T20:29:54-04:00"}
{"url": "https://job-boards.greenhouse.io/outsetmedical/jobs/8612407002", "company_key": "greenhouse:outsetmedical", "location": "Charleston, SC", "lat": null, "lng": null, "first_published": "2026-07-09T20:22:35-04:00"}
{"url": "https://job-boards.greenhouse.io/pieinsurance/jobs/6112124004", "company_key": "greenhouse:pieinsurance", "location": "United States", "lat": 39.7837304, "lng": -100.445882, "first_published": "2026-07-09T14:21:51-04:00"}
{"url": "https://job-boards.greenhouse.io/pieinsurance/jobs/6112136004", "company_key": "greenhouse:pieinsurance", "location": "United States", "lat": 39.7837304, "lng": -100.445882, "first_published": "2026-07-09T16:37:51-04:00"}
{"url": "https://job-boards.greenhouse.io/pieinsurance/jobs/6112137004", "company_key": "greenhouse:pieinsurance", "location": "United States", "lat": 39.7837304, "lng": -100.445882, "first_published": "2026-07-09T16:36:18-04:00"}
{"url": "https://job-boards.greenhouse.io/pieinsurance/jobs/6112132004", "company_key": "greenhouse:pieinsurance", "location": "United States", "lat": 39.7837304, "lng": -100.445882, "first_published": "2026-07-09T14:27:28-04:00"}
{"url": "https://boards.greenhouse.io/point72/jobs/8582756002?gh_jid=8582756002", "company_key": "greenhouse:point72", "location": "New York, New York", "lat": 40.7127281, "lng": -74.0060152, "first_published": "2026-07-09T16:26:21-04:00"}
{"url": "https://job-boards.greenhouse.io/rvohealth/jobs/4712246005", "company_key": "greenhouse:rvohealth", "location": "Remote- US", "lat": null, "lng": null, "first_published": "2026-07-09T15:59:46-04:00"}
{"url": "https://job-boards.greenhouse.io/sezzle/jobs/7800490003", "company_key": "greenhouse:sezzle", "location": "Mexico, Remote", "lat": null, "lng": null, "first_published": "2026-07-09T17:41:25-04:00"}
{"url": "https://job-boards.greenhouse.io/sezzle/jobs/7799322003", "company_key": "greenhouse:sezzle", "location": "Latin America", "lat": null, "lng": null, "first_published": "2026-07-09T15:32:36-04:00"}
{"url": "https://job-boards.greenhouse.io/sezzle/jobs/7799323003", "company_key": "greenhouse:sezzle", "location": "Chile, Remote", "lat": null, "lng": null, "first_published": "2026-07-09T17:26:30-04:00"}
{"url": "https://job-boards.greenhouse.io/sezzle/jobs/7800311003", "company_key": "greenhouse:sezzle", "location": "Argentina, Remote", "lat": null, "lng": null, "first_published": "2026-07-09T17:39:44-04:00"}
{"url": "https://job-boards.greenhouse.io/tecovas/jobs/8612497002", "company_key": "greenhouse:tecovas", "location": "Austin, TX", "lat": 30.2711286, "lng": -97.7436995, "first_published": "2026-07-09T16:39:55-04:00"}
{"url": "https://job-boards.greenhouse.io/curaleaf/jobs/8627199002", "company_key": "greenhouse:curaleaf", "location": "10422 US\u2011301 S Riverview, FL", "lat": null, "lng": null, "first_published": "2026-07-09T15:32:21-04:00"}
{"url": "https://job-boards.greenhouse.io/mozilla/jobs/8031046", "company_key": "greenhouse:mozilla", "location": "Remote", "lat": 43.0059455, "lng": -123.8925908, "first_published": "2026-07-09T16:44:33-04:00"}
{"url": "https://job-boards.greenhouse.io/mozilla/jobs/8031211", "company_key": "greenhouse:mozilla", "location": "Remote US", "lat": 43.0059455, "lng": -123.8925908, "first_published": "2026-07-09T16:44:32-04:00"}
{"url": "https://boards.greenhouse.io/ridgeline/jobs/7800098003?gh_jid=7800098003", "company_key": "greenhouse:ridgeline", "location": "New York, NY", "lat": 40.7127281, "lng": -74.0060152, "first_published": "2026-07-09T14:28:04-04:00"}
{"url": "https://job-boards.greenhouse.io/55564patriot334567software868575745/jobs/4311189009", "company_key": "greenhouse:55564patriot334567software868575745", "location": "Remote", "lat": 43.0059455, "lng": -123.8925908, "first_published": "2026-07-09T15:21:18-04:00"}
{"url": "https://job-boards.greenhouse.io/7shifts/jobs/6111896004", "company_key": "greenhouse:7shifts", "location": "Toronto, ON", "lat": null, "lng": null, "first_published": "2026-07-09T16:24:37-04:00"}
{"url": "https://job-boards.greenhouse.io/7shifts/jobs/6112984004", "company_key": "greenhouse:7shifts", "location": "Saskatoon, SK", "lat": null, "lng": null, "first_published": "2026-07-09T16:24:38-04:00"}
{"url": "https://www.abclegal.com/job-openings/job?id=7800269003&gh_jid=7800269003", "company_key": "greenhouse:abclegalservices", "location": "Kansas, US (Remote)", "lat": null, "lng": null, "first_published": "2026-07-09T15:46:32-04:00"}
{"url": "https://www.abclegal.com/job-openings/job?id=7800279003&gh_jid=7800279003", "company_key": "greenhouse:abclegalservices", "location": "Alabama, US (Remote)", "lat": null, "lng": null, "first_published": "2026-07-09T15:46:39-04:00"}
{"url": "https://www.abclegal.com/job-openings/job?id=7800278003&gh_jid=7800278003", "company_key": "greenhouse:abclegalservices", "location": "Mississippi, US (Remote)", "lat": null, "lng": null, "first_published": "2026-07-09T15:46:40-04:00"}
{"url": "https://www.abclegal.com/job-openings/job?id=7800267003&gh_jid=7800267003", "company_key": "greenhouse:abclegalservices", "location": "Montana, US (Remote)", "lat": null, "lng": null, "first_published": "2026-07-09T15:46:31-04:00"}
{"url": "https://www.abclegal.com/job-openings/job?id=7800275003&gh_jid=7800275003", "company_key": "greenhouse:abclegalservices", "location": "North Carolina, US (Remote)", "lat": null, "lng": null, "first_published": "2026-07-09T15:46:38-04:00"}
{"url": "https://www.abclegal.com/job-openings/job?id=7800271003&gh_jid=7800271003", "company_key": "greenhouse:abclegalservices", "location": "Iowa, US (Remote)", "lat": null, "lng": null, "first_published": "2026-07-09T15:46:33-04:00"}
{"url": "https://www.abclegal.com/job-openings/job?id=7800274003&gh_jid=7800274003", "company_key": "greenhouse:abclegalservices", "location": "Indiana, US (Remote)", "lat": null, "lng": null, "first_published": "2026-07-09T15:46:37-04:00"}
{"url": "https://www.abclegal.com/job-openings/job?id=7800282003&gh_jid=7800282003", "company_key": "greenhouse:abclegalservices", "location": "Virginia, US (Remote)", "lat": null, "lng": null, "first_published": "2026-07-09T15:46:43-04:00"}
{"url": "https://www.abclegal.com/job-openings/job?id=7800280003&gh_jid=7800280003", "company_key": "greenhouse:abclegalservices", "location": "Florida, US (Remote)", "lat": null, "lng": null, "first_published": "2026-07-09T15:46:39-04:00"}
{"url": "https://www.abclegal.com/job-openings/job?id=7800268003&gh_jid=7800268003", "company_key": "greenhouse:abclegalservices", "location": "North Dakota, US (Remote)", "lat": null, "lng": null, "first_published": "2026-07-09T15:46:35-04:00"}
{"url": "https://www.abclegal.com/job-openings/job?id=7800273003&gh_jid=7800273003", "company_key": "greenhouse:abclegalservices", "location": "Michigan, US (Remote)", "lat": null, "lng": null, "first_published": "2026-07-09T15:46:36-04:00"}
{"url": "https://www.abclegal.com/job-openings/job?id=7800277003&gh_jid=7800277003", "company_key": "greenhouse:abclegalservices", "location": "Louisiana, US (Remote)", "lat": null, "lng": null, "first_published": "2026-07-09T15:46:41-04:00"}
{"url": "https://www.abclegal.com/job-openings/job?id=7791524003&gh_jid=7791524003", "company_key": "greenhouse:abclegalservices", "location": "Seattle, WA", "lat": 47.6038321, "lng": -122.330062, "first_published": "2026-07-09T17:01:44-04:00"}
{"url": "https://acadia.com/en-us/careers/job-board/8620668002?gh_jid=8620668002", "company_key": "greenhouse:acadiapharmaceuticals", "location": "Princeton, New Jersey, United States; San Diego, California, United States; South San Francisco, California, United States", "lat": null, "lng": null, "first_published": "2026-07-09T17:19:17-04:00"}
{"url": "https://job-boards.greenhouse.io/accela/jobs/8053750", "company_key": "greenhouse:accela", "location": "Remote Based - US", "lat": null, "lng": null, "first_published": "2026-07-09T14:38:31-04:00"}
{"url": "https://job-boards.greenhouse.io/accelschools/jobs/7800414003", "company_key": "greenhouse:accelschools", "location": "Western Toledo Preparatory Academy at Spring Meadows", "lat": null, "lng": null, "first_published": "2026-07-09T16:42:42-04:00"}
{"url": "https://job-boards.greenhouse.io/accelschools/jobs/7800347003", "company_key": "greenhouse:accelschools", "location": "Canton College Preparatory School", "lat": null, "lng": null, "first_published": "2026-07-09T16:12:30-04:00"}
{"url": "https://job-boards.greenhouse.io/accelschools/jobs/7800248003", "company_key": "greenhouse:accelschools", "location": "North Columbus Preparatory Academy", "lat": null, "lng": null, "first_published": "2026-07-09T15:35:27-04:00"}
{"url": "https://job-boards.greenhouse.io/accelschools/jobs/7800403003", "company_key": "greenhouse:accelschools", "location": "Toledo Preparatory Academy", "lat": null, "lng": null, "first_published": "2026-07-09T16:39:25-04:00"}
{"url": "https://job-boards.greenhouse.io/accelschools/jobs/7800287003", "company_key": "greenhouse:accelschools", "location": "South Columbus Preparatory Academy - Southfield", "lat": null, "lng": null, "first_published": "2026-07-09T15:45:49-04:00"}
{"url": "https://job-boards.greenhouse.io/accelschools/jobs/7800380003", "company_key": "greenhouse:accelschools", "location": "Monroe Preparatory Academy", "lat": 43.1427736, "lng": -77.6027498, "first_published": "2026-07-09T16:26:05-04:00"}
{"url": "https://job-boards.greenhouse.io/accelschools/jobs/7800345003", "company_key": "greenhouse:accelschools", "location": "Akron Preparatory School", "lat": null, "lng": null, "first_published": "2026-07-09T16:09:21-04:00"}
{"url": "https://job-boards.greenhouse.io/accelschools/jobs/7800350003", "company_key": "greenhouse:accelschools", "location": "Case Preparatory Academy", "lat": null, "lng": null, "first_published": "2026-07-09T16:15:13-04:00"}
{"url": "https://job-boards.greenhouse.io/accelschools/jobs/7800394003", "company_key": "greenhouse:accelschools", "location": "Sheffield Academy", "lat": null, "lng": null, "first_published": "2026-07-09T16:31:21-04:00"}
{"url": "https://job-boards.greenhouse.io/accelschools/jobs/7800182003", "company_key": "greenhouse:accelschools", "location": "Columbus Bilingual West", "lat": null, "lng": null, "first_published": "2026-07-09T15:10:02-04:00"}
{"url": "https://job-boards.greenhouse.io/accelschools/jobs/7800216003", "company_key": "greenhouse:accelschools", "location": "Cornerstone Academy - Elementary", "lat": null, "lng": null, "first_published": "2026-07-09T15:23:02-04:00"}
{"url": "https://job-boards.greenhouse.io/accelschools/jobs/7800405003", "company_key": "greenhouse:accelschools", "location": "Toledo Preparatory Academy", "lat": null, "lng": null, "first_published": "2026-07-09T16:40:05-04:00"}
{"url": "https://job-boards.greenhouse.io/accelschools/jobs/7800361003", "company_key": "greenhouse:accelschools", "location": "Lorain Preparatory Academy", "lat": null, "lng": null, "first_published": "2026-07-09T16:21:17-04:00"}
{"url": "https://job-boards.greenhouse.io/accelschools/jobs/7800184003", "company_key": "greenhouse:accelschools", "location": "Columbus Humanities Arts & Technology Academy", "lat": 40.0596762, "lng": -82.9832381, "first_published": "2026-07-09T15:10:43-04:00"}
{"url": "https://job-boards.greenhouse.io/accelschools/jobs/7800372003", "company_key": "greenhouse:accelschools", "location": "Lorain Preparatory Academy", "lat": null, "lng": null, "first_published": "2026-07-09T16:21:54-04:00"}
{"url": "https://job-boards.greenhouse.io/accelschools/jobs/7800217003", "company_key": "greenhouse:accelschools", "location": "Cornerstone Academy - Middle School", "lat": null, "lng": null, "first_published": "2026-07-09T15:23:40-04:00"}
{"url": "https://job-boards.greenhouse.io/accelschools/jobs/7800225003", "company_key": "greenhouse:accelschools", "location": "Cornerstone Academy - Middle School", "lat": null, "lng": null, "first_published": "2026-07-09T15:24:40-04:00"}
{"url": "https://job-boards.greenhouse.io/accelschools/jobs/7800134003", "company_key": "greenhouse:accelschools", "location": "Columbus Arts & Technology Academy", "lat": 40.0596762, "lng": -82.9832381, "first_published": "2026-07-09T14:58:20-04:00"}
{"url": "https://job-boards.greenhouse.io/accelschools/jobs/7800416003", "company_key": "greenhouse:accelschools", "location": "Wright Preparatory Academy", "lat": null, "lng": null, "first_published": "2026-07-09T16:43:41-04:00"}
{"url": "https://job-boards.greenhouse.io/accelschools/jobs/7800243003", "company_key": "greenhouse:accelschools", "location": "Eastland Preparatory Academy", "lat": null, "lng": null, "first_published": "2026-07-09T15:32:52-04:00"}
{"url": "https://job-boards.greenhouse.io/accelschools/jobs/7800352003", "company_key": "greenhouse:accelschools", "location": "Lorain Bilingual Academy", "lat": null, "lng": null, "first_published": "2026-07-09T16:17:53-04:00"}
{"url": "https://job-boards.greenhouse.io/accelschools/jobs/7800185003", "company_key": "greenhouse:accelschools", "location": "Columbus Humanities Arts & Technology Academy", "lat": 40.0596762, "lng": -82.9832381, "first_published": "2026-07-09T15:11:14-04:00"}
{"url": "https://job-boards.greenhouse.io/accelschools/jobs/7800381003", "company_key": "greenhouse:accelschools", "location": "Monroe Preparatory Academy", "lat": 43.1427736, "lng": -77.6027498, "first_published": "2026-07-09T16:26:48-04:00"}
{"url": "https://job-boards.greenhouse.io/accelschools/jobs/7800135003", "company_key": "greenhouse:accelschools", "location": "Columbus Arts & Technology Academy", "lat": 40.0596762, "lng": -82.9832381, "first_published": "2026-07-09T14:58:58-04:00"}
{"url": "https://job-boards.greenhouse.io/accelschools/jobs/7800252003", "company_key": "greenhouse:accelschools", "location": "South Columbus Preparatory Academy - German Village", "lat": null, "lng": null, "first_published": "2026-07-09T15:38:13-04:00"}
{"url": "https://job-boards.greenhouse.io/accelschools/jobs/7800354003", "company_key": "greenhouse:accelschools", "location": "Lorain Bilingual Academy", "lat": null, "lng": null, "first_published": "2026-07-09T16:18:30-04:00"}
{"url": "https://job-boards.greenhouse.io/accelschools/jobs/7800406003", "company_key": "greenhouse:accelschools", "location": "Toledo Preparatory Academy", "lat": null, "lng": null, "first_published": "2026-07-09T16:40:40-04:00"}
{"url": "https://job-boards.greenhouse.io/accelschools/jobs/7800373003", "company_key": "greenhouse:accelschools", "location": "Lorain Preparatory Academy", "lat": null, "lng": null, "first_published": "2026-07-09T16:22:30-04:00"}
{"url": "https://job-boards.greenhouse.io/accelschools/jobs/7800375003", "company_key": "greenhouse:accelschools", "location": "Lorain Preparatory High School", "lat": null, "lng": null, "first_published": "2026-07-09T16:23:55-04:00"}
{"url": "https://job-boards.greenhouse.io/accelschools/jobs/7800139003", "company_key": "greenhouse:accelschools", "location": "Columbus Arts & Technology Academy", "lat": 40.0596762, "lng": -82.9832381, "first_published": "2026-07-09T14:59:33-04:00"}
{"url": "https://job-boards.greenhouse.io/accelschools/jobs/7800140003", "company_key": "greenhouse:accelschools", "location": "Columbus Arts & Technology Academy", "lat": 40.0596762, "lng": -82.9832381, "first_published": "2026-07-09T15:00:03-04:00"}
{"url": "https://job-boards.greenhouse.io/accelschools/jobs/7800187003", "company_key": "greenhouse:accelschools", "location": "Columbus Humanities Arts & Technology Academy", "lat": 40.0596762, "lng": -82.9832381, "first_published": "2026-07-09T15:12:02-04:00"}
{"url": "https://job-boards.greenhouse.io/accelschools/jobs/7800396003", "company_key": "greenhouse:accelschools", "location": "Sheffield Academy", "lat": null, "lng": null, "first_published": "2026-07-09T16:32:04-04:00"}
{"url": "https://job-boards.greenhouse.io/accelschools/jobs/7800181003", "company_key": "greenhouse:accelschools", "location": "Columbus Bilingual West", "lat": null, "lng": null, "first_published": "2026-07-09T15:09:28-04:00"}
{"url": "https://job-boards.greenhouse.io/accelschools/jobs/7800163003", "company_key": "greenhouse:accelschools", "location": "Columbus Bilingual Academy North", "lat": 40.0616951, "lng": -82.9655911, "first_published": "2026-07-09T15:05:13-04:00"}
{"url": "https://job-boards.greenhouse.io/accelschools/jobs/7800179003", "company_key": "greenhouse:accelschools", "location": "Columbus Bilingual Academy North", "lat": 40.0616951, "lng": -82.9655911, "first_published": "2026-07-09T15:08:01-04:00"}
{"url": "https://job-boards.greenhouse.io/accelschools/jobs/7800257003", "company_key": "greenhouse:accelschools", "location": "South Columbus Preparatory Academy - German Village", "lat": null, "lng": null, "first_published": "2026-07-09T15:38:58-04:00"}
{"url": "https://job-boards.greenhouse.io/accelschools/jobs/7800189003", "company_key": "greenhouse:accelschools", "location": "Columbus Humanities Arts & Technology Academy", "lat": 40.0596762, "lng": -82.9832381, "first_published": "2026-07-09T15:12:39-04:00"}
{"url": "https://job-boards.greenhouse.io/accelschools/jobs/7800358003", "company_key": "greenhouse:accelschools", "location": "Lorain Bilingual Academy", "lat": null, "lng": null, "first_published": "2026-07-09T16:19:14-04:00"}
{"url": "https://job-boards.greenhouse.io/accelschools/jobs/7800167003", "company_key": "greenhouse:accelschools", "location": "Columbus Bilingual Academy North", "lat": 40.0616951, "lng": -82.9655911, "first_published": "2026-07-09T15:05:56-04:00"}
{"url": "https://job-boards.greenhouse.io/accelschools/jobs/7800141003", "company_key": "greenhouse:accelschools", "location": "Columbus Arts & Technology Academy", "lat": 40.0596762, "lng": -82.9832381, "first_published": "2026-07-09T15:01:42-04:00"}
{"url": "https://job-boards.greenhouse.io/accelschools/jobs/7800260003", "company_key": "greenhouse:accelschools", "location": "South Columbus Preparatory Academy - German Village", "lat": null, "lng": null, "first_published": "2026-07-09T15:39:57-04:00"}
{"url": "https://job-boards.greenhouse.io/accelschools/jobs/7800288003", "company_key": "greenhouse:accelschools", "location": "South Columbus Preparatory Academy - Southfield", "lat": null, "lng": null, "first_published": "2026-07-09T15:46:37-04:00"}
{"url": "https://job-boards.greenhouse.io/accelschools/jobs/7800335003", "company_key": "greenhouse:accelschools", "location": "Academy of Arts & Technology", "lat": null, "lng": null, "first_published": "2026-07-09T16:07:28-04:00"}
{"url": "https://job-boards.greenhouse.io/accelschools/jobs/7800168003", "company_key": "greenhouse:accelschools", "location": "Columbus Bilingual Academy North", "lat": 40.0616951, "lng": -82.9655911, "first_published": "2026-07-09T15:06:29-04:00"}
{"url": "https://job-boards.greenhouse.io/accelschools/jobs/7800131003", "company_key": "greenhouse:accelschools", "location": "A+ Childrens Academy", "lat": null, "lng": null, "first_published": "2026-07-09T14:57:39-04:00"}
{"url": "https://job-boards.greenhouse.io/accelschools/jobs/7800348003", "company_key": "greenhouse:accelschools", "location": "Canton College Preparatory School", "lat": null, "lng": null, "first_published": "2026-07-09T16:13:06-04:00"}
{"url": "https://job-boards.greenhouse.io/accelschools/jobs/7800245003", "company_key": "greenhouse:accelschools", "location": "Eastland Preparatory Academy", "lat": null, "lng": null, "first_published": "2026-07-09T15:33:32-04:00"}
{"url": "https://job-boards.greenhouse.io/accelschools/jobs/7800378003", "company_key": "greenhouse:accelschools", "location": "Lorain Preparatory High School", "lat": null, "lng": null, "first_published": "2026-07-09T16:24:30-04:00"}
{"url": "https://job-boards.greenhouse.io/accelschools/jobs/7800346003", "company_key": "greenhouse:accelschools", "location": "Bridges Preparatory Academy", "lat": null, "lng": null, "first_published": "2026-07-09T16:11:30-04:00"}
{"url": "https://job-boards.greenhouse.io/accelschools/jobs/7800419003", "company_key": "greenhouse:accelschools", "location": "Wright Preparatory Academy", "lat": null, "lng": null, "first_published": "2026-07-09T16:44:14-04:00"}
{"url": "https://job-boards.greenhouse.io/accelschools/jobs/7800409003", "company_key": "greenhouse:accelschools", "location": "Toledo Preparatory Academy", "lat": null, "lng": null, "first_published": "2026-07-09T16:41:16-04:00"}
{"url": "https://job-boards.greenhouse.io/accelschools/jobs/7800421003", "company_key": "greenhouse:accelschools", "location": "Wright Preparatory Academy", "lat": null, "lng": null, "first_published": "2026-07-09T16:44:47-04:00"}
{"url": "https://job-boards.greenhouse.io/accelschools/jobs/7800246003", "company_key": "greenhouse:accelschools", "location": "Eastland Preparatory Academy", "lat": null, "lng": null, "first_published": "2026-07-09T15:34:05-04:00"}
{"url": "https://job-boards.greenhouse.io/accelschools/jobs/7800156003", "company_key": "greenhouse:accelschools", "location": "Columbus Arts & Technology Academy", "lat": 40.0596762, "lng": -82.9832381, "first_published": "2026-07-09T15:02:30-04:00"}
{"url": "https://job-boards.greenhouse.io/accelschools/jobs/7800162003", "company_key": "greenhouse:accelschools", "location": "Columbus Bilingual Academy North", "lat": 40.0616951, "lng": -82.9655911, "first_published": "2026-07-09T15:04:22-04:00"}
{"url": "https://job-boards.greenhouse.io/accelschools/jobs/7800343003", "company_key": "greenhouse:accelschools", "location": "Academy of Arts & Technology", "lat": null, "lng": null, "first_published": "2026-07-09T16:08:02-04:00"}
{"url": "https://job-boards.greenhouse.io/accelschools/jobs/7800192003", "company_key": "greenhouse:accelschools", "location": "Columbus Humanities Arts & Technology Academy", "lat": 40.0596762, "lng": -82.9832381, "first_published": "2026-07-09T15:13:22-04:00"}
{"url": "https://job-boards.greenhouse.io/accelschools/jobs/7800385003", "company_key": "greenhouse:accelschools", "location": "Monroe Preparatory Academy", "lat": 43.1427736, "lng": -77.6027498, "first_published": "2026-07-09T16:27:52-04:00"}
{"url": "https://job-boards.greenhouse.io/accelschools/jobs/7800231003", "company_key": "greenhouse:accelschools", "location": "Cornerstone Academy - High School", "lat": null, "lng": null, "first_published": "2026-07-09T15:28:26-04:00"}
{"url": "https://job-boards.greenhouse.io/accelschools/jobs/7800379003", "company_key": "greenhouse:accelschools", "location": "Lorain Preparatory High School", "lat": null, "lng": null, "first_published": "2026-07-09T16:25:06-04:00"}
{"url": "https://job-boards.greenhouse.io/accelschools/jobs/7800290003", "company_key": "greenhouse:accelschools", "location": "South Columbus Preparatory Academy - Southfield", "lat": null, "lng": null, "first_published": "2026-07-09T15:47:14-04:00"}
{"url": "https://job-boards.greenhouse.io/accelschools/jobs/7800247003", "company_key": "greenhouse:accelschools", "location": "Eastland Preparatory Academy", "lat": null, "lng": null, "first_published": "2026-07-09T15:34:51-04:00"}
{"url": "https://job-boards.greenhouse.io/accelschools/jobs/7800359003", "company_key": "greenhouse:accelschools", "location": "Lorain Bilingual Academy", "lat": null, "lng": null, "first_published": "2026-07-09T16:19:54-04:00"}
{"url": "https://job-boards.greenhouse.io/accelschools/jobs/7800351003", "company_key": "greenhouse:accelschools", "location": "Case Preparatory Academy", "lat": null, "lng": null, "first_published": "2026-07-09T16:16:17-04:00"}
{"url": "https://job-boards.greenhouse.io/accelschools/jobs/7800402003", "company_key": "greenhouse:accelschools", "location": "STEAM Academy of Warren", "lat": null, "lng": null, "first_published": "2026-07-09T16:38:12-04:00"}
{"url": "https://job-boards.greenhouse.io/accelschools/jobs/7800161003", "company_key": "greenhouse:accelschools", "location": "Columbus Arts & Technology Academy", "lat": 40.0596762, "lng": -82.9832381, "first_published": "2026-07-09T15:03:39-04:00"}
{"url": "https://job-boards.greenhouse.io/accelschools/jobs/7800232003", "company_key": "greenhouse:accelschools", "location": "Cornerstone Academy - Middle School", "lat": null, "lng": null, "first_published": "2026-07-09T15:29:01-04:00"}
{"url": "https://job-boards.greenhouse.io/accelschools/jobs/7800235003", "company_key": "greenhouse:accelschools", "location": "Cornerstone Academy - Elementary", "lat": null, "lng": null, "first_published": "2026-07-09T15:29:45-04:00"}
{"url": "https://job-boards.greenhouse.io/accelschools/jobs/7800240003", "company_key": "greenhouse:accelschools", "location": "Cornerstone Academy - High School", "lat": null, "lng": null, "first_published": "2026-07-09T15:32:17-04:00"}
{"url": "https://job-boards.greenhouse.io/accelschools/jobs/7800249003", "company_key": "greenhouse:accelschools", "location": "North Columbus Preparatory Academy", "lat": null, "lng": null, "first_published": "2026-07-09T15:36:15-04:00"}
{"url": "https://job-boards.greenhouse.io/accelschools/jobs/7800250003", "company_key": "greenhouse:accelschools", "location": "Sagewood STEAM Academy", "lat": null, "lng": null, "first_published": "2026-07-09T15:36:45-04:00"}
{"url": "https://job-boards.greenhouse.io/accelschools/jobs/7800261003", "company_key": "greenhouse:accelschools", "location": "South Columbus Preparatory Academy - German Village", "lat": null, "lng": null, "first_published": "2026-07-09T15:40:31-04:00"}
{"url": "https://job-boards.greenhouse.io/accelschools/jobs/7800292003", "company_key": "greenhouse:accelschools", "location": "South Columbus Preparatory Academy - Southfield", "lat": null, "lng": null, "first_published": "2026-07-09T15:47:45-04:00"}
{"url": "https://job-boards.greenhouse.io/accelschools/jobs/7800195003", "company_key": "greenhouse:accelschools", "location": "Columbus Humanities Arts & Technology Academy", "lat": 40.0596762, "lng": -82.9832381, "first_published": "2026-07-09T15:13:59-04:00"}
{"url": "https://job-boards.greenhouse.io/accelschools/jobs/7800180003", "company_key": "greenhouse:accelschools", "location": "Columbus Bilingual Central", "lat": null, "lng": null, "first_published": "2026-07-09T15:08:35-04:00"}
{"url": "https://job-boards.greenhouse.io/accelschools/jobs/7800386003", "company_key": "greenhouse:accelschools", "location": "Monroe Preparatory Academy", "lat": 43.1427736, "lng": -77.6027498, "first_published": "2026-07-09T16:28:25-04:00"}
{"url": "https://job-boards.greenhouse.io/accelschools/jobs/7800360003", "company_key": "greenhouse:accelschools", "location": "Lorain Bilingual Academy", "lat": null, "lng": null, "first_published": "2026-07-09T16:20:27-04:00"}
{"url": "https://job-boards.greenhouse.io/accelschools/jobs/7800344003", "company_key": "greenhouse:accelschools", "location": "Academy of Arts & Technology", "lat": null, "lng": null, "first_published": "2026-07-09T16:08:38-04:00"}
{"url": "https://job-boards.greenhouse.io/accelschools/jobs/7800424003", "company_key": "greenhouse:accelschools", "location": "Wright Preparatory Academy", "lat": null, "lng": null, "first_published": "2026-07-09T16:45:20-04:00"}
{"url": "https://job-boards.greenhouse.io/accelschools/jobs/7800230003", "company_key": "greenhouse:accelschools", "location": "Cornerstone Academy - Elementary; Cornerstone Academy - High School; Cornerstone Academy - Middle School", "lat": null, "lng": null, "first_published": "2026-07-09T15:27:46-04:00"}
{"url": "https://job-boards.greenhouse.io/accelschools/jobs/7800213003", "company_key": "greenhouse:accelschools", "location": "Columbus Humanities Arts & Technology Academy", "lat": 40.0596762, "lng": -82.9832381, "first_published": "2026-07-09T15:18:05-04:00"}
{"url": "https://job-boards.greenhouse.io/accelschools/jobs/7800387003", "company_key": "greenhouse:accelschools", "location": "Monroe Preparatory Academy", "lat": 43.1427736, "lng": -77.6027498, "first_published": "2026-07-09T16:29:01-04:00"}
{"url": "https://job-boards.greenhouse.io/accelschools/jobs/7800410003", "company_key": "greenhouse:accelschools", "location": "Toledo Preparatory Academy", "lat": null, "lng": null, "first_published": "2026-07-09T16:41:53-04:00"}
{"url": "https://job-boards.greenhouse.io/accelschools/jobs/7800349003", "company_key": "greenhouse:accelschools", "location": "Canton College Preparatory School", "lat": null, "lng": null, "first_published": "2026-07-09T16:13:42-04:00"}
{"url": "https://job-boards.greenhouse.io/accelschools/jobs/7800251003", "company_key": "greenhouse:accelschools", "location": "Sagewood STEAM Academy", "lat": null, "lng": null, "first_published": "2026-07-09T15:37:19-04:00"}
{"url": "https://job-boards.greenhouse.io/accelschools/jobs/7800391003", "company_key": "greenhouse:accelschools", "location": "Monroe Preparatory Academy", "lat": 43.1427736, "lng": -77.6027498, "first_published": "2026-07-09T16:30:03-04:00"}
{"url": "https://job-boards.greenhouse.io/accelschools/jobs/7800265003", "company_key": "greenhouse:accelschools", "location": "South Columbus Preparatory Academy - German Village", "lat": null, "lng": null, "first_published": "2026-07-09T15:42:14-04:00"}
{"url": "https://job-boards.greenhouse.io/accelschools/jobs/7800214003", "company_key": "greenhouse:accelschools", "location": "Columbus Humanities Arts & Technology Academy", "lat": 40.0596762, "lng": -82.9832381, "first_published": "2026-07-09T15:18:47-04:00"}
{"url": "https://job-boards.greenhouse.io/accelschools/jobs/7800215003", "company_key": "greenhouse:accelschools", "location": "Columbus Humanities Arts & Technology Academy", "lat": 40.0596762, "lng": -82.9832381, "first_published": "2026-07-09T15:19:26-04:00"}
{"url": "https://job-boards.greenhouse.io/accelschools/jobs/7800374003", "company_key": "greenhouse:accelschools", "location": "Lorain Preparatory Academy", "lat": null, "lng": null, "first_published": "2026-07-09T16:23:05-04:00"}
{"url": "https://job-boards.greenhouse.io/accelschools/jobs/7800305003", "company_key": "greenhouse:accelschools", "location": "Founders Classical Academy Online", "lat": null, "lng": null, "first_published": "2026-07-09T15:56:12-04:00"}
{"url": "https://job-boards.greenhouse.io/accelschools/jobs/7800266003", "company_key": "greenhouse:accelschools", "location": "South Columbus Preparatory Academy - German Village", "lat": null, "lng": null, "first_published": "2026-07-09T15:43:01-04:00"}
{"url": "https://boards.greenhouse.io/accenturefederalservices/jobs/4695872006?gh_jid=4695872006", "company_key": "greenhouse:accenturefederalservices", "location": "Washington, DC", "lat": 38.8950982, "lng": -77.0363849, "first_published": "2026-07-09T17:08:27-04:00"}
{"url": "https://boards.greenhouse.io/accenturefederalservices/jobs/4695967006?gh_jid=4695967006", "company_key": "greenhouse:accenturefederalservices", "location": "Arlington, VA", "lat": 38.8769326, "lng": -77.0893094, "first_published": "2026-07-09T15:20:29-04:00"}
{"url": "https://boards.greenhouse.io/accenturefederalservices/jobs/4696008006?gh_jid=4696008006", "company_key": "greenhouse:accenturefederalservices", "location": "Suitland, MD", "lat": null, "lng": null, "first_published": "2026-07-09T16:11:24-04:00"}
{"url": "https://boards.greenhouse.io/accenturefederalservices/jobs/4696041006?gh_jid=4696041006", "company_key": "greenhouse:accenturefederalservices", "location": "Arlington, VA", "lat": 38.8769326, "lng": -77.0893094, "first_published": "2026-07-09T18:06:50-04:00"}
{"url": "https://boards.greenhouse.io/accenturefederalservices/jobs/4695937006?gh_jid=4695937006", "company_key": "greenhouse:accenturefederalservices", "location": "Springfield, VA; St. Louis, MO", "lat": null, "lng": null, "first_published": "2026-07-09T14:31:16-04:00"}
{"url": "https://boards.greenhouse.io/accenturefederalservices/jobs/4695886006?gh_jid=4695886006", "company_key": "greenhouse:accenturefederalservices", "location": "Washington, DC", "lat": 38.8950982, "lng": -77.0363849, "first_published": "2026-07-09T17:10:09-04:00"}
{"url": "https://boards.greenhouse.io/accenturefederalservices/jobs/4695947006?gh_jid=4695947006", "company_key": "greenhouse:accenturefederalservices", "location": "Arlington, VA", "lat": 38.8769326, "lng": -77.0893094, "first_published": "2026-07-09T15:00:06-04:00"}
{"url": "https://boards.greenhouse.io/accenturefederalservices/jobs/4689946006?gh_jid=4689946006", "company_key": "greenhouse:accenturefederalservices", "location": "Arlington, VA", "lat": 38.8769326, "lng": -77.0893094, "first_published": "2026-07-09T16:27:46-04:00"}
{"url": "https://boards.greenhouse.io/accenturefederalservices/jobs/4695984006?gh_jid=4695984006", "company_key": "greenhouse:accenturefederalservices", "location": "Washington, DC", "lat": 38.8950982, "lng": -77.0363849, "first_published": "2026-07-09T15:59:00-04:00"}
{"url": "https://boards.greenhouse.io/accenturefederalservices/jobs/4696002006?gh_jid=4696002006", "company_key": "greenhouse:accenturefederalservices", "location": "Washington, DC", "lat": 38.8950982, "lng": -77.0363849, "first_published": "2026-07-09T16:22:53-04:00"}
{"url": "https://boards.greenhouse.io/accenturefederalservices/jobs/4695922006?gh_jid=4695922006", "company_key": "greenhouse:accenturefederalservices", "location": "Washington, DC", "lat": 38.8950982, "lng": -77.0363849, "first_published": "2026-07-09T17:13:18-04:00"}
{"url": "https://boards.greenhouse.io/accenturefederalservices/jobs/4695845006?gh_jid=4695845006", "company_key": "greenhouse:accenturefederalservices", "location": "Washington, DC", "lat": 38.8950982, "lng": -77.0363849, "first_published": "2026-07-09T17:05:09-04:00"}
{"url": "https://activate.org/job-listing?gh_jid=4696052006#?gh_jid=4696052006", "company_key": "greenhouse:activate", "location": "Remote", "lat": 43.0059455, "lng": -123.8925908, "first_published": "2026-07-09T19:16:56-04:00"}
{"url": "https://job-boards.greenhouse.io/actpowerservices/jobs/7800441003", "company_key": "greenhouse:actpowerservices", "location": "Plymouth, MA", "lat": null, "lng": null, "first_published": "2026-07-09T17:13:57-04:00"}
{"url": "https://job-boards.greenhouse.io/actpowerservices/jobs/7800482003", "company_key": "greenhouse:actpowerservices", "location": "Worcester, MA", "lat": null, "lng": null, "first_published": "2026-07-09T17:33:27-04:00"}
{"url": "https://job-boards.greenhouse.io/actpowerservices/jobs/7800440003", "company_key": "greenhouse:actpowerservices", "location": "Fall River, MA", "lat": null, "lng": null, "first_published": "2026-07-09T17:13:58-04:00"}
{"url": "https://job-boards.greenhouse.io/ada18/jobs/5183632007", "company_key": "greenhouse:ada18", "location": "Remote - UK", "lat": null, "lng": null, "first_published": "2026-07-09T15:31:08-04:00"}
{"url": "https://job-boards.greenhouse.io/advancedtechnologyservices/jobs/4693701006", "company_key": "greenhouse:advancedtechnologyservices", "location": "Mexico- Torreon, Coahuila", "lat": null, "lng": null, "first_published": "2026-07-09T18:47:58-04:00"}
{"url": "https://job-boards.greenhouse.io/aerospike/jobs/8627224002", "company_key": "greenhouse:aerospike", "location": "Mountain View, CA", "lat": 37.3893889, "lng": -122.0832101, "first_published": "2026-07-09T19:08:35-04:00"}
{"url": "https://job-boards.greenhouse.io/aerospike/jobs/8627192002", "company_key": "greenhouse:aerospike", "location": "Mountain View, CA", "lat": 37.3893889, "lng": -122.0832101, "first_published": "2026-07-09T18:19:18-04:00"}
{"url": "https://job-boards.greenhouse.io/airnorth/jobs/5318976008", "company_key": "greenhouse:airnorth", "location": "Whitehorse, YT", "lat": null, "lng": null, "first_published": "2026-07-09T19:15:37-04:00"}
{"url": "https://www.akqa.com/jobs/8048647/?gh_jid=8048647", "company_key": "greenhouse:akqa", "location": "New York", "lat": 40.7127281, "lng": -74.0060152, "first_published": "2026-07-09T16:49:22-04:00"}
{"url": "https://job-boards.greenhouse.io/alamarbiosciences/jobs/6111785004", "company_key": "greenhouse:alamarbiosciences", "location": "Fremont, California", "lat": null, "lng": null, "first_published": "2026-07-09T15:47:38-04:00"}
{"url": "https://www.benesch.com/job-openings/5183407007?gh_jid=5183407007", "company_key": "greenhouse:alfredbeneschco", "location": "Remote", "lat": 43.0059455, "lng": -123.8925908, "first_published": "2026-07-09T14:24:11-04:00"}
{"url": "https://job-boards.greenhouse.io/align46/jobs/5183852007", "company_key": "greenhouse:align46", "location": "Plano, Texas, United States", "lat": 33.0136764, "lng": -96.6925096, "first_published": "2026-07-09T17:01:33-04:00"}
{"url": "https://job-boards.greenhouse.io/allcareers/jobs/8627423002", "company_key": "greenhouse:allcareers", "location": "Gilbert, Arizona", "lat": null, "lng": null, "first_published": "2026-07-09T17:15:32-04:00"}
{"url": "https://job-boards.greenhouse.io/allcareers/jobs/8627422002", "company_key": "greenhouse:allcareers", "location": "East Mesa, Arizona", "lat": null, "lng": null, "first_published": "2026-07-09T17:14:32-04:00"}
{"url": "https://job-boards.greenhouse.io/allcareers/jobs/8627294002", "company_key": "greenhouse:allcareers", "location": "Charlotte, North Carolina", "lat": 35.2272086, "lng": -80.8430827, "first_published": "2026-07-09T16:02:39-04:00"}
{"url": "https://job-boards.greenhouse.io/allworthfinancial/jobs/8626692002", "company_key": "greenhouse:allworthfinancial", "location": "Riverwoods, Illinois, United States", "lat": null, "lng": null, "first_published": "2026-07-09T18:49:21-04:00"}
{"url": "https://boards.greenhouse.io/aloyoga/jobs/6113155004?gh_jid=6113155004", "company_key": "greenhouse:aloyoga", "location": "Kierland Commons, Scottsdale, AZ (10024)", "lat": null, "lng": null, "first_published": "2026-07-09T21:18:03-04:00"}
{"url": "https://boards.greenhouse.io/aloyoga/jobs/6112862004?gh_jid=6112862004", "company_key": "greenhouse:aloyoga", "location": "Santa Clara, California, United States", "lat": 37.2333253, "lng": -121.6846349, "first_published": "2026-07-09T15:09:15-04:00"}
{"url": "https://boards.greenhouse.io/aloyoga/jobs/6113154004?gh_jid=6113154004", "company_key": "greenhouse:aloyoga", "location": "Ottawa, Ontario, Canada", "lat": null, "lng": null, "first_published": "2026-07-09T21:14:33-04:00"}
{"url": "https://boards.greenhouse.io/aloyoga/jobs/6113159004?gh_jid=6113159004", "company_key": "greenhouse:aloyoga", "location": "Bloomington, Minnesota, United States", "lat": null, "lng": null, "first_published": "2026-07-09T21:55:02-04:00"}
{"url": "https://boards.greenhouse.io/aloyoga/jobs/6113163004?gh_jid=6113163004", "company_key": "greenhouse:aloyoga", "location": "Westport, Connecticut, United States", "lat": null, "lng": null, "first_published": "2026-07-09T22:31:02-04:00"}
{"url": "https://boards.greenhouse.io/aloyoga/jobs/6113151004?gh_jid=6113151004", "company_key": "greenhouse:aloyoga", "location": "City Creek Centre, Salt Lake City, UT (10064)", "lat": null, "lng": null, "first_published": "2026-07-09T21:11:40-04:00"}
{"url": "https://job-boards.greenhouse.io/alphasense/jobs/8600962002", "company_key": "greenhouse:alphasense", "location": "Remote - United States", "lat": 43.0059455, "lng": -123.8925908, "first_published": "2026-07-09T14:24:02-04:00"}
{"url": "https://job-boards.greenhouse.io/alphasense/jobs/8605590002", "company_key": "greenhouse:alphasense", "location": "Remote - United States", "lat": 43.0059455, "lng": -123.8925908, "first_published": "2026-07-09T16:42:02-04:00"}
{"url": "https://job-boards.greenhouse.io/altentechnologyusa/jobs/5183790007", "company_key": "greenhouse:altentechnologyusa", "location": "Greensboro, North Carolina, United States", "lat": 36.0726355, "lng": -79.7919754, "first_published": "2026-07-09T16:31:06-04:00"}
{"url": "https://job-boards.greenhouse.io/amaehealth/jobs/4307608009", "company_key": "greenhouse:amaehealth", "location": "San Fernando Valley & Pasadena, CA", "lat": null, "lng": null, "first_published": "2026-07-09T15:44:17-04:00"}
{"url": "https://job-boards.greenhouse.io/amarok/jobs/6112603004", "company_key": "greenhouse:amarok", "location": "South Carolina, Columbia", "lat": null, "lng": null, "first_published": "2026-07-09T14:56:06-04:00"}
{"url": "https://job-boards.greenhouse.io/ambercharterschools/jobs/7800285003", "company_key": "greenhouse:ambercharterschools", "location": "Amber Charter Schools", "lat": null, "lng": null, "first_published": "2026-07-09T16:16:21-04:00"}
{"url": "https://job-boards.greenhouse.io/americaninstitutesforresearch/jobs/5318091008", "company_key": "greenhouse:americaninstitutesforresearch", "location": "US-Remote", "lat": 43.0059455, "lng": -123.8925908, "first_published": "2026-07-09T17:56:52-04:00"}
{"url": "https://job-boards.greenhouse.io/animalmedicalcenter/jobs/5317420008", "company_key": "greenhouse:animalmedicalcenter", "location": "510 East 62nd Street, New York, NY 10065", "lat": null, "lng": null, "first_published": "2026-07-09T14:58:51-04:00"}
{"url": "https://job-boards.greenhouse.io/annexonbioscience/jobs/4713673005", "company_key": "greenhouse:annexonbioscience", "location": "San Francisco Bay Area", "lat": null, "lng": null, "first_published": "2026-07-09T16:49:15-04:00"}
{"url": "https://boards.greenhouse.io/applovin/jobs/4695934006?gh_jid=4695934006", "company_key": "greenhouse:applovin", "location": "Remote - United States", "lat": 43.0059455, "lng": -123.8925908, "first_published": "2026-07-09T21:36:07-04:00"}
{"url": "https://boards.greenhouse.io/apptronik/jobs/6111627004?gh_jid=6111627004", "company_key": "greenhouse:apptronik", "location": "Austin, TX", "lat": 30.2711286, "lng": -97.7436995, "first_published": "2026-07-09T16:46:23-04:00"}
{"url": "https://boards.greenhouse.io/apptronik/jobs/6113026004?gh_jid=6113026004", "company_key": "greenhouse:apptronik", "location": "Austin, TX", "lat": 30.2711286, "lng": -97.7436995, "first_published": "2026-07-09T16:46:25-04:00"}
{"url": "https://job-boards.greenhouse.io/aquia/jobs/5317994008", "company_key": "greenhouse:aquia", "location": "United States", "lat": 39.7837304, "lng": -100.445882, "first_published": "2026-07-09T16:40:20-04:00"}
{"url": "https://job-boards.greenhouse.io/arcboatcompany/jobs/5319054008", "company_key": "greenhouse:arcboatcompany", "location": "Torrance, CA", "lat": 33.8371392, "lng": -118.3413606, "first_published": "2026-07-09T20:07:57-04:00"}
{"url": "https://job-boards.greenhouse.io/archer56/jobs/7767746003", "company_key": "greenhouse:archer56", "location": "M\u00fcnchen, Bavaria, Germany", "lat": null, "lng": null, "first_published": "2026-07-09T15:43:44-04:00"}
{"url": "https://job-boards.greenhouse.io/archer56/jobs/7800183003", "company_key": "greenhouse:archer56", "location": "San Jose, California, United States", "lat": 37.3361663, "lng": -121.890591, "first_published": "2026-07-09T15:10:05-04:00"}
{"url": "https://job-boards.greenhouse.io/archer56/jobs/7797800003", "company_key": "greenhouse:archer56", "location": "San Jose, California, United States", "lat": 37.3361663, "lng": -121.890591, "first_published": "2026-07-09T18:08:19-04:00"}
{"url": "https://job-boards.greenhouse.io/arlosolutionsllc/jobs/5183293007", "company_key": "greenhouse:arlosolutionsllc", "location": "Aberdeen Proving Ground, MD", "lat": null, "lng": null, "first_published": "2026-07-09T14:31:23-04:00"}
{"url": "https://job-boards.greenhouse.io/armada/jobs/5302536008", "company_key": "greenhouse:armada", "location": "United States (Remote)", "lat": 43.0059455, "lng": -123.8925908, "first_published": "2026-07-09T14:29:00-04:00"}
{"url": "https://job-boards.greenhouse.io/armada/jobs/5301120008", "company_key": "greenhouse:armada", "location": "Bellevue Office, Sunset Corporate Campus", "lat": null, "lng": null, "first_published": "2026-07-09T14:28:53-04:00"}
{"url": "https://job-boards.greenhouse.io/armracolostrum/jobs/5318105008", "company_key": "greenhouse:armracolostrum", "location": "US - Remote", "lat": 43.0059455, "lng": -123.8925908, "first_published": "2026-07-09T17:03:59-04:00"}
{"url": "https://job-boards.greenhouse.io/auctane/jobs/7776417003", "company_key": "greenhouse:auctane", "location": "Austin, TX", "lat": 30.2711286, "lng": -97.7436995, "first_published": "2026-07-09T14:27:24-04:00"}
{"url": "https://avantus.com/careers?gh_jid=8611183002", "company_key": "greenhouse:avantus", "location": "(Hybrid) San Diego, CA, USA", "lat": null, "lng": null, "first_published": "2026-07-09T19:42:24-04:00"}
{"url": "https://job-boards.greenhouse.io/aviationinstituteofmaintenance/jobs/5318803008", "company_key": "greenhouse:aviationinstituteofmaintenance", "location": "Norfolk, VA (AIM)", "lat": null, "lng": null, "first_published": "2026-07-09T18:41:29-04:00"}
{"url": "https://job-boards.greenhouse.io/aviationinstituteofmaintenance/jobs/5318745008", "company_key": "greenhouse:aviationinstituteofmaintenance", "location": "Indianapolis, IN", "lat": 39.7683331, "lng": -86.1583502, "first_published": "2026-07-09T18:38:41-04:00"}
{"url": "https://job-boards.greenhouse.io/aviationinstituteofmaintenance/jobs/5318743008", "company_key": "greenhouse:aviationinstituteofmaintenance", "location": "Manassas, VA", "lat": null, "lng": null, "first_published": "2026-07-09T18:30:31-04:00"}
{"url": "https://job-boards.greenhouse.io/aviationinstituteofmaintenance/jobs/5318770008", "company_key": "greenhouse:aviationinstituteofmaintenance", "location": "Indianapolis, IN", "lat": 39.7683331, "lng": -86.1583502, "first_published": "2026-07-09T18:40:20-04:00"}
{"url": "https://job-boards.greenhouse.io/aviationinstituteofmaintenance/jobs/5318672008", "company_key": "greenhouse:aviationinstituteofmaintenance", "location": "Dallas (Irving), TX", "lat": null, "lng": null, "first_published": "2026-07-09T18:29:03-04:00"}
{"url": "https://job-boards.greenhouse.io/aviationinstituteofmaintenance/jobs/5318660008", "company_key": "greenhouse:aviationinstituteofmaintenance", "location": "Houston, TX", "lat": 29.7589382, "lng": -95.3676974, "first_published": "2026-07-09T18:15:18-04:00"}
{"url": "https://job-boards.greenhouse.io/aviationinstituteofmaintenance/jobs/5318673008", "company_key": "greenhouse:aviationinstituteofmaintenance", "location": "Philadelphia, PA", "lat": 39.9527237, "lng": -75.1635262, "first_published": "2026-07-09T18:23:53-04:00"}
{"url": "https://job-boards.greenhouse.io/aviationinstituteofmaintenance/jobs/5318819008", "company_key": "greenhouse:aviationinstituteofmaintenance", "location": "Norfolk, VA (AIM)", "lat": null, "lng": null, "first_published": "2026-07-09T18:44:08-04:00"}
{"url": "https://job-boards.greenhouse.io/aviationinstituteofmaintenance/jobs/5318810008", "company_key": "greenhouse:aviationinstituteofmaintenance", "location": "Houston, TX", "lat": 29.7589382, "lng": -95.3676974, "first_published": "2026-07-09T18:47:17-04:00"}
{"url": "https://job-boards.greenhouse.io/axle/jobs/5175287007", "company_key": "greenhouse:axle", "location": "Bethesda, MD", "lat": null, "lng": null, "first_published": "2026-07-09T15:22:51-04:00"}
{"url": "https://job-boards.greenhouse.io/axle/jobs/5183641007", "company_key": "greenhouse:axle", "location": "Baltimore, MD", "lat": null, "lng": null, "first_published": "2026-07-09T15:20:08-04:00"}
{"url": "https://job-boards.greenhouse.io/axon/jobs/7576921003", "company_key": "greenhouse:axon", "location": "scottsdale", "lat": null, "lng": null, "first_published": "2026-07-09T14:44:56-04:00"}
{"url": "https://job-boards.greenhouse.io/axon/jobs/7790856003", "company_key": "greenhouse:axon", "location": "scottsdale", "lat": null, "lng": null, "first_published": "2026-07-09T15:44:38-04:00"}
{"url": "https://job-boards.greenhouse.io/axon/jobs/7791817003", "company_key": "greenhouse:axon", "location": "Texas-Remote, United States", "lat": null, "lng": null, "first_published": "2026-07-09T18:01:23-04:00"}
{"url": "https://www.ayahealthcare.com/corporate-careers/jobs/8054569?gh_jid=8054569", "company_key": "greenhouse:ayahealthcare", "location": "Remote, US", "lat": 43.0059455, "lng": -123.8925908, "first_published": "2026-07-09T18:13:05-04:00"}
{"url": "https://www.ayahealthcare.com/corporate-careers/jobs/7963558?gh_jid=7963558", "company_key": "greenhouse:ayahealthcare", "location": "Atlanta, GA", "lat": 33.7544657, "lng": -84.3898151, "first_published": "2026-07-09T14:56:19-04:00"}
{"url": "https://www.ayahealthcare.com/corporate-careers/jobs/7963559?gh_jid=7963559", "company_key": "greenhouse:ayahealthcare", "location": "Omaha, NE", "lat": null, "lng": null, "first_published": "2026-07-09T14:56:20-04:00"}
{"url": "https://www.ayahealthcare.com/corporate-careers/jobs/7963557?gh_jid=7963557", "company_key": "greenhouse:ayahealthcare", "location": "Los Angeles, CA", "lat": 34.0536909, "lng": -118.242766, "first_published": "2026-07-09T14:56:18-04:00"}
{"url": "https://www.ayahealthcare.com/corporate-careers/jobs/7963556?gh_jid=7963556", "company_key": "greenhouse:ayahealthcare", "location": "Sacramento, CA", "lat": 38.5810606, "lng": -121.493895, "first_published": "2026-07-09T14:56:17-04:00"}
{"url": "https://www.ayahealthcare.com/corporate-careers/jobs/7963555?gh_jid=7963555", "company_key": "greenhouse:ayahealthcare", "location": "Dallas, TX", "lat": 32.7762719, "lng": -96.7968559, "first_published": "2026-07-09T14:56:17-04:00"}
{"url": "https://www.ayahealthcare.com/corporate-careers/jobs/7963554?gh_jid=7963554", "company_key": "greenhouse:ayahealthcare", "location": "Denver, CO", "lat": 39.7392364, "lng": -104.984862, "first_published": "2026-07-09T14:56:16-04:00"}
{"url": "https://www.ayahealthcare.com/corporate-careers/jobs/7963553?gh_jid=7963553", "company_key": "greenhouse:ayahealthcare", "location": "Tampa, FL", "lat": 27.9449854, "lng": -82.4583107, "first_published": "2026-07-09T14:56:15-04:00"}
{"url": "https://www.ayahealthcare.com/corporate-careers/jobs/7963551?gh_jid=7963551", "company_key": "greenhouse:ayahealthcare", "location": "Remote, US", "lat": 43.0059455, "lng": -123.8925908, "first_published": "2026-07-09T14:56:13-04:00"}
{"url": "https://www.ayahealthcare.com/corporate-careers/jobs/7963552?gh_jid=7963552", "company_key": "greenhouse:ayahealthcare", "location": "San Diego, CA", "lat": 32.7174202, "lng": -117.162772, "first_published": "2026-07-09T14:56:15-04:00"}
{"url": "https://job-boards.greenhouse.io/aypapower/jobs/5317019008", "company_key": "greenhouse:aypapower", "location": "United States", "lat": 39.7837304, "lng": -100.445882, "first_published": "2026-07-09T22:27:09-04:00"}
{"url": "https://job-boards.greenhouse.io/babylist/jobs/6113037004", "company_key": "greenhouse:babylist", "location": "Canada", "lat": 61.0666922, "lng": -107.991707, "first_published": "2026-07-09T17:06:34-04:00"}
{"url": "https://job-boards.greenhouse.io/babylist/jobs/6113029004", "company_key": "greenhouse:babylist", "location": "Canada", "lat": 61.0666922, "lng": -107.991707, "first_published": "2026-07-09T16:52:08-04:00"}
{"url": "https://job-boards.greenhouse.io/bamboohr17/jobs/6110751004", "company_key": "greenhouse:bamboohr17", "location": "Utah | Hybrid", "lat": null, "lng": null, "first_published": "2026-07-09T18:27:56-04:00"}
{"url": "https://job-boards.greenhouse.io/beaconbiosignals/jobs/4311358009", "company_key": "greenhouse:beaconbiosignals", "location": "Boston, MA / Remote", "lat": null, "lng": null, "first_published": "2026-07-09T15:50:16-04:00"}
{"url": "https://boards.greenhouse.io/berkadia/jobs/7782361003?gh_jid=7782361003", "company_key": "greenhouse:berkadia", "location": "Atlanta, Georgia, United States", "lat": 33.7544657, "lng": -84.3898151, "first_published": "2026-07-09T15:15:44-04:00"}
{"url": "https://job-boards.greenhouse.io/bestpass/jobs/4695281006", "company_key": "greenhouse:bestpass", "location": "United States (Remote)", "lat": 43.0059455, "lng": -123.8925908, "first_published": "2026-07-09T15:46:01-04:00"}
{"url": "https://job-boards.greenhouse.io/bethesdahealthgroup/jobs/4311081009", "company_key": "greenhouse:bethesdahealthgroup", "location": "Barnes Jewish Extended Care", "lat": 38.6452324, "lng": -90.3451945, "first_published": "2026-07-09T14:26:53-04:00"}
{"url": "https://job-boards.greenhouse.io/betterhelpcom/jobs/5310185008", "company_key": "greenhouse:betterhelpcom", "location": "US - Remote", "lat": 43.0059455, "lng": -123.8925908, "first_published": "2026-07-09T18:34:40-04:00"}
{"url": "https://job-boards.greenhouse.io/beyondtrust/jobs/8051087", "company_key": "greenhouse:beyondtrust", "location": "Remote United States | Central or Mountain Time Zone", "lat": null, "lng": null, "first_published": "2026-07-09T14:27:58-04:00"}
{"url": "https://www.bill.com/job?6111992004&gh_jid=6111992004", "company_key": "greenhouse:billcom", "location": "United States", "lat": 39.7837304, "lng": -100.445882, "first_published": "2026-07-09T18:55:38-04:00"}
{"url": "https://www.bill.com/job?6101858004&gh_jid=6101858004", "company_key": "greenhouse:billcom", "location": "Draper, Utah, United States; San Jose, California, United States; United States", "lat": null, "lng": null, "first_published": "2026-07-09T14:38:20-04:00"}
{"url": "https://job-boards.greenhouse.io/blackbirdhealth/jobs/5317203008", "company_key": "greenhouse:blackbirdhealth", "location": "Sterling, Virginia", "lat": null, "lng": null, "first_published": "2026-07-09T14:47:10-04:00"}
{"url": "https://job-boards.greenhouse.io/blackbirdhealth/jobs/5317358008", "company_key": "greenhouse:blackbirdhealth", "location": "Frederick, Maryland", "lat": null, "lng": null, "first_published": "2026-07-09T14:45:21-04:00"}
{"url": "https://job-boards.greenhouse.io/blankstreet/jobs/7800398003", "company_key": "greenhouse:blankstreet", "location": "New York City, US", "lat": 40.7127281, "lng": -74.0060152, "first_published": "2026-07-09T16:35:20-04:00"}
{"url": "http://block.xyz/careers/jobs/5317296008?gh_jid=5317296008", "company_key": "greenhouse:block", "location": "Sydney, Australia", "lat": -33.8698439, "lng": 151.2082848, "first_published": "2026-07-09T14:36:51-04:00"}
{"url": "http://block.xyz/careers/jobs/5317297008?gh_jid=5317297008", "company_key": "greenhouse:block", "location": "Brisbane, Australia", "lat": null, "lng": null, "first_published": "2026-07-09T14:37:35-04:00"}
{"url": "http://block.xyz/careers/jobs/5193491008?gh_jid=5193491008", "company_key": "greenhouse:block", "location": "Melbourne, Australia", "lat": -37.8142454, "lng": 144.9631732, "first_published": "2026-07-09T15:44:08-04:00"}
{"url": "http://block.xyz/careers/jobs/5318418008?gh_jid=5318418008", "company_key": "greenhouse:block", "location": "Toronto, Ontario, Canada", "lat": 43.6534817, "lng": -79.3839347, "first_published": "2026-07-09T17:39:36-04:00"}
{"url": "http://block.xyz/careers/jobs/5318094008?gh_jid=5318094008", "company_key": "greenhouse:block", "location": "London, United Kingdom", "lat": 51.5074456, "lng": -0.1277653, "first_published": "2026-07-09T16:48:29-04:00"}
{"url": "https://www.bluerivertechnology.com/job/?gh_jid=8054701", "company_key": "greenhouse:bluerivertech", "location": "Santa Clara, CA", "lat": 37.2333253, "lng": -121.6846349, "first_published": "2026-07-09T21:00:13-04:00"}
{"url": "https://job-boards.greenhouse.io/bombas/jobs/8049657", "company_key": "greenhouse:bombas", "location": "New York, New York", "lat": 40.7127281, "lng": -74.0060152, "first_published": "2026-07-09T15:23:13-04:00"}
{"url": "https://job-boards.greenhouse.io/bpcs/jobs/8054330", "company_key": "greenhouse:bpcs", "location": "Redmond, WA", "lat": 47.6694141, "lng": -122.1238767, "first_published": "2026-07-09T16:26:28-04:00"}
{"url": "https://job-boards.greenhouse.io/bpcs/jobs/8054278", "company_key": "greenhouse:bpcs", "location": "Remote", "lat": 43.0059455, "lng": -123.8925908, "first_published": "2026-07-09T16:02:55-04:00"}
{"url": "https://branch.io/careers/apply/?gh_jid=8054184", "company_key": "greenhouse:branchmetrics", "location": "London, Greater London, England, United Kingdom", "lat": 51.5156177, "lng": -0.0919983, "first_published": "2026-07-09T15:08:23-04:00"}
{"url": "https://branch.io/careers/apply/?gh_jid=8054170", "company_key": "greenhouse:branchmetrics", "location": "New York, NY, United States", "lat": 40.7127281, "lng": -74.0060152, "first_published": "2026-07-09T15:01:12-04:00"}
{"url": "https://job-boards.greenhouse.io/bridgebio/jobs/5183013007", "company_key": "greenhouse:bridgebio", "location": "Remote - USA", "lat": 43.0059455, "lng": -123.8925908, "first_published": "2026-07-09T14:21:17-04:00"}
