{"url": "https://job-boards.greenhouse.io/xai/jobs/5182183007", "company_key": "greenhouse:xai", "location": "Palo Alto, CA", "lat": 37.4443293, "lng": -122.1598465, "first_published": "2026-07-12T03:52:08-04:00"}
{"url": "https://boards.greenhouse.io/andurilindustries/jobs/5185274007?gh_jid=5185274007", "company_key": "greenhouse:andurilindustries", "location": "Boulder, Colorado, United States", "lat": 40.0149856, "lng": -105.270545, "first_published": "2026-07-12T09:07:38-04:00"}
{"url": "https://boards.greenhouse.io/andurilindustries/jobs/5185271007?gh_jid=5185271007", "company_key": "greenhouse:andurilindustries", "location": "Lexington, Massachusetts, United States", "lat": 42.4473175, "lng": -71.2245003, "first_published": "2026-07-12T08:55:22-04:00"}
{"url": "https://boards.greenhouse.io/andurilindustries/jobs/5185270007?gh_jid=5185270007", "company_key": "greenhouse:andurilindustries", "location": "Lexington, Massachusetts, United States", "lat": 42.4473175, "lng": -71.2245003, "first_published": "2026-07-12T08:54:46-04:00"}
{"url": "https://boards.greenhouse.io/andurilindustries/jobs/5185272007?gh_jid=5185272007", "company_key": "greenhouse:andurilindustries", "location": "Lexington, Massachusetts, United States", "lat": 42.4473175, "lng": -71.2245003, "first_published": "2026-07-12T08:56:51-04:00"}
{"url": "https://boards.greenhouse.io/andurilindustries/jobs/5185269007?gh_jid=5185269007", "company_key": "greenhouse:andurilindustries", "location": "Lexington, Massachusetts, United States", "lat": 42.4473175, "lng": -71.2245003, "first_published": "2026-07-12T08:54:16-04:00"}
{"url": "https://boards.greenhouse.io/andurilindustries/jobs/5185273007?gh_jid=5185273007", "company_key": "greenhouse:andurilindustries", "location": "Lexington, Massachusetts, United States", "lat": 42.4473175, "lng": -71.2245003, "first_published": "2026-07-12T08:56:52-04:00"}
{"url": "https://databricks.com/company/careers/open-positions/job?gh_jid=8593713002", "company_key": "greenhouse:databricks", "location": "Remote - United Kingdom", "lat": 55.8754971, "lng": -2.9525105, "first_published": "2026-07-12T11:25:20-04:00"}
{"url": "https://www.pinterestcareers.com/jobs/?gh_jid=8037865", "company_key": "greenhouse:pinterest", "location": "Dublin, IE", "lat": 53.3493795, "lng": -6.2605593, "first_published": "2026-07-12T06:53:45-04:00"}
{"url": "https://boards.greenhouse.io/braze/jobs/8002284?gh_jid=8002284", "company_key": "greenhouse:braze", "location": "Tokyo", "lat": 35.6768601, "lng": 139.7638947, "first_published": "2026-07-12T06:32:24-04:00"}
{"url": "https://www.taboola.com/careers/job/8059153?gh_jid=8059153", "company_key": "greenhouse:taboola", "location": "Tel Aviv, Israel", "lat": 32.0852997, "lng": 34.7818064, "first_published": "2026-07-12T08:24:23-04:00"}
{"url": "https://boards.greenhouse.io/careem/jobs/8624018002?gh_jid=8624018002", "company_key": "greenhouse:careem", "location": "Amman, Jordan", "lat": 31.9515694, "lng": 35.9239625, "first_published": "2026-07-12T05:44:21-04:00"}
{"url": "https://job-boards.greenhouse.io/elwoodtechnologies/jobs/6114296004", "company_key": "greenhouse:elwoodtechnologies", "location": "Singapore", "lat": 1.357107, "lng": 103.8194992, "first_published": "2026-07-12T11:21:18-04:00"}
{"url": "https://www.fireblocks.com/careers/4692079006?gh_jid=4692079006", "company_key": "greenhouse:fireblocks", "location": "Berlin, Berlin, Germany", "lat": 52.503379, "lng": 13.3386522, "first_published": "2026-07-12T04:43:51-04:00"}
{"url": "https://job-boards.greenhouse.io/hudl/jobs/8045945", "company_key": "greenhouse:hudl", "location": "Sydney, Australia", "lat": -33.8698439, "lng": 151.2082848, "first_published": "2026-07-12T03:07:07-04:00"}
{"url": "https://job-boards.greenhouse.io/via/jobs/8627735002", "company_key": "greenhouse:via", "location": "Tel Aviv", "lat": 32.0852997, "lng": 34.7818064, "first_published": "2026-07-12T03:43:51-04:00"}
{"url": "https://job-boards.greenhouse.io/advancedtechnologyservices/jobs/4690741006", "company_key": "greenhouse:advancedtechnologyservices", "location": "Mexico- El Salto, Jalisco", "lat": 20.5066723, "lng": -103.2377262, "first_published": "2026-07-12T10:51:12-04:00"}
{"url": "https://job-boards.greenhouse.io/agibank/jobs/5300396008", "company_key": "greenhouse:agibank", "location": "Campinas, S\u00e3o Paulo, Brasil", "lat": -22.9056391, "lng": -47.059564, "first_published": "2026-07-12T08:15:43-04:00"}
{"url": "https://careers.appsflyer.com/jobs/position/8611963002?gh_jid=8611963002", "company_key": "greenhouse:appsflyer", "location": "Herzliya", "lat": 32.1656255, "lng": 34.8469023, "first_published": "2026-07-12T05:47:25-04:00"}
{"url": "https://www.catonetworks.com/careers/careers-post/4925503101?gh_jid=4925503101", "company_key": "greenhouse:catonetworks", "location": "Tel Aviv District, Israel", "lat": 32.0956658, "lng": 34.8062579, "first_published": "2026-07-12T04:37:54-04:00"}
{"url": "https://www.catonetworks.com/careers/careers-post/4920920101?gh_jid=4920920101", "company_key": "greenhouse:catonetworks", "location": "Tel Aviv District, Israel", "lat": 32.0956658, "lng": 34.8062579, "first_published": "2026-07-12T06:52:39-04:00"}
{"url": "https://connecteam.com/careers/6114292004?gh_jid=6114292004", "company_key": "greenhouse:connecteam", "location": "Tel Aviv District, Israel", "lat": 32.0956658, "lng": 34.8062579, "first_published": "2026-07-12T10:42:58-04:00"}
{"url": "https://connecteam.com/careers/6114294004?gh_jid=6114294004", "company_key": "greenhouse:connecteam", "location": "Tel Aviv District, Israel", "lat": 32.0956658, "lng": 34.8062579, "first_published": "2026-07-12T10:43:00-04:00"}
{"url": "https://job-boards.greenhouse.io/decimainternational/jobs/4696417006", "company_key": "greenhouse:decimainternational", "location": "Cairo, Egypt", "lat": 30.0443879, "lng": 31.2357257, "first_published": "2026-07-12T08:49:33-04:00"}
{"url": "https://job-boards.greenhouse.io/decimainternational/jobs/4696415006", "company_key": "greenhouse:decimainternational", "location": "Riyadh, Riyadh, Saudi Arabia", "lat": 24.638916, "lng": 46.7160104, "first_published": "2026-07-12T06:50:37-04:00"}
{"url": "https://job-boards.greenhouse.io/decimainternational/jobs/4696413006", "company_key": "greenhouse:decimainternational", "location": "Riyadh, Riyadh, Saudi Arabia", "lat": 24.638916, "lng": 46.7160104, "first_published": "2026-07-12T06:39:12-04:00"}
{"url": "https://job-boards.greenhouse.io/decimainternational/jobs/4696414006", "company_key": "greenhouse:decimainternational", "location": "Riyadh, Riyadh, Saudi Arabia", "lat": 24.638916, "lng": 46.7160104, "first_published": "2026-07-12T06:45:54-04:00"}
{"url": "https://job-boards.greenhouse.io/decimainternational/jobs/4696411006", "company_key": "greenhouse:decimainternational", "location": "Riyadh, Riyadh, Saudi Arabia", "lat": 24.638916, "lng": 46.7160104, "first_published": "2026-07-12T06:34:43-04:00"}
{"url": "https://job-boards.greenhouse.io/decimainternational/jobs/4696412006", "company_key": "greenhouse:decimainternational", "location": "Riyadh, Riyadh, Saudi Arabia", "lat": 24.638916, "lng": 46.7160104, "first_published": "2026-07-12T06:36:57-04:00"}
{"url": "https://job-boards.greenhouse.io/decimainternational/jobs/4696416006", "company_key": "greenhouse:decimainternational", "location": "Riyadh, Riyadh, Saudi Arabia", "lat": 24.638916, "lng": 46.7160104, "first_published": "2026-07-12T06:53:09-04:00"}
{"url": "https://job-boards.eu.greenhouse.io/jdsports/jobs/4918652101", "company_key": "greenhouse:jdsports", "location": "LIVORNO PORTA A MARE", "lat": 43.5438837, "lng": 10.3035144, "first_published": "2026-07-12T04:23:49-04:00"}
{"url": "https://job-boards.eu.greenhouse.io/jdsports/jobs/4925511101", "company_key": "greenhouse:jdsports", "location": "LIVORNO PORTA A MARE", "lat": 43.5438837, "lng": 10.3035144, "first_published": "2026-07-12T04:41:04-04:00"}
{"url": "https://job-boards.greenhouse.io/khealthcareers/jobs/6110356004", "company_key": "greenhouse:khealthcareers", "location": "Tel-Aviv, IL", "lat": 32.0852997, "lng": 34.7818064, "first_published": "2026-07-12T07:53:55-04:00"}
{"url": "https://job-boards.greenhouse.io/lucidmotors/jobs/5182701007", "company_key": "greenhouse:lucidmotors", "location": "Newark, CA", "lat": 37.5296593, "lng": -122.0402399, "first_published": "2026-07-12T13:14:45-04:00"}
{"url": "https://job-boards.greenhouse.io/lucidmotors/jobs/5142023007", "company_key": "greenhouse:lucidmotors", "location": "Riyadh, Saudi Arabia", "lat": 24.638916, "lng": 46.7160104, "first_published": "2026-07-12T10:57:24-04:00"}
{"url": "https://job-boards.greenhouse.io/melio/jobs/7792385003", "company_key": "greenhouse:melio", "location": "Tel Aviv", "lat": 32.0852997, "lng": 34.7818064, "first_published": "2026-07-12T07:57:18-04:00"}
{"url": "https://job-boards.eu.greenhouse.io/moniepoint/jobs/4925539101", "company_key": "greenhouse:moniepoint", "location": "Akwa Ibom, Nigeria", "lat": 4.990638, "lng": 7.7966205, "first_published": "2026-07-12T06:31:49-04:00"}
{"url": "https://job-boards.eu.greenhouse.io/moniepoint/jobs/4925536101", "company_key": "greenhouse:moniepoint", "location": "Edo, Nigeria", "lat": 6.6076575, "lng": 5.9722713, "first_published": "2026-07-12T06:31:51-04:00"}
{"url": "https://job-boards.eu.greenhouse.io/moniepoint/jobs/4925530101", "company_key": "greenhouse:moniepoint", "location": "Akwa Ibom, Nigeria", "lat": 4.990638, "lng": 7.7966205, "first_published": "2026-07-12T06:22:02-04:00"}
{"url": "https://job-boards.eu.greenhouse.io/moniepoint/jobs/4925534101", "company_key": "greenhouse:moniepoint", "location": "Delta, Nigeria", "lat": 5.5273061, "lng": 6.1784167, "first_published": "2026-07-12T06:22:03-04:00"}
{"url": "https://job-boards.eu.greenhouse.io/moniepoint/jobs/4925535101", "company_key": "greenhouse:moniepoint", "location": "Edo, Nigeria", "lat": 6.6076575, "lng": 5.9722713, "first_published": "2026-07-12T06:22:04-04:00"}
{"url": "https://careers.myheritage.com/jobs/8059147?gh_jid=8059147", "company_key": "greenhouse:myheritage", "location": "Tel Aviv", "lat": 32.0852997, "lng": 34.7818064, "first_published": "2026-07-12T07:41:15-04:00"}
{"url": "https://www.netskope.com/company/careers/open-positions/?gh_jid=8059158", "company_key": "greenhouse:netskope", "location": "Bengaluru, Karnataka, India", "lat": 12.9767936, "lng": 77.590082, "first_published": "2026-07-12T11:02:12-04:00"}
{"url": "https://www.netskope.com/company/careers/open-positions/?gh_jid=8059161", "company_key": "greenhouse:netskope", "location": "Bengaluru, Karnataka, India", "lat": 12.9767936, "lng": 77.590082, "first_published": "2026-07-12T11:23:46-04:00"}
{"url": "https://boards.eu.greenhouse.io/nice/jobs/4925516101?gh_jid=4925516101", "company_key": "greenhouse:nice", "location": "Israel - Raanana", "lat": 32.1860244, "lng": 34.8678359, "first_published": "2026-07-12T04:56:00-04:00"}
{"url": "https://boards.eu.greenhouse.io/nice/jobs/4925531101?gh_jid=4925531101", "company_key": "greenhouse:nice", "location": "Israel - Raanana", "lat": 32.1860244, "lng": 34.8678359, "first_published": "2026-07-12T06:30:21-04:00"}
{"url": "https://boards.eu.greenhouse.io/nice/jobs/4911345101?gh_jid=4911345101", "company_key": "greenhouse:nice", "location": "Israel - Raanana", "lat": 32.1860244, "lng": 34.8678359, "first_published": "2026-07-12T06:18:27-04:00"}
{"url": "https://job-boards.greenhouse.io/okx/jobs/7800833003", "company_key": "greenhouse:okx", "location": "San Jose, California, United States", "lat": 37.3361663, "lng": -121.890591, "first_published": "2026-07-12T10:28:49-04:00"}
{"url": "https://www.payoneer.com/careers/position/8053094/?gh_jid=8053094", "company_key": "greenhouse:payoneer", "location": "Herzliya, Tel Aviv District, Israel", "lat": 32.1656255, "lng": 34.8469023, "first_published": "2026-07-12T06:29:07-04:00"}
{"url": "https://www.payoneer.com/careers/position/8053634/?gh_jid=8053634", "company_key": "greenhouse:payoneer", "location": "Herzliya, Tel Aviv District, Israel", "lat": 32.1656255, "lng": 34.8469023, "first_published": "2026-07-12T06:33:21-04:00"}
{"url": "https://www.payoneer.com/careers/position/7925955/?gh_jid=7925955", "company_key": "greenhouse:payoneer", "location": "Herzliya, Tel Aviv District, Israel", "lat": 32.1656255, "lng": 34.8469023, "first_published": "2026-07-12T09:40:38-04:00"}
{"url": "https://job-boards.greenhouse.io/reformation/jobs/8059163", "company_key": "greenhouse:reformation", "location": "East Hampton", "lat": 40.9633868, "lng": -72.1847598, "first_published": "2026-07-12T12:03:51-04:00"}
{"url": "https://job-boards.greenhouse.io/rocketlab/jobs/7782679003", "company_key": "greenhouse:rocketlab", "location": "Pasadena, CA", "lat": 34.1476507, "lng": -118.144155, "first_published": "2026-07-12T14:03:07-04:00"}
{"url": "https://www.sentinelone.com/jobs/7781374003?gh_jid=7781374003", "company_key": "greenhouse:sentinellabs", "location": "Tel Aviv-Yafo, Tel Aviv District, Israel", "lat": 32.0852997, "lng": 34.7818064, "first_published": "2026-07-12T05:38:32-04:00"}
{"url": "https://www.sentinelone.com/jobs/7802168003?gh_jid=7802168003", "company_key": "greenhouse:sentinellabs", "location": "Israel", "lat": 30.8124247, "lng": 34.8594762, "first_published": "2026-07-12T04:32:37-04:00"}
{"url": "https://www.sentinelone.com/jobs/7802170003?gh_jid=7802170003", "company_key": "greenhouse:sentinellabs", "location": "Tel Aviv-Yafo, Tel Aviv District, Israel", "lat": 32.0852997, "lng": 34.7818064, "first_published": "2026-07-12T04:37:57-04:00"}
{"url": "https://www.sentinelone.com/jobs/7802169003?gh_jid=7802169003", "company_key": "greenhouse:sentinellabs", "location": "Israel", "lat": 30.8124247, "lng": 34.8594762, "first_published": "2026-07-12T04:34:46-04:00"}
{"url": "https://www.sentinelone.com/jobs/7802177003?gh_jid=7802177003", "company_key": "greenhouse:sentinellabs", "location": "Tel Aviv-Yafo, Tel Aviv District, Israel", "lat": 32.0852997, "lng": 34.7818064, "first_published": "2026-07-12T11:41:44-04:00"}
{"url": "https://job-boards.greenhouse.io/sevenroomsuk/jobs/8059155", "company_key": "greenhouse:sevenroomsuk", "location": "London, United Kingdom", "lat": 51.5074456, "lng": -0.1277653, "first_published": "2026-07-12T09:06:06-04:00"}
{"url": "https://job-boards.eu.greenhouse.io/tamara/jobs/4919884101", "company_key": "greenhouse:tamara", "location": "Dubai & Sharjah", "lat": 25.0839809, "lng": 55.1411137, "first_published": "2026-07-12T03:14:00-04:00"}
{"url": "https://job-boards.eu.greenhouse.io/unframe/jobs/4925549101", "company_key": "greenhouse:unframe", "location": "Tel Aviv-Yafo, Tel Aviv District, Israel", "lat": 32.0852997, "lng": 34.7818064, "first_published": "2026-07-12T07:27:15-04:00"}
{"url": "https://job-boards.eu.greenhouse.io/unframe/jobs/4925550101", "company_key": "greenhouse:unframe", "location": "Tel Aviv-Yafo, Tel Aviv District, Israel", "lat": 32.0852997, "lng": 34.7818064, "first_published": "2026-07-12T07:27:35-04:00"}
{"url": "https://job-boards.eu.greenhouse.io/unframe/jobs/4925551101", "company_key": "greenhouse:unframe", "location": "Tel Aviv-Yafo, Tel Aviv District, Israel", "lat": 32.0852997, "lng": 34.7818064, "first_published": "2026-07-12T07:27:59-04:00"}
{"url": "https://job-boards.eu.greenhouse.io/unframe/jobs/4925552101", "company_key": "greenhouse:unframe", "location": "Tel Aviv-Yafo, Tel Aviv District, Israel", "lat": 32.0852997, "lng": 34.7818064, "first_published": "2026-07-12T07:28:18-04:00"}
{"url": "https://job-boards.eu.greenhouse.io/unframe/jobs/4925546101", "company_key": "greenhouse:unframe", "location": "Tel Aviv-Yafo, Tel Aviv District, Israel", "lat": 32.0852997, "lng": 34.7818064, "first_published": "2026-07-12T07:11:19-04:00"}
{"url": "https://job-boards.greenhouse.io/wppmedia/jobs/5335025008", "company_key": "greenhouse:wppmedia", "location": "Beirut, Lebanon", "lat": 33.8892265, "lng": 35.5025585, "first_published": "2026-07-12T06:02:44-04:00"}
{"url": "https://jobs.lever.co/lendbuzz/e229a10a-a64c-4e87-a331-227c1b994053", "company_key": "lever:lendbuzz", "location": "Tel Aviv", "lat": 32.0852997, "lng": 34.7818064, "first_published": "2026-07-12T13:12:12.817000+00:00"}
{"url": "https://jobs.lever.co/theodo/0a0fa3b1-454a-4d7e-b3c9-aca4e58a0e9b", "company_key": "lever:theodo", "location": "Paris", "lat": 48.8588897, "lng": 2.320041, "first_published": "2026-07-12T16:58:01.793000+00:00"}
{"url": "https://jobs.lever.co/walkme/2594252b-3e93-4b2e-918a-8a00ae684fe1", "company_key": "lever:walkme", "location": "Tel Aviv", "lat": 32.0852997, "lng": 34.7818064, "first_published": "2026-07-12T16:00:22.587000+00:00"}
{"url": "https://jobs.lever.co/walkme/8f9b6155-ce75-4756-b5b4-00cd75dbb943", "company_key": "lever:walkme", "location": "Tel Aviv", "lat": 32.0852997, "lng": 34.7818064, "first_published": "2026-07-12T09:48:15.611000+00:00"}
{"url": "https://jobs.ashbyhq.com/angi/090e7b36-87dd-486d-9723-5bf7469def43", "company_key": "ashby:angi", "location": "Hybrid - United Kingdom - London", "lat": null, "lng": null, "first_published": "2026-07-12T12:24:45.228+00:00"}
{"url": "https://jobs.ashbyhq.com/angi/bef8731d-b6de-4dc5-81a7-de20900febeb", "company_key": "ashby:angi", "location": "Hybrid - France - Aix-en-Provence", "lat": 43.4870746, "lng": 5.4166795, "first_published": "2026-07-12T12:24:24.628+00:00"}
{"url": "https://jobs.ashbyhq.com/angi/f453cea7-69a5-4663-81cc-2a12abd5a95a", "company_key": "ashby:angi", "location": "Hybrid - Germany - Berlin", "lat": null, "lng": null, "first_published": "2026-07-12T12:24:21.402+00:00"}
{"url": "https://jobs.ashbyhq.com/angi/4be8b200-da84-46df-8c79-32b13fdb0ad6", "company_key": "ashby:angi", "location": "Hybrid - Netherlands - Amsterdam", "lat": null, "lng": null, "first_published": "2026-07-12T12:24:17.652+00:00"}
{"url": "https://jobs.ashbyhq.com/angi/50950bdc-b402-435c-b783-625073a7903f", "company_key": "ashby:angi", "location": "Hybrid - France - Aix-en-Provence", "lat": 43.4870746, "lng": 5.4166795, "first_published": "2026-07-12T12:23:52.729+00:00"}
{"url": "https://jobs.ashbyhq.com/angi/b40fb47c-5581-4f48-a884-aa721ec7187f", "company_key": "ashby:angi", "location": "Hybrid - Germany - Berlin", "lat": null, "lng": null, "first_published": "2026-07-12T12:24:09.695+00:00"}
{"url": "https://jobs.ashbyhq.com/angi/51eac4b9-22a5-4324-b026-86cc6d2accf4", "company_key": "ashby:angi", "location": "Hybrid - Netherlands - Amsterdam", "lat": null, "lng": null, "first_published": "2026-07-12T12:23:59.846+00:00"}
{"url": "https://jobs.ashbyhq.com/angi/a21d55bd-5bfd-4606-91cb-085fbce2e7eb", "company_key": "ashby:angi", "location": "Hybrid - United Kingdom - London", "lat": null, "lng": null, "first_published": "2026-07-12T12:23:57.025+00:00"}
{"url": "https://jobs.ashbyhq.com/camunda/e4926b7f-275b-442a-9c4a-c657b7bd79df", "company_key": "ashby:camunda", "location": "Remote | United Kingdom | USEAST", "lat": null, "lng": null, "first_published": "2026-07-12T14:10:14.438+00:00"}
{"url": "https://jobs.ashbyhq.com/simply/23c1a796-0249-4dbc-81c0-fafab5b76954", "company_key": "ashby:simply", "location": "Tel Aviv-Yafo", "lat": 32.0852997, "lng": 34.7818064, "first_published": "2026-07-12T15:15:24.336+00:00"}
{"url": "https://job-boards.greenhouse.io/workstream/jobs/5597335004", "company_key": "greenhouse:workstream", "location": "San Francisco, California", "lat": 37.7879363, "lng": -122.4075201, "first_published": "2026-07-13T02:04:13-04:00"}
{"url": "https://jobs.lever.co/jobgether/d5fe2092-0eab-447d-b8b8-c914c38d101c", "company_key": "lever:jobgether", "location": "US", "lat": 39.7837304, "lng": -100.445882, "first_published": "2026-07-13T05:18:29.101000+00:00"}
{"url": "https://jobs.lever.co/jobgether/ab80bcd2-6c18-4c0a-835d-5975061d653b", "company_key": "lever:jobgether", "location": "US", "lat": 39.7837304, "lng": -100.445882, "first_published": "2026-07-13T05:20:19.792000+00:00"}
{"url": "https://jobs.lever.co/jobgether/b98b3de9-464f-4167-82ac-38e2385ecf23", "company_key": "lever:jobgether", "location": "US", "lat": 39.7837304, "lng": -100.445882, "first_published": "2026-07-13T06:00:06.323000+00:00"}
{"url": "https://jobs.lever.co/jobgether/a0c0a2f1-c730-425d-836c-906c8ba1f457", "company_key": "lever:jobgether", "location": "US", "lat": 39.7837304, "lng": -100.445882, "first_published": "2026-07-13T06:52:02.674000+00:00"}
{"url": "https://jobs.lever.co/jobgether/e25b964d-a5ec-4c7f-8175-f5bd504f64ba", "company_key": "lever:jobgether", "location": "US", "lat": 39.7837304, "lng": -100.445882, "first_published": "2026-07-13T06:31:46.277000+00:00"}
{"url": "https://jobs.lever.co/jobgether/13e614b6-f55d-4888-9d63-2c0d43d69df4", "company_key": "lever:jobgether", "location": "US", "lat": 39.7837304, "lng": -100.445882, "first_published": "2026-07-13T06:39:37.318000+00:00"}
{"url": "https://databricks.com/company/careers/open-positions/job?gh_jid=8611391002", "company_key": "greenhouse:databricks", "location": "Tokyo, Japan", "lat": 35.6768601, "lng": 139.7638947, "first_published": "2026-07-12T22:34:08-04:00"}
{"url": "https://epicgames.com/careers/jobs/5789278004?gh_jid=5789278004", "company_key": "greenhouse:epicgames", "location": "BLANK,BLANK,Multiple Locations", "lat": null, "lng": null, "first_published": "2026-07-12T19:20:04-04:00"}
{"url": "https://epicgames.com/careers/jobs/5789276004?gh_jid=5789276004", "company_key": "greenhouse:epicgames", "location": "Cary,North Carolina,United States", "lat": 35.7882893, "lng": -78.7812081, "first_published": "2026-07-12T19:13:12-04:00"}
{"url": "https://www.weareroku.com/jobs/8022897?gh_jid=8022897", "company_key": "greenhouse:roku", "location": "Bengaluru, India", "lat": 12.9767936, "lng": 77.590082, "first_published": "2026-07-13T00:30:59-04:00"}
{"url": "https://www.weareroku.com/jobs/7361860?gh_jid=7361860", "company_key": "greenhouse:roku", "location": "Bengaluru, India", "lat": 12.9767936, "lng": 77.590082, "first_published": "2026-07-13T00:37:25-04:00"}
{"url": "https://job-boards.greenhouse.io/twilio/jobs/8048659", "company_key": "greenhouse:twilio", "location": "Remote - India", "lat": 17.4668554, "lng": 78.4499355, "first_published": "2026-07-13T03:00:10-04:00"}
{"url": "https://boards.greenhouse.io/cloudflare/jobs/8052843?gh_jid=8052843", "company_key": "greenhouse:cloudflare", "location": "Hybrid", "lat": 47.1188391, "lng": 1.0982204, "first_published": "2026-07-12T22:22:39-04:00"}
{"url": "https://boards.greenhouse.io/cloudflare/jobs/8052856?gh_jid=8052856", "company_key": "greenhouse:cloudflare", "location": "Hybrid", "lat": 47.1188391, "lng": 1.0982204, "first_published": "2026-07-12T22:05:51-04:00"}
{"url": "https://job-boards.greenhouse.io/gitlab/jobs/8617211002", "company_key": "greenhouse:gitlab", "location": "Remote, Australia", "lat": -42.96609, "lng": 146.04658, "first_published": "2026-07-12T19:05:20-04:00"}
{"url": "https://job-boards.greenhouse.io/gitlab/jobs/8615389002", "company_key": "greenhouse:gitlab", "location": "Remote, India", "lat": 17.4668554, "lng": 78.4499355, "first_published": "2026-07-13T02:29:08-04:00"}
{"url": "https://job-boards.greenhouse.io/gitlab/jobs/8623751002", "company_key": "greenhouse:gitlab", "location": "Remote, India", "lat": 17.4668554, "lng": 78.4499355, "first_published": "2026-07-13T02:29:51-04:00"}
{"url": "https://job-boards.greenhouse.io/gitlab/jobs/8615439002", "company_key": "greenhouse:gitlab", "location": "Remote, India", "lat": 17.4668554, "lng": 78.4499355, "first_published": "2026-07-13T02:29:28-04:00"}
{"url": "https://job-boards.greenhouse.io/gitlab/jobs/8623763002", "company_key": "greenhouse:gitlab", "location": "Remote, India", "lat": 17.4668554, "lng": 78.4499355, "first_published": "2026-07-13T02:27:52-04:00"}
{"url": "https://job-boards.greenhouse.io/alpaca/jobs/6113960004", "company_key": "greenhouse:alpaca", "location": "Remote - Japan", "lat": 35.5092394, "lng": 139.6300458, "first_published": "2026-07-12T21:09:50-04:00"}
{"url": "https://job-boards.greenhouse.io/fictiv/jobs/8629985002", "company_key": "greenhouse:fictiv", "location": "Oakland, CA Office", "lat": 37.7929742, "lng": -122.2756943, "first_published": "2026-07-12T20:23:19-04:00"}
{"url": "https://job-boards.greenhouse.io/fictiv/jobs/8629940002", "company_key": "greenhouse:fictiv", "location": "Schaumburg, IL", "lat": 42.0333608, "lng": -88.083406, "first_published": "2026-07-12T16:40:48-04:00"}
{"url": "https://job-boards.greenhouse.io/fictiv/jobs/8617382002", "company_key": "greenhouse:fictiv", "location": "Oakland, CA Office", "lat": 37.7929742, "lng": -122.2756943, "first_published": "2026-07-12T21:10:38-04:00"}
{"url": "https://careers.godaddy/jobs?gh_jid=7801583003", "company_key": "greenhouse:godaddy", "location": "India", "lat": 22.3511148, "lng": 78.6677428, "first_published": "2026-07-13T00:54:41-04:00"}
{"url": "https://careers.hellofresh.com/global/en/job/8050325?gh_jid=8050325", "company_key": "greenhouse:hellofresh", "location": "Perth, Western Australia, Australia", "lat": -31.9558967, "lng": 115.8605784, "first_published": "2026-07-12T22:07:17-04:00"}
{"url": "https://4dmoleculartherapeutics.com/careers/?gh_jid=4714086005", "company_key": "greenhouse:4dmoleculartherapeutics", "location": "Remote, United States", "lat": 43.0059455, "lng": -123.8925908, "first_published": "2026-07-12T23:07:55-04:00"}
{"url": "https://boards.greenhouse.io/accenturefederalservices/jobs/4692035006?gh_jid=4692035006", "company_key": "greenhouse:accenturefederalservices", "location": "Washington, DC", "lat": 38.8950982, "lng": -77.0363849, "first_published": "2026-07-12T17:51:24-04:00"}
{"url": "https://job-boards.greenhouse.io/agoda/jobs/8059193", "company_key": "greenhouse:agoda", "location": "Bangkok", "lat": 13.7524938, "lng": 100.4935089, "first_published": "2026-07-12T21:10:21-04:00"}
{"url": "https://job-boards.greenhouse.io/agoda/jobs/8059192", "company_key": "greenhouse:agoda", "location": "Bangkok", "lat": 13.7524938, "lng": 100.4935089, "first_published": "2026-07-12T21:09:27-04:00"}
{"url": "https://job-boards.greenhouse.io/agoda/jobs/8045760", "company_key": "greenhouse:agoda", "location": "Bangkok, Thailand", "lat": 13.7524938, "lng": 100.4935089, "first_published": "2026-07-13T02:14:16-04:00"}
{"url": "https://job-boards.greenhouse.io/alphasense/jobs/8630660002", "company_key": "greenhouse:alphasense", "location": "Pune", "lat": 18.5213738, "lng": 73.8545071, "first_published": "2026-07-13T02:43:31-04:00"}
{"url": "https://job-boards.greenhouse.io/alphasense/jobs/8630663002", "company_key": "greenhouse:alphasense", "location": "Bengaluru", "lat": 12.9767936, "lng": 77.590082, "first_published": "2026-07-13T02:46:09-04:00"}
{"url": "https://job-boards.greenhouse.io/alphasense/jobs/8630664002", "company_key": "greenhouse:alphasense", "location": "Delhi", "lat": 28.6138954, "lng": 77.2090057, "first_published": "2026-07-13T02:47:02-04:00"}
{"url": "https://job-boards.greenhouse.io/alphasenseindia/jobs/8630665002", "company_key": "greenhouse:alphasenseindia", "location": "Delhi", "lat": 28.6138954, "lng": 77.2090057, "first_published": "2026-07-13T02:47:27-04:00"}
{"url": "https://job-boards.greenhouse.io/alphasenseindia/jobs/8624043002", "company_key": "greenhouse:alphasenseindia", "location": "Pune", "lat": 18.5213738, "lng": 73.8545071, "first_published": "2026-07-13T02:42:45-04:00"}
{"url": "https://job-boards.greenhouse.io/alphasenseindia/jobs/8630662002", "company_key": "greenhouse:alphasenseindia", "location": "Bengaluru", "lat": 12.9767936, "lng": 77.590082, "first_published": "2026-07-13T02:45:00-04:00"}
{"url": "https://job-boards.greenhouse.io/artefactlinkedin/jobs/8630657002", "company_key": "greenhouse:artefactlinkedin", "location": "135 W 26th Street, New York, NY 10001", "lat": 40.7453094, "lng": -73.9923958, "first_published": "2026-07-13T02:04:15-04:00"}
{"url": "https://job-boards.greenhouse.io/assetwatch/jobs/4714179005", "company_key": "greenhouse:assetwatch", "location": "United States", "lat": 39.7837304, "lng": -100.445882, "first_published": "2026-07-12T17:31:02-04:00"}
{"url": "https://avathon.com/company/careers-job-listing/?gh_jid=4714149005", "company_key": "greenhouse:avathon", "location": "Bengaluru, Karnataka, India", "lat": 12.9767936, "lng": 77.590082, "first_published": "2026-07-12T07:19:13-04:00"}
{"url": "https://avathon.com/company/careers-job-listing/?gh_jid=4714153005", "company_key": "greenhouse:avathon", "location": "Bengaluru, Karnataka, India", "lat": 12.9767936, "lng": 77.590082, "first_published": "2026-07-12T07:34:35-04:00"}
{"url": "https://avathon.com/company/careers-job-listing/?gh_jid=4714155005", "company_key": "greenhouse:avathon", "location": "Bengaluru, Karnataka, India", "lat": 12.9767936, "lng": 77.590082, "first_published": "2026-07-12T07:58:08-04:00"}
{"url": "https://avathon.com/company/careers-job-listing/?gh_jid=4714148005", "company_key": "greenhouse:avathon", "location": "Bengaluru, Karnataka, India", "lat": 12.9767936, "lng": 77.590082, "first_published": "2026-07-12T06:15:34-04:00"}
{"url": "https://avathon.com/company/careers-job-listing/?gh_jid=4714154005", "company_key": "greenhouse:avathon", "location": "Bengaluru, Karnataka, India", "lat": 12.9767936, "lng": 77.590082, "first_published": "2026-07-12T07:44:12-04:00"}
{"url": "https://avathon.com/company/careers-job-listing/?gh_jid=4714150005", "company_key": "greenhouse:avathon", "location": "Bengaluru, Karnataka, India", "lat": 12.9767936, "lng": 77.590082, "first_published": "2026-07-12T06:57:07-04:00"}
{"url": "https://job-boards.greenhouse.io/aviationinstituteofmaintenance/jobs/5332519008", "company_key": "greenhouse:aviationinstituteofmaintenance", "location": "Norfolk, VA (AIM)", "lat": null, "lng": null, "first_published": "2026-07-12T15:02:41-04:00"}
{"url": "https://job-boards.greenhouse.io/aviationinstituteofmaintenance/jobs/5337870008", "company_key": "greenhouse:aviationinstituteofmaintenance", "location": "Kansas City, MO", "lat": 39.100105, "lng": -94.5781416, "first_published": "2026-07-12T16:32:04-04:00"}
{"url": "https://job-boards.greenhouse.io/aviationinstituteofmaintenance/jobs/5332458008", "company_key": "greenhouse:aviationinstituteofmaintenance", "location": "Norfolk, VA (AIM)", "lat": null, "lng": null, "first_published": "2026-07-12T15:01:55-04:00"}
{"url": "https://job-boards.greenhouse.io/aviationinstituteofmaintenance/jobs/5330274008", "company_key": "greenhouse:aviationinstituteofmaintenance", "location": "Charlotte, NC", "lat": 35.2272086, "lng": -80.8430827, "first_published": "2026-07-12T14:59:16-04:00"}
{"url": "https://job-boards.greenhouse.io/aviationinstituteofmaintenance/jobs/5337741008", "company_key": "greenhouse:aviationinstituteofmaintenance", "location": "Hasbrouck Heights, NJ", "lat": 40.8579293, "lng": -74.0816693, "first_published": "2026-07-12T16:01:29-04:00"}
{"url": "https://job-boards.greenhouse.io/aviationinstituteofmaintenance/jobs/5337743008", "company_key": "greenhouse:aviationinstituteofmaintenance", "location": "Chicago, IL ", "lat": 41.8755616, "lng": -87.6244212, "first_published": "2026-07-12T16:09:36-04:00"}
{"url": "https://job-boards.greenhouse.io/aviationinstituteofmaintenance/jobs/5337806008", "company_key": "greenhouse:aviationinstituteofmaintenance", "location": "Hasbrouck Heights, NJ", "lat": 40.8579293, "lng": -74.0816693, "first_published": "2026-07-12T16:13:06-04:00"}
{"url": "https://job-boards.greenhouse.io/aviationinstituteofmaintenance/jobs/5337678008", "company_key": "greenhouse:aviationinstituteofmaintenance", "location": "Charlotte, NC", "lat": 35.2272086, "lng": -80.8430827, "first_published": "2026-07-12T15:48:44-04:00"}
{"url": "https://job-boards.greenhouse.io/aviationinstituteofmaintenance/jobs/5337809008", "company_key": "greenhouse:aviationinstituteofmaintenance", "location": "Philadelphia, PA", "lat": 39.9527237, "lng": -75.1635262, "first_published": "2026-07-12T16:17:06-04:00"}
{"url": "https://job-boards.greenhouse.io/aviationinstituteofmaintenance/jobs/5337807008", "company_key": "greenhouse:aviationinstituteofmaintenance", "location": "Manassas, VA", "lat": 38.7509488, "lng": -77.4752667, "first_published": "2026-07-12T16:14:44-04:00"}
{"url": "https://job-boards.greenhouse.io/aviationinstituteofmaintenance/jobs/5337781008", "company_key": "greenhouse:aviationinstituteofmaintenance", "location": "Chicago, IL ", "lat": 41.8755616, "lng": -87.6244212, "first_published": "2026-07-12T16:11:00-04:00"}
{"url": "https://job-boards.greenhouse.io/aviationinstituteofmaintenance/jobs/5337742008", "company_key": "greenhouse:aviationinstituteofmaintenance", "location": "Manassas, VA", "lat": 38.7509488, "lng": -77.4752667, "first_published": "2026-07-12T16:03:28-04:00"}
{"url": "https://job-boards.greenhouse.io/aviationinstituteofmaintenance/jobs/5337680008", "company_key": "greenhouse:aviationinstituteofmaintenance", "location": "Hasbrouck Heights, NJ", "lat": 40.8579293, "lng": -74.0816693, "first_published": "2026-07-12T16:02:08-04:00"}
{"url": "https://job-boards.greenhouse.io/aviationinstituteofmaintenance/jobs/5337679008", "company_key": "greenhouse:aviationinstituteofmaintenance", "location": "Charlotte, NC", "lat": 35.2272086, "lng": -80.8430827, "first_published": "2026-07-12T15:50:30-04:00"}
{"url": "https://job-boards.greenhouse.io/aviationinstituteofmaintenance/jobs/5337808008", "company_key": "greenhouse:aviationinstituteofmaintenance", "location": "Norfolk, VA", "lat": 36.8493695, "lng": -76.2899539, "first_published": "2026-07-12T16:16:01-04:00"}
{"url": "https://job-boards.greenhouse.io/aviationinstituteofmaintenance/jobs/5330275008", "company_key": "greenhouse:aviationinstituteofmaintenance", "location": "Charlotte, NC", "lat": 35.2272086, "lng": -80.8430827, "first_published": "2026-07-12T15:00:03-04:00"}
{"url": "https://job-boards.greenhouse.io/axon/jobs/7802176003", "company_key": "greenhouse:axon", "location": "Israel-Tel-Aviv Yafo Office", "lat": 32.0738914, "lng": 34.7954243, "first_published": "2026-07-13T02:45:33-04:00"}
{"url": "https://job-boards.greenhouse.io/behavox/jobs/8059257", "company_key": "greenhouse:behavox", "location": "London", "lat": 51.5074456, "lng": -0.1277653, "first_published": "2026-07-13T01:08:38-04:00"}
{"url": "https://job-boards.greenhouse.io/behavox/jobs/8059259", "company_key": "greenhouse:behavox", "location": "Abu Dhabi", "lat": 24.4538352, "lng": 54.3774014, "first_published": "2026-07-13T01:09:35-04:00"}
{"url": "https://job-boards.greenhouse.io/behavox/jobs/8059261", "company_key": "greenhouse:behavox", "location": "Virginia", "lat": 37.1232245, "lng": -78.4927721, "first_published": "2026-07-13T01:11:26-04:00"}
{"url": "https://job-boards.greenhouse.io/behavox/jobs/8059260", "company_key": "greenhouse:behavox", "location": "Dubai", "lat": 25.0742823, "lng": 55.1885387, "first_published": "2026-07-13T01:10:05-04:00"}
{"url": "https://job-boards.greenhouse.io/behavox/jobs/8059258", "company_key": "greenhouse:behavox", "location": "Houston", "lat": 29.7589382, "lng": -95.3676974, "first_published": "2026-07-13T01:09:07-04:00"}
{"url": "https://job-boards.greenhouse.io/blackduck/jobs/5339674008", "company_key": "greenhouse:blackduck", "location": "US Offsite", "lat": 34.8318676, "lng": -106.8207014, "first_published": "2026-07-12T23:55:21-04:00"}
{"url": "https://job-boards.greenhouse.io/boxinc/jobs/8055405", "company_key": "greenhouse:boxinc", "location": "Warsaw, Poland", "lat": 52.2333742, "lng": 21.0711489, "first_published": "2026-07-13T02:23:59-04:00"}
{"url": "https://branch.io/careers/apply/?gh_jid=8059296", "company_key": "greenhouse:branchmetrics", "location": "APAC", "lat": 1.9337258, "lng": 32.5018028, "first_published": "2026-07-13T02:31:21-04:00"}
{"url": "https://job-boards.greenhouse.io/brandtechplus/jobs/8023825", "company_key": "greenhouse:brandtechplus", "location": "Mumbai, India  ", "lat": 19.054999, "lng": 72.8692035, "first_published": "2026-07-13T01:13:17-04:00"}
{"url": "https://www.cmtelematics.com/who-we-are/join-our-team/job-posting/?gh_jid=8053562", "company_key": "greenhouse:cambridgemobiletelematics", "location": "Chennai, India", "lat": 13.0836939, "lng": 80.270186, "first_published": "2026-07-13T03:07:35-04:00"}
{"url": "https://job-boards.greenhouse.io/capco/jobs/8045743", "company_key": "greenhouse:capco", "location": "Canada - Toronto", "lat": 43.6534817, "lng": -79.3839347, "first_published": "2026-07-12T17:59:16-04:00"}
{"url": "https://job-boards.greenhouse.io/conga/jobs/5160218007", "company_key": "greenhouse:conga", "location": "Bulgaria", "lat": 42.6073975, "lng": 25.4856617, "first_published": "2026-07-13T02:34:07-04:00"}
{"url": "https://www.coupang.jobs/en/jobs/?gh_jid=8037678", "company_key": "greenhouse:coupang", "location": "Seoul, South Korea", "lat": 37.5666791, "lng": 126.9782914, "first_published": "2026-07-12T21:57:15-04:00"}
{"url": "https://www.coupang.jobs/en/jobs/?gh_jid=8052985", "company_key": "greenhouse:coupang", "location": "Tokyo, Japan", "lat": 35.6768601, "lng": 139.7638947, "first_published": "2026-07-13T01:10:24-04:00"}
{"url": "https://www.coupang.jobs/en/jobs/?gh_jid=8052967", "company_key": "greenhouse:coupang", "location": "Seoul, South Korea", "lat": 37.5666791, "lng": 126.9782914, "first_published": "2026-07-13T02:50:14-04:00"}
{"url": "https://www.datavant.com/about/careers/open-roles/job?gh_jid=5288422008", "company_key": "greenhouse:datavant2", "location": "Remote - United States ", "lat": 43.0059455, "lng": -123.8925908, "first_published": "2026-07-12T22:58:22-04:00"}
{"url": "https://www.datavant.com/about/careers/open-roles/job?gh_jid=5224215008", "company_key": "greenhouse:datavant2", "location": "Westwood NJ", "lat": 40.9912087, "lng": -74.0326395, "first_published": "2026-07-12T22:53:53-04:00"}
{"url": "https://job-boards.greenhouse.io/definitivehc/jobs/6105270004", "company_key": "greenhouse:definitivehc", "location": "Framingham, MA", "lat": 42.2773177, "lng": -71.4165905, "first_published": "2026-07-13T00:00:02-04:00"}
{"url": "https://www.digitalocean.com/careers/position/apply/?gh_jid=8014471", "company_key": "greenhouse:digitalocean98", "location": "Singapore", "lat": 1.357107, "lng": 103.8194992, "first_published": "2026-07-13T01:18:43-04:00"}
{"url": "https://job-boards.greenhouse.io/eulerity/jobs/4696409006", "company_key": "greenhouse:eulerity", "location": "New York ", "lat": 40.7127281, "lng": -74.0060152, "first_published": "2026-07-12T16:08:45-04:00"}
{"url": "https://www.zipline.com/open-roles?gh_jid=7802161003", "company_key": "greenhouse:flyzipline", "location": "South San Francisco, California, USA", "lat": 37.6535403, "lng": -122.4168664, "first_published": "2026-07-12T17:10:36-04:00"}
{"url": "https://www.zipline.com/open-roles?gh_jid=7802160003", "company_key": "greenhouse:flyzipline", "location": "South San Francisco, California, USA", "lat": 37.6535403, "lng": -122.4168664, "first_published": "2026-07-12T17:10:24-04:00"}
{"url": "https://www.zipline.com/open-roles?gh_jid=7802157003", "company_key": "greenhouse:flyzipline", "location": "Houston, Texas, USA", "lat": 29.7589382, "lng": -95.3676974, "first_published": "2026-07-12T17:09:16-04:00"}
{"url": "https://www.zipline.com/open-roles?gh_jid=7802159003", "company_key": "greenhouse:flyzipline", "location": "South San Francisco, California, USA", "lat": 37.6535403, "lng": -122.4168664, "first_published": "2026-07-12T17:09:49-04:00"}
{"url": "https://www.zipline.com/open-roles?gh_jid=7802158003", "company_key": "greenhouse:flyzipline", "location": "South San Francisco, California, USA", "lat": 37.6535403, "lng": -122.4168664, "first_published": "2026-07-12T17:09:37-04:00"}
{"url": "https://job-boards.greenhouse.io/goalsyria/jobs/8059142", "company_key": "greenhouse:goalsyria", "location": "Aleepo , Syria", "lat": null, "lng": null, "first_published": "2026-07-12T04:56:19-04:00"}
{"url": "https://job-boards.greenhouse.io/ideo/jobs/8049844", "company_key": "greenhouse:ideo", "location": "San Francisco, CA", "lat": 37.7879363, "lng": -122.4075201, "first_published": "2026-07-12T22:32:55-04:00"}
{"url": "https://job-boards.greenhouse.io/ideo/jobs/8059219", "company_key": "greenhouse:ideo", "location": "San Francisco, CA", "lat": 37.7879363, "lng": -122.4075201, "first_published": "2026-07-12T22:20:29-04:00"}
{"url": "https://job-boards.greenhouse.io/inversionspace/jobs/4714198005", "company_key": "greenhouse:inversionspace", "location": "Playa Vista, California, United States", "lat": 33.9760102, "lng": -118.4181654, "first_published": "2026-07-12T19:32:20-04:00"}
{"url": "https://job-boards.greenhouse.io/iovancebiotherapeutics/jobs/5324073008", "company_key": "greenhouse:iovancebiotherapeutics", "location": "Philadelphia, PA", "lat": 39.9527237, "lng": -75.1635262, "first_published": "2026-07-13T02:30:42-04:00"}
{"url": "https://job-boards.greenhouse.io/iovancebiotherapeutics/jobs/5318823008", "company_key": "greenhouse:iovancebiotherapeutics", "location": "Hybrid", "lat": 47.1188391, "lng": 1.0982204, "first_published": "2026-07-13T01:15:19-04:00"}
{"url": "https://job-boards.eu.greenhouse.io/leapwork/jobs/4924666101", "company_key": "greenhouse:leapwork", "location": "Gurugram", "lat": 28.4646148, "lng": 77.0299194, "first_published": "2026-07-13T02:50:54-04:00"}
{"url": "https://job-boards.greenhouse.io/marksman/jobs/4314007009", "company_key": "greenhouse:marksman", "location": "TMNA HQ: 6565 Headquarters Dr. Plano, TX 75019", "lat": null, "lng": null, "first_published": "2026-07-12T22:11:45-04:00"}
{"url": "https://job-boards.greenhouse.io/marksman/jobs/4314008009", "company_key": "greenhouse:marksman", "location": "TMNA HQ: 6565 Headquarters Dr. Plano, TX 75019", "lat": null, "lng": null, "first_published": "2026-07-12T22:15:13-04:00"}
{"url": "https://job-boards.greenhouse.io/marksman/jobs/4314003009", "company_key": "greenhouse:marksman", "location": "TMMTN: 301 James Lawrence Rd Jackson, TN 38301", "lat": null, "lng": null, "first_published": "2026-07-12T20:17:30-04:00"}
{"url": "https://job-boards.greenhouse.io/moneyherogroup/jobs/7799423003", "company_key": "greenhouse:moneyherogroup", "location": "Kuala Lumpur, Malaysia", "lat": 3.1516964, "lng": 101.6942371, "first_published": "2026-07-13T00:05:58-04:00"}
{"url": "https://job-boards.greenhouse.io/moneyherogroup/jobs/7800860003", "company_key": "greenhouse:moneyherogroup", "location": "Hong Kong", "lat": 22.3492155, "lng": 114.1857978, "first_published": "2026-07-12T21:05:51-04:00"}
{"url": "https://www.highspring.com/about/careers/job-details?gh_jid=8059170", "company_key": "greenhouse:morganfranklinconsultingllc", "location": "Nashville, TN", "lat": 36.1622767, "lng": -86.7742984, "first_published": "2026-07-12T15:01:45-04:00"}
{"url": "https://job-boards.greenhouse.io/nabis/jobs/6113835004", "company_key": "greenhouse:nabis", "location": "Remote", "lat": 43.0059455, "lng": -123.8925908, "first_published": "2026-07-12T22:16:54-04:00"}
{"url": "https://careers.nothing.tech/?gh_jid=4894784101", "company_key": "greenhouse:nothing", "location": "New York, New York, United States", "lat": 40.7127281, "lng": -74.0060152, "first_published": "2026-07-13T02:42:43-04:00"}
{"url": "https://job-boards.greenhouse.io/okx/jobs/7802200003", "company_key": "greenhouse:okx", "location": "Singapore, Singapore", "lat": 1.2899175, "lng": 103.8519072, "first_published": "2026-07-12T22:09:57-04:00"}
{"url": "https://job-boards.greenhouse.io/oulahealth/jobs/5326607008", "company_key": "greenhouse:oulahealth", "location": "Brooklyn, New York, United States", "lat": 40.6526006, "lng": -73.9497211, "first_published": "2026-07-12T23:18:40-04:00"}
{"url": "https://job-boards.greenhouse.io/paypay/jobs/6114316004", "company_key": "greenhouse:paypay", "location": "\u5317\u6d77\u9053\u672d\u5e4c\u5e02", "lat": 43.061936, "lng": 141.3542924, "first_published": "2026-07-13T02:03:37-04:00"}
{"url": "https://job-boards.greenhouse.io/pfm/jobs/6114328004", "company_key": "greenhouse:pfm", "location": "Remote, India", "lat": 17.4668554, "lng": 78.4499355, "first_published": "2026-07-13T02:18:23-04:00"}
{"url": "https://job-boards.greenhouse.io/pfm/jobs/6114317004", "company_key": "greenhouse:pfm", "location": "Remote, China", "lat": 30.5282864, "lng": 114.3543902, "first_published": "2026-07-12T23:58:34-04:00"}
{"url": "https://job-boards.eu.greenhouse.io/physicsx/jobs/4925675101", "company_key": "greenhouse:physicsx", "location": "New York, United States", "lat": 40.7127281, "lng": -74.0060152, "first_published": "2026-07-12T18:58:51-04:00"}
{"url": "https://job-boards.greenhouse.io/podium81/jobs/7994506", "company_key": "greenhouse:podium81", "location": "Melbourne, Australia", "lat": -37.8142454, "lng": 144.9631732, "first_published": "2026-07-13T02:27:57-04:00"}
{"url": "https://job-boards.greenhouse.io/precisionmedicinegroup/jobs/6114325004", "company_key": "greenhouse:precisionmedicinegroup", "location": "Remote, India", "lat": 17.4668554, "lng": 78.4499355, "first_published": "2026-07-13T02:18:21-04:00"}
{"url": "https://job-boards.greenhouse.io/precisionmedicinegroup/jobs/6114314004", "company_key": "greenhouse:precisionmedicinegroup", "location": "Remote, China", "lat": 30.5282864, "lng": 114.3543902, "first_published": "2026-07-12T23:58:33-04:00"}
{"url": "https://job-boards.greenhouse.io/quberesearchandtechnologies/jobs/8623704002", "company_key": "greenhouse:quberesearchandtechnologies", "location": "Hong kong", "lat": 22.3492155, "lng": 114.1857978, "first_published": "2026-07-12T23:40:30-04:00"}
{"url": "https://job-boards.greenhouse.io/razorpaysoftwareprivatelimited/jobs/4711522005", "company_key": "greenhouse:razorpaysoftwareprivatelimited", "location": "Mumbai", "lat": 19.054999, "lng": 72.8692035, "first_published": "2026-07-13T01:51:29-04:00"}
{"url": "https://job-boards.greenhouse.io/razorpaysoftwareprivatelimited/jobs/4713441005", "company_key": "greenhouse:razorpaysoftwareprivatelimited", "location": "Bengaluru", "lat": 12.9767936, "lng": 77.590082, "first_published": "2026-07-13T02:10:08-04:00"}
{"url": "https://miro.com/careers/vacancy/8622524002?gh_jid=8622524002", "company_key": "greenhouse:realtimeboardglobal", "location": "Tokyo, JP", "lat": 35.6768601, "lng": 139.7638947, "first_published": "2026-07-12T21:01:00-04:00"}
{"url": "https://job-boards.greenhouse.io/reformation/jobs/8055903", "company_key": "greenhouse:reformation", "location": "San Francisco, Ca", "lat": 37.7879363, "lng": -122.4075201, "first_published": "2026-07-12T16:33:24-04:00"}
{"url": "https://job-boards.greenhouse.io/reformation/jobs/8059172", "company_key": "greenhouse:reformation", "location": "Cabazon, CA", "lat": 33.9090305, "lng": -116.7795345, "first_published": "2026-07-12T15:43:55-04:00"}
{"url": "https://job-boards.greenhouse.io/released/jobs/7802195003", "company_key": "greenhouse:released", "location": "Auckland", "lat": -36.852095, "lng": 174.7631803, "first_published": "2026-07-12T19:17:53-04:00"}
{"url": "https://job-boards.greenhouse.io/released/jobs/7802196003", "company_key": "greenhouse:released", "location": "Napier", "lat": -39.4902099, "lng": 176.917839, "first_published": "2026-07-12T19:29:08-04:00"}
{"url": "https://job-boards.greenhouse.io/rimestechnologies/jobs/6114332004", "company_key": "greenhouse:rimestechnologies", "location": "New York, New York", "lat": 40.7127281, "lng": -74.0060152, "first_published": "2026-07-13T02:44:35-04:00"}
{"url": "https://job-boards.greenhouse.io/robotsandpencils/jobs/5339855008", "company_key": "greenhouse:robotsandpencils", "location": "US - Remote; Canada - Remote", "lat": null, "lng": null, "first_published": "2026-07-13T00:28:56-04:00"}
{"url": "https://www.rubrik.com/company/careers/departments/job.8048082?gh_jid=8048082", "company_key": "greenhouse:rubrik", "location": "Mumbai", "lat": 19.054999, "lng": 72.8692035, "first_published": "2026-07-13T00:55:23-04:00"}
{"url": "https://job-boards.greenhouse.io/sertis/jobs/8630634002", "company_key": "greenhouse:sertis", "location": "Bangkok, Bangkok Metropolis, Thailand", "lat": null, "lng": null, "first_published": "2026-07-13T00:14:30-04:00"}
{"url": "https://www.hellosimply.com/careers/8608392002?gh_jid=8608392002", "company_key": "greenhouse:simply", "location": "Tel Aviv-Yafo", "lat": 32.0852997, "lng": 34.7818064, "first_published": "2026-07-12T11:15:24-04:00"}
{"url": "https://job-boards.eu.greenhouse.io/sohohouseco/jobs/4914921101", "company_key": "greenhouse:sohohouseco", "location": "Soho Farmhouse - Chipping Norton, England, United Kingdom", "lat": null, "lng": null, "first_published": "2026-07-13T02:58:28-04:00"}
{"url": "https://job-boards.greenhouse.io/solarisbank/jobs/8629899002", "company_key": "greenhouse:solarisbank", "location": "Berlin", "lat": 52.5173885, "lng": 13.3951309, "first_published": "2026-07-12T03:51:38-04:00"}
{"url": "https://job-boards.greenhouse.io/sonderaustralia/jobs/8629988002", "company_key": "greenhouse:sonderaustralia", "location": "Waterloo, Sydney", "lat": -33.9002762, "lng": 151.2073137, "first_published": "2026-07-12T21:14:31-04:00"}
{"url": "https://job-boards.greenhouse.io/sonderaustralia/jobs/8630023002", "company_key": "greenhouse:sonderaustralia", "location": "Sydney", "lat": -33.8698439, "lng": 151.2082848, "first_published": "2026-07-13T00:26:43-04:00"}
{"url": "https://job-boards.greenhouse.io/studsinc/jobs/6110299004", "company_key": "greenhouse:studsinc", "location": "12 Prince Street New York, New York 10012", "lat": 40.7225501, "lng": -73.9939896, "first_published": "2026-07-12T18:04:03-04:00"}
{"url": "https://job-boards.greenhouse.io/taxvalet/jobs/4713807005", "company_key": "greenhouse:taxvalet", "location": "United States", "lat": 39.7837304, "lng": -100.445882, "first_published": "2026-07-12T20:00:00-04:00"}
{"url": "https://job-boards.greenhouse.io/taxvalet/jobs/4713830005", "company_key": "greenhouse:taxvalet", "location": "South Africa", "lat": -28.8166236, "lng": 24.991639, "first_published": "2026-07-12T20:00:00-04:00"}
{"url": "https://job-boards.eu.greenhouse.io/thequalitygroupgmbh1/jobs/4924331101", "company_key": "greenhouse:thequalitygroupgmbh1", "location": "Deutschland, remote", "lat": 49.2186885, "lng": 7.1109673, "first_published": "2026-07-13T00:31:29-04:00"}
{"url": "https://job-boards.eu.greenhouse.io/thequalitygroupgmbh1/jobs/4924411101", "company_key": "greenhouse:thequalitygroupgmbh1", "location": "Gro\u00dfbritannien, remote ", "lat": null, "lng": null, "first_published": "2026-07-13T00:29:11-04:00"}
{"url": "https://job-boards.eu.greenhouse.io/thequalitygroupgmbh1/jobs/4925725101", "company_key": "greenhouse:thequalitygroupgmbh1", "location": "Deutschland, remote", "lat": 49.2186885, "lng": 7.1109673, "first_published": "2026-07-13T00:33:53-04:00"}
{"url": "https://job-boards.eu.greenhouse.io/thequalitygroupgmbh1/jobs/4923733101", "company_key": "greenhouse:thequalitygroupgmbh1", "location": "Deutschland, remote", "lat": 49.2186885, "lng": 7.1109673, "first_published": "2026-07-13T00:57:27-04:00"}
{"url": "https://job-boards.eu.greenhouse.io/thequalitygroupgmbh2/jobs/4924333101", "company_key": "greenhouse:thequalitygroupgmbh2", "location": "Deutschland, remote", "lat": 49.2186885, "lng": 7.1109673, "first_published": "2026-07-13T00:31:29-04:00"}
{"url": "https://job-boards.eu.greenhouse.io/thequalitygroupgmbh2/jobs/4922134101", "company_key": "greenhouse:thequalitygroupgmbh2", "location": "Hamburg (hybrid)", "lat": 53.5750057, "lng": 9.8857762, "first_published": "2026-07-13T00:28:22-04:00"}
{"url": "https://job-boards.eu.greenhouse.io/thequalitygroupgmbh2/jobs/4924425101", "company_key": "greenhouse:thequalitygroupgmbh2", "location": "United Kingdom", "lat": 54.7023545, "lng": -3.2765753, "first_published": "2026-07-13T00:29:12-04:00"}
{"url": "https://job-boards.eu.greenhouse.io/thequalitygroupgmbh2/jobs/4925726101", "company_key": "greenhouse:thequalitygroupgmbh2", "location": "Deutschland, remote", "lat": 49.2186885, "lng": 7.1109673, "first_published": "2026-07-13T00:33:52-04:00"}
{"url": "https://job-boards.eu.greenhouse.io/thequalitygroupgmbh2/jobs/4923734101", "company_key": "greenhouse:thequalitygroupgmbh2", "location": "Deutschland, remote", "lat": 49.2186885, "lng": 7.1109673, "first_published": "2026-07-13T00:57:28-04:00"}
{"url": "https://job-boards.greenhouse.io/thoughtworksreferral/jobs/8059298", "company_key": "greenhouse:thoughtworksreferral", "location": "Bangalore, India", "lat": 12.9767936, "lng": 77.590082, "first_published": "2026-07-13T03:01:24-04:00"}
{"url": "https://token-security-new.webflow.io/company/careers?gh_jid=4925587101", "company_key": "greenhouse:tokensecurity", "location": "Tel Aviv", "lat": 32.0852997, "lng": 34.7818064, "first_published": "2026-07-12T10:36:32-04:00"}
{"url": "https://job-boards.greenhouse.io/tpcengineeringholdingsllc/jobs/5185286007", "company_key": "greenhouse:tpcengineeringholdingsllc", "location": "AZ - Chandler | C.E. Precision Assemblies", "lat": null, "lng": null, "first_published": "2026-07-12T22:01:37-04:00"}
{"url": "https://job-boards.greenhouse.io/tpcengineeringholdingsllc/jobs/5185288007", "company_key": "greenhouse:tpcengineeringholdingsllc", "location": "AZ - Chandler | C.E. Precision Assemblies", "lat": null, "lng": null, "first_published": "2026-07-12T22:28:59-04:00"}
{"url": "https://job-boards.eu.greenhouse.io/veeamsoftware/jobs/4782347101", "company_key": "greenhouse:veeamsoftware", "location": "Bangalore, India", "lat": 12.9767936, "lng": 77.590082, "first_published": "2026-07-13T01:03:44-04:00"}
{"url": "https://ats.comparably.com/api/v2/verifone/post/7770517003?gh_jid=7770517003", "company_key": "greenhouse:verifone", "location": "Bengaluru, Karnataka, India", "lat": 12.9767936, "lng": 77.590082, "first_published": "2026-07-13T00:03:06-04:00"}
{"url": "https://job-boards.greenhouse.io/vim/jobs/8059154", "company_key": "greenhouse:vim", "location": "New York, New York, United States", "lat": 40.7127281, "lng": -74.0060152, "first_published": "2026-07-12T09:07:13-04:00"}
{"url": "https://job-boards.greenhouse.io/vixxo/jobs/8623225002", "company_key": "greenhouse:vixxo", "location": "Work @ Home US", "lat": 41.4641125, "lng": -87.0346215, "first_published": "2026-07-13T02:55:19-04:00"}
{"url": "https://job-boards.greenhouse.io/vixxo/jobs/8629992002", "company_key": "greenhouse:vixxo", "location": "Dallas, TX", "lat": 32.7762719, "lng": -96.7968559, "first_published": "2026-07-12T21:31:49-04:00"}
{"url": "https://www.workato.com/careers?gh_jid=8625473002#open-roles", "company_key": "greenhouse:workato", "location": "Alabang, Philippines", "lat": 14.4190326, "lng": 121.044338, "first_published": "2026-07-12T23:00:27-04:00"}
{"url": "https://job-boards.greenhouse.io/wpp/jobs/8623906002", "company_key": "greenhouse:wpp", "location": "Chennai,India", "lat": 13.0836939, "lng": 80.270186, "first_published": "2026-07-13T01:27:06-04:00"}
{"url": "https://www.vml.com/careers/job/8630030002?gh_jid=8630030002", "company_key": "greenhouse:wundermanthompson", "location": "Singapore, Singapore", "lat": 1.2899175, "lng": 103.8519072, "first_published": "2026-07-12T23:34:45-04:00"}
{"url": "https://job-boards.greenhouse.io/zennioptical/jobs/5336184008", "company_key": "greenhouse:zennioptical", "location": "Obetz, Ohio", "lat": 39.8789527, "lng": -82.9507363, "first_published": "2026-07-12T10:02:49-04:00"}
{"url": "https://job-boards.greenhouse.io/zone5technologies/jobs/5326665008", "company_key": "greenhouse:zone5technologies", "location": "United States", "lat": 39.7837304, "lng": -100.445882, "first_published": "2026-07-12T17:05:12-04:00"}
{"url": "https://job-boards.greenhouse.io/zscaler/jobs/5177767007", "company_key": "greenhouse:zscaler", "location": "Melbourne, AUS; Sydney, AUS", "lat": null, "lng": null, "first_published": "2026-07-13T00:42:24-04:00"}
{"url": "https://jobs.lever.co/alloy/5548fd3a-ab1b-4e13-9a0a-4e6453252078", "company_key": "lever:alloy", "location": "Denver, CO", "lat": 39.7392364, "lng": -104.984862, "first_published": "2026-07-13T04:10:25.600000+00:00"}
{"url": "https://jobs.lever.co/alloy/da9ffa0c-c4b1-4bd3-93ff-b58e38b16d3a", "company_key": "lever:alloy", "location": "Vancouver, BC", "lat": 49.2608724, "lng": -123.113952, "first_published": "2026-07-13T04:19:18+00:00"}
{"url": "https://jobs.lever.co/ciandt/505cafdc-5352-49e5-8460-f50f6cac984e", "company_key": "lever:ciandt", "location": "Brazil", "lat": -10.3333333, "lng": -53.2, "first_published": "2026-07-12T23:22:06.400000+00:00"}
{"url": "https://jobs.lever.co/coins/a4607004-a7fa-40ad-89af-9a885cb8a959", "company_key": "lever:coins", "location": "Taguig City, Metro Manila, Philippines", "lat": 14.5270538, "lng": 121.0744942, "first_published": "2026-07-13T01:46:18.944000+00:00"}
{"url": "https://jobs.lever.co/extremenetworks/e90b644a-d28b-4348-8367-b143712e6c02", "company_key": "lever:extremenetworks", "location": "London, United Kingdom | Shannon, Ireland", "lat": null, "lng": null, "first_published": "2026-07-13T05:30:12.907000+00:00"}
{"url": "https://jobs.lever.co/floqast/16633756-7b65-467d-9df7-83f35fbb9931", "company_key": "lever:floqast", "location": "Sydney", "lat": -33.8698439, "lng": 151.2082848, "first_published": "2026-07-12T19:31:30.796000+00:00"}
{"url": "https://jobs.lever.co/GoToGroup/d8b85b16-1073-4c6a-a349-56ac7010d862", "company_key": "lever:GoToGroup", "location": "Singapore", "lat": 1.357107, "lng": 103.8194992, "first_published": "2026-07-13T04:33:01.030000+00:00"}
{"url": "https://jobs.lever.co/hypebeast/2c931c2c-f7f3-422c-a799-3e45489410c5", "company_key": "lever:hypebeast", "location": "London", "lat": 51.5074456, "lng": -0.1277653, "first_published": "2026-07-13T06:23:03.388000+00:00"}
{"url": "https://jobs.lever.co/jobgether/06f70c13-3b3a-46ba-810c-14a673bdf705", "company_key": "lever:jobgether", "location": "Netherlands", "lat": 52.2434979, "lng": 5.6343227, "first_published": "2026-07-13T05:00:00.287000+00:00"}
{"url": "https://jobs.lever.co/jobgether/0bb483a4-e7d2-4680-b509-9393e33beab7", "company_key": "lever:jobgether", "location": "Spain", "lat": 39.3260685, "lng": -4.8379791, "first_published": "2026-07-13T05:02:16.341000+00:00"}
{"url": "https://jobs.lever.co/jobgether/167af41b-8d8a-4466-8b57-67dff1300d28", "company_key": "lever:jobgether", "location": "UK", "lat": 54.7023545, "lng": -3.2765753, "first_published": "2026-07-13T05:02:35.946000+00:00"}
{"url": "https://jobs.lever.co/jobgether/46cc7b20-9cc2-4c2c-a87c-9ffabfd1df98", "company_key": "lever:jobgether", "location": "Romania", "lat": 45.9852129, "lng": 24.6859225, "first_published": "2026-07-13T04:58:09.996000+00:00"}
{"url": "https://jobs.lever.co/jobgether/5cbd0236-12eb-45d1-bcfb-e79922d53b58", "company_key": "lever:jobgether", "location": "Italy", "lat": 42.6384261, "lng": 12.674297, "first_published": "2026-07-13T04:59:06.431000+00:00"}
{"url": "https://jobs.lever.co/jobgether/6e622ea0-c144-484b-8846-f1d2029eb264", "company_key": "lever:jobgether", "location": "Ireland", "lat": 52.865196, "lng": -7.9794599, "first_published": "2026-07-13T05:00:24.879000+00:00"}
{"url": "https://jobs.lever.co/jobgether/72c19856-9428-4127-bd7e-36a200adce40", "company_key": "lever:jobgether", "location": "Switzerland", "lat": 46.7985624, "lng": 8.2319736, "first_published": "2026-07-13T05:01:00.913000+00:00"}
{"url": "https://jobs.lever.co/jobgether/94c715e9-948d-4f2f-b03d-4be6a2af5c83", "company_key": "lever:jobgether", "location": "South Africa", "lat": -28.8166236, "lng": 24.991639, "first_published": "2026-07-13T04:58:41.506000+00:00"}
{"url": "https://jobs.lever.co/jobgether/98016809-78bf-4e39-a371-27d223847036", "company_key": "lever:jobgether", "location": "Germany", "lat": 51.1638175, "lng": 10.4478313, "first_published": "2026-07-13T05:01:53.377000+00:00"}
{"url": "https://jobs.lever.co/jobgether/c3130b78-6878-4f65-bec5-e2dbf9b9f4c4", "company_key": "lever:jobgether", "location": "Portugal", "lat": 39.6621648, "lng": -8.1353519, "first_published": "2026-07-13T04:59:33.812000+00:00"}
{"url": "https://jobs.lever.co/jobgether/fd779d38-2fd3-4ba6-b93b-431044020cc9", "company_key": "lever:jobgether", "location": "France", "lat": 46.603354, "lng": 1.8883335, "first_published": "2026-07-13T05:01:26.023000+00:00"}
{"url": "https://jobs.lever.co/jobgether/5beb3375-e245-4fdb-8243-340665cab335", "company_key": "lever:jobgether", "location": "Brazil", "lat": -10.3333333, "lng": -53.2, "first_published": "2026-07-13T05:31:37.733000+00:00"}
{"url": "https://jobs.lever.co/jobgether/f02f2031-ca7a-4990-85b5-da081f67f2b3", "company_key": "lever:jobgether", "location": "US", "lat": 39.7837304, "lng": -100.445882, "first_published": "2026-07-13T06:58:01.538000+00:00"}
{"url": "https://jobs.lever.co/jobgether/c1ca1003-33c3-4dda-bad8-89ee9eb15375", "company_key": "lever:jobgether", "location": "South Africa", "lat": -28.8166236, "lng": 24.991639, "first_published": "2026-07-13T04:30:39.920000+00:00"}
{"url": "https://jobs.lever.co/jobgether/ef7e3896-0bcf-46a2-8364-f70d786332d3", "company_key": "lever:jobgether", "location": "India", "lat": 22.3511148, "lng": 78.6677428, "first_published": "2026-07-13T07:17:40.629000+00:00"}
{"url": "https://jobs.lever.co/jobgether/4a26ffe7-fa57-4a8e-8660-ca2823e30ac3", "company_key": "lever:jobgether", "location": "India", "lat": 22.3511148, "lng": 78.6677428, "first_published": "2026-07-13T04:40:35.549000+00:00"}
{"url": "https://jobs.lever.co/jobgether/0fe989a1-411f-4704-a1c8-cb92dedfa6ca", "company_key": "lever:jobgether", "location": "Germany", "lat": 51.1638175, "lng": 10.4478313, "first_published": "2026-07-13T04:18:28.975000+00:00"}
{"url": "https://jobs.lever.co/jobgether/364a7987-3ce8-4e64-b51b-fa487e91d000", "company_key": "lever:jobgether", "location": "France", "lat": 46.603354, "lng": 1.8883335, "first_published": "2026-07-13T04:48:48.730000+00:00"}
{"url": "https://jobs.lever.co/jobgether/3b05e40f-18b4-4f57-84ca-d533901e16b8", "company_key": "lever:jobgether", "location": "Switzerland", "lat": 46.7985624, "lng": 8.2319736, "first_published": "2026-07-13T04:49:03.008000+00:00"}
{"url": "https://jobs.lever.co/jobgether/7a8f2f82-4541-46cc-a56b-13b34cbfa838", "company_key": "lever:jobgether", "location": "UK", "lat": 54.7023545, "lng": -3.2765753, "first_published": "2026-07-13T04:48:05.987000+00:00"}
{"url": "https://jobs.lever.co/jobgether/7db05006-630f-4f1b-8a3f-2cbb1fc37d79", "company_key": "lever:jobgether", "location": "Spain", "lat": 39.3260685, "lng": -4.8379791, "first_published": "2026-07-13T04:48:23.466000+00:00"}
{"url": "https://jobs.lever.co/jobgether/b8fa1195-a455-4ee8-a7cb-e423d40accc1", "company_key": "lever:jobgether", "location": "Ireland", "lat": 52.865196, "lng": -7.9794599, "first_published": "2026-07-13T04:49:18.442000+00:00"}
{"url": "https://jobs.lever.co/jobgether/fb379d14-0487-406f-ab39-c55dce1fc72f", "company_key": "lever:jobgether", "location": "Netherlands", "lat": 52.2434979, "lng": 5.6343227, "first_published": "2026-07-13T04:49:33.266000+00:00"}
{"url": "https://jobs.lever.co/jobgether/ad1d98fb-7331-4d88-b186-faea2dc5a844", "company_key": "lever:jobgether", "location": "Brazil", "lat": -10.3333333, "lng": -53.2, "first_published": "2026-07-13T05:57:44.577000+00:00"}
{"url": "https://jobs.lever.co/jobgether/fe20e39f-4b3f-4e54-a353-22e34d93b360", "company_key": "lever:jobgether", "location": "Brazil", "lat": -10.3333333, "lng": -53.2, "first_published": "2026-07-13T07:06:03.961000+00:00"}
{"url": "https://jobs.lever.co/jobgether/88a1d1a0-f08f-47cd-91a9-9b738c9759b5", "company_key": "lever:jobgether", "location": "Brazil", "lat": -10.3333333, "lng": -53.2, "first_published": "2026-07-13T07:09:20.637000+00:00"}
{"url": "https://jobs.lever.co/jobgether/556a88cf-a0d1-48f5-9e82-6cccf64a1cf3", "company_key": "lever:jobgether", "location": "Brazil", "lat": -10.3333333, "lng": -53.2, "first_published": "2026-07-13T05:56:04.234000+00:00"}
{"url": "https://jobs.lever.co/jobgether/02fc873f-bfad-48e3-a80e-adcb049b5406", "company_key": "lever:jobgether", "location": "Brazil", "lat": -10.3333333, "lng": -53.2, "first_published": "2026-07-13T05:10:44.485000+00:00"}
{"url": "https://jobs.lever.co/jobgether/cbff2186-9655-4f01-b5ba-f585cf451fb3", "company_key": "lever:jobgether", "location": "Canada", "lat": 61.0666922, "lng": -107.991707, "first_published": "2026-07-13T05:18:44.982000+00:00"}
{"url": "https://jobs.lever.co/jobgether/81d9500e-2a98-4bd1-a846-b6caa5b9284e", "company_key": "lever:jobgether", "location": "US", "lat": 39.7837304, "lng": -100.445882, "first_published": "2026-07-13T05:52:24.727000+00:00"}
{"url": "https://jobs.lever.co/jobgether/5eca3868-bc37-4962-b92c-396b5ba22caf", "company_key": "lever:jobgether", "location": "Brazil", "lat": -10.3333333, "lng": -53.2, "first_published": "2026-07-13T05:44:00.378000+00:00"}
{"url": "https://jobs.lever.co/jobgether/c19e477d-02b1-48a9-988e-c8e63c6aaaae", "company_key": "lever:jobgether", "location": "India", "lat": 22.3511148, "lng": 78.6677428, "first_published": "2026-07-13T06:41:56.523000+00:00"}
{"url": "https://jobs.lever.co/jobgether/101163aa-7767-499a-8599-1ef3b0d5f008", "company_key": "lever:jobgether", "location": "India", "lat": 22.3511148, "lng": 78.6677428, "first_published": "2026-07-13T05:19:36.608000+00:00"}
{"url": "https://jobs.lever.co/jobgether/dc847207-eb77-4cfc-b026-18915a911fed", "company_key": "lever:jobgether", "location": "Brazil", "lat": -10.3333333, "lng": -53.2, "first_published": "2026-07-13T05:46:50.285000+00:00"}
{"url": "https://jobs.lever.co/jobgether/ae84250f-21ee-4fb4-b89c-5855e5933b48", "company_key": "lever:jobgether", "location": "Brazil", "lat": -10.3333333, "lng": -53.2, "first_published": "2026-07-13T05:05:10.678000+00:00"}
{"url": "https://jobs.lever.co/jobgether/3d6357e4-4b84-4922-848a-18d5f2e28d44", "company_key": "lever:jobgether", "location": "US", "lat": 39.7837304, "lng": -100.445882, "first_published": "2026-07-13T07:00:21.947000+00:00"}
{"url": "https://jobs.lever.co/jobgether/1b840316-891a-4851-b7d7-e2ba48c4b416", "company_key": "lever:jobgether", "location": "Germany", "lat": 51.1638175, "lng": 10.4478313, "first_published": "2026-07-13T06:11:38.073000+00:00"}
{"url": "https://jobs.lever.co/jobgether/41eeeaaf-5131-4145-ac26-07cc856f82dd", "company_key": "lever:jobgether", "location": "Netherlands", "lat": 52.2434979, "lng": 5.6343227, "first_published": "2026-07-13T06:09:10.742000+00:00"}
{"url": "https://jobs.lever.co/jobgether/7dd17712-9b95-4e18-a750-d9aa81bebe52", "company_key": "lever:jobgether", "location": "Ireland", "lat": 52.865196, "lng": -7.9794599, "first_published": "2026-07-13T06:09:45.825000+00:00"}
{"url": "https://jobs.lever.co/jobgether/b50f6f3a-8bee-42de-bdaf-9b97c288c9b4", "company_key": "lever:jobgether", "location": "Spain", "lat": 39.3260685, "lng": -4.8379791, "first_published": "2026-07-13T06:12:04.708000+00:00"}
{"url": "https://jobs.lever.co/jobgether/b6dfe32c-01b9-4e5f-a644-3be15f482574", "company_key": "lever:jobgether", "location": "Switzerland", "lat": 46.7985624, "lng": 8.2319736, "first_published": "2026-07-13T06:10:37.607000+00:00"}
{"url": "https://jobs.lever.co/jobgether/b83e5f59-b153-4c76-8755-a4e4f095905a", "company_key": "lever:jobgether", "location": "France", "lat": 46.603354, "lng": 1.8883335, "first_published": "2026-07-13T06:11:11.066000+00:00"}
{"url": "https://jobs.lever.co/jobgether/cf0896a8-7a58-4ba4-a1bc-c0b01f72a4ae", "company_key": "lever:jobgether", "location": "UK", "lat": 54.7023545, "lng": -3.2765753, "first_published": "2026-07-13T06:12:29.967000+00:00"}
{"url": "https://jobs.lever.co/jobgether/fe13f362-03bb-4ce8-bd6a-0e13704df25e", "company_key": "lever:jobgether", "location": "US", "lat": 39.7837304, "lng": -100.445882, "first_published": "2026-07-13T06:55:26.338000+00:00"}
{"url": "https://jobs.lever.co/jobgether/8a08eb2c-34e4-45ec-82af-b660e45913ea", "company_key": "lever:jobgether", "location": "US", "lat": 39.7837304, "lng": -100.445882, "first_published": "2026-07-13T06:24:33.508000+00:00"}
{"url": "https://jobs.lever.co/jobgether/4322ef0c-9905-48ca-8a6c-211590d297fb", "company_key": "lever:jobgether", "location": "US", "lat": 39.7837304, "lng": -100.445882, "first_published": "2026-07-13T06:15:14.205000+00:00"}
{"url": "https://jobs.lever.co/jobgether/045e0497-e31b-4998-98ab-a2b645bbe893", "company_key": "lever:jobgether", "location": "Italy", "lat": 42.6384261, "lng": 12.674297, "first_published": "2026-07-13T04:36:21.530000+00:00"}
{"url": "https://jobs.lever.co/jobgether/07395381-35af-4bc0-8638-fa9b9eefa294", "company_key": "lever:jobgether", "location": "Netherlands", "lat": 52.2434979, "lng": 5.6343227, "first_published": "2026-07-13T04:35:43.803000+00:00"}
{"url": "https://jobs.lever.co/jobgether/1ace7e72-dc5b-46b7-9d56-9b8321472634", "company_key": "lever:jobgether", "location": "Portugal", "lat": 39.6621648, "lng": -8.1353519, "first_published": "2026-07-13T04:35:58.248000+00:00"}
{"url": "https://jobs.lever.co/jobgether/1cfa1655-9be8-46db-8902-674b6b562694", "company_key": "lever:jobgether", "location": "Germany", "lat": 51.1638175, "lng": 10.4478313, "first_published": "2026-07-13T04:03:39.757000+00:00"}
{"url": "https://jobs.lever.co/jobgether/44b5b606-f79e-49e5-bded-88097d1d5607", "company_key": "lever:jobgether", "location": "UK", "lat": 54.7023545, "lng": -3.2765753, "first_published": "2026-07-13T04:34:07.616000+00:00"}
{"url": "https://jobs.lever.co/jobgether/5665839f-11a6-467a-af92-80a106e3da15", "company_key": "lever:jobgether", "location": "Switzerland", "lat": 46.7985624, "lng": 8.2319736, "first_published": "2026-07-13T04:35:01.392000+00:00"}
{"url": "https://jobs.lever.co/jobgether/5af4342d-6439-4a75-8629-86046b6e808f", "company_key": "lever:jobgether", "location": "France", "lat": 46.603354, "lng": 1.8883335, "first_published": "2026-07-13T04:34:45.923000+00:00"}
{"url": "https://jobs.lever.co/jobgether/7750cc2a-f356-4a8e-9c24-c696a7ce94d8", "company_key": "lever:jobgether", "location": "Romania", "lat": 45.9852129, "lng": 24.6859225, "first_published": "2026-07-13T04:36:41.160000+00:00"}
{"url": "https://jobs.lever.co/jobgether/95e08366-523b-4641-b5d8-5f5c9261ec2b", "company_key": "lever:jobgether", "location": "Spain", "lat": 39.3260685, "lng": -4.8379791, "first_published": "2026-07-13T04:34:29.722000+00:00"}
{"url": "https://jobs.lever.co/jobgether/fa81e02d-f229-489b-ab0d-e64187e2c81c", "company_key": "lever:jobgether", "location": "Ireland", "lat": 52.865196, "lng": -7.9794599, "first_published": "2026-07-13T04:35:27.767000+00:00"}
{"url": "https://jobs.lever.co/jobgether/4da6ad32-7f9e-45cc-acce-7d20e3a51310", "company_key": "lever:jobgether", "location": "Brazil", "lat": -10.3333333, "lng": -53.2, "first_published": "2026-07-13T05:51:43.219000+00:00"}
{"url": "https://jobs.lever.co/jobgether/461a63c4-2cf6-4153-87fa-4ff7bed7f139", "company_key": "lever:jobgether", "location": "Brazil", "lat": -10.3333333, "lng": -53.2, "first_published": "2026-07-13T05:37:42.597000+00:00"}
{"url": "https://jobs.lever.co/jobgether/527fd7fb-dd07-4634-9ec2-09700aca8f8e", "company_key": "lever:jobgether", "location": "US", "lat": 39.7837304, "lng": -100.445882, "first_published": "2026-07-13T05:40:34.734000+00:00"}
{"url": "https://jobs.lever.co/jobgether/fa30f82e-acf4-4632-8afa-4f72fac18acb", "company_key": "lever:jobgether", "location": "US", "lat": 39.7837304, "lng": -100.445882, "first_published": "2026-07-13T06:32:48.436000+00:00"}
{"url": "https://jobs.lever.co/jobgether/e9625919-561e-44d6-9d3d-a7c000953653", "company_key": "lever:jobgether", "location": "Brazil", "lat": -10.3333333, "lng": -53.2, "first_published": "2026-07-13T05:35:03.080000+00:00"}
{"url": "https://jobs.lever.co/jobgether/72153fb0-5a34-4dc5-92c8-e1e9941f4e82", "company_key": "lever:jobgether", "location": "US", "lat": 39.7837304, "lng": -100.445882, "first_published": "2026-07-13T06:01:13.576000+00:00"}
{"url": "https://jobs.lever.co/jobgether/bb14ea59-09e6-4b08-8c23-87625f600b93", "company_key": "lever:jobgether", "location": "US", "lat": 39.7837304, "lng": -100.445882, "first_published": "2026-07-13T05:39:16.344000+00:00"}
{"url": "https://jobs.lever.co/jobgether/6a5f0c12-bfde-429f-8e03-816173c2835b", "company_key": "lever:jobgether", "location": "US", "lat": 39.7837304, "lng": -100.445882, "first_published": "2026-07-13T06:36:08.052000+00:00"}
{"url": "https://jobs.lever.co/jobgether/6714a690-c4ef-4ed6-9f31-eca5a498109c", "company_key": "lever:jobgether", "location": "US", "lat": 39.7837304, "lng": -100.445882, "first_published": "2026-07-13T05:56:45.664000+00:00"}
{"url": "https://jobs.lever.co/jobgether/6091eb6b-687c-46c4-8c44-af1facebf2bf", "company_key": "lever:jobgether", "location": "US", "lat": 39.7837304, "lng": -100.445882, "first_published": "2026-07-13T06:42:55.422000+00:00"}
{"url": "https://jobs.lever.co/jobgether/949c5ab0-e596-40e5-b2b1-8344d95fd123", "company_key": "lever:jobgether", "location": "US", "lat": 39.7837304, "lng": -100.445882, "first_published": "2026-07-13T06:49:29.133000+00:00"}
{"url": "https://jobs.lever.co/jobgether/1ae7d765-6262-4458-96e3-411cd42201e2", "company_key": "lever:jobgether", "location": "US", "lat": 39.7837304, "lng": -100.445882, "first_published": "2026-07-13T04:32:28.244000+00:00"}
{"url": "https://jobs.lever.co/jobgether/70472262-70a5-43e4-9136-d051187855ea", "company_key": "lever:jobgether", "location": "Canada", "lat": 61.0666922, "lng": -107.991707, "first_published": "2026-07-13T04:33:43.262000+00:00"}
{"url": "https://jobs.lever.co/jobgether/5c6be568-8c67-4b97-931b-b4d4104c59ba", "company_key": "lever:jobgether", "location": "US", "lat": 39.7837304, "lng": -100.445882, "first_published": "2026-07-13T06:30:43.539000+00:00"}
{"url": "https://jobs.lever.co/jobgether/96aa8c40-1c48-4414-9f96-a871e73bb715", "company_key": "lever:jobgether", "location": "US", "lat": 39.7837304, "lng": -100.445882, "first_published": "2026-07-13T05:51:20.652000+00:00"}
{"url": "https://jobs.lever.co/jobgether/23678e8f-0dd1-4dda-b201-006daafd3885", "company_key": "lever:jobgether", "location": "India", "lat": 22.3511148, "lng": 78.6677428, "first_published": "2026-07-13T06:57:27.971000+00:00"}
{"url": "https://jobs.lever.co/jobgether/b033dac1-b17f-495e-9e3d-5cbaaf189518", "company_key": "lever:jobgether", "location": "US", "lat": 39.7837304, "lng": -100.445882, "first_published": "2026-07-13T06:40:42.049000+00:00"}
{"url": "https://jobs.lever.co/jobgether/45f48852-94cf-4bfa-88d7-15d183c52cf8", "company_key": "lever:jobgether", "location": "India", "lat": 22.3511148, "lng": 78.6677428, "first_published": "2026-07-13T06:49:23.264000+00:00"}
{"url": "https://jobs.lever.co/jobgether/c53fe003-4b34-4e96-9d78-7e6478ed8c1c", "company_key": "lever:jobgether", "location": "US", "lat": 39.7837304, "lng": -100.445882, "first_published": "2026-07-13T06:50:30.602000+00:00"}
{"url": "https://jobs.lever.co/jobgether/b1767dd6-8839-4465-8dec-992b87233b40", "company_key": "lever:jobgether", "location": "US", "lat": 39.7837304, "lng": -100.445882, "first_published": "2026-07-13T06:08:20.836000+00:00"}
{"url": "https://jobs.lever.co/jobgether/dacfb088-e840-4947-ba32-676209052e0d", "company_key": "lever:jobgether", "location": "Brazil", "lat": -10.3333333, "lng": -53.2, "first_published": "2026-07-13T05:33:23.112000+00:00"}
{"url": "https://jobs.lever.co/jobgether/0e247c0f-cc77-49ca-8c5b-2fcecd013e7d", "company_key": "lever:jobgether", "location": "Germany", "lat": 51.1638175, "lng": 10.4478313, "first_published": "2026-07-13T04:24:02.672000+00:00"}
{"url": "https://jobs.lever.co/jobgether/37e7751e-40c6-44ba-833e-b9ad05f2f8a5", "company_key": "lever:jobgether", "location": "UK", "lat": 54.7023545, "lng": -3.2765753, "first_published": "2026-07-13T04:50:03.557000+00:00"}
{"url": "https://jobs.lever.co/jobgether/73c7477b-e757-4b47-a9a3-2fc1c3ca52d9", "company_key": "lever:jobgether", "location": "Spain", "lat": 39.3260685, "lng": -4.8379791, "first_published": "2026-07-13T04:50:21.578000+00:00"}
{"url": "https://jobs.lever.co/jobgether/8b1c0207-3ba0-47f2-97f9-8f99f81b8f79", "company_key": "lever:jobgether", "location": "Switzerland", "lat": 46.7985624, "lng": 8.2319736, "first_published": "2026-07-13T04:50:53.051000+00:00"}
{"url": "https://jobs.lever.co/jobgether/8db69324-afab-45a0-bbd6-c41c088faf87", "company_key": "lever:jobgether", "location": "Netherlands", "lat": 52.2434979, "lng": 5.6343227, "first_published": "2026-07-13T04:51:44.379000+00:00"}
{"url": "https://jobs.lever.co/jobgether/d37d73e1-b9cc-459b-a16f-9f2bfd4a20ef", "company_key": "lever:jobgether", "location": "Ireland", "lat": 52.865196, "lng": -7.9794599, "first_published": "2026-07-13T04:51:09.996000+00:00"}
{"url": "https://jobs.lever.co/jobgether/e1e85aae-4430-4aea-8a6d-95cb310f5d48", "company_key": "lever:jobgether", "location": "France", "lat": 46.603354, "lng": 1.8883335, "first_published": "2026-07-13T04:50:36.850000+00:00"}
{"url": "https://jobs.lever.co/jobgether/8ec46bc7-3ca1-4988-bb8a-cdf04bd9d73c", "company_key": "lever:jobgether", "location": "India", "lat": 22.3511148, "lng": 78.6677428, "first_published": "2026-07-13T04:44:45.699000+00:00"}
{"url": "https://jobs.lever.co/jobgether/409f4e8d-9121-4d0b-b8e5-b18fa2ef507a", "company_key": "lever:jobgether", "location": "India", "lat": 22.3511148, "lng": 78.6677428, "first_published": "2026-07-13T06:43:27.482000+00:00"}
{"url": "https://jobs.lever.co/jobgether/ed5b814c-3f83-427d-9f6b-c5761d89852d", "company_key": "lever:jobgether", "location": "US", "lat": 39.7837304, "lng": -100.445882, "first_published": "2026-07-13T07:01:33.153000+00:00"}
{"url": "https://jobs.lever.co/jobgether/f0a0b5bb-8413-4fc9-9e7d-087d02d43de8", "company_key": "lever:jobgether", "location": "India", "lat": 22.3511148, "lng": 78.6677428, "first_published": "2026-07-13T07:01:12.246000+00:00"}
{"url": "https://jobs.lever.co/jobgether/84c65768-1a76-4a44-b331-8e3e292d1884", "company_key": "lever:jobgether", "location": "India", "lat": 22.3511148, "lng": 78.6677428, "first_published": "2026-07-13T07:04:43.512000+00:00"}
{"url": "https://jobs.lever.co/jobgether/11070bde-3b05-4b22-baf9-3816500eeb53", "company_key": "lever:jobgether", "location": "US", "lat": 39.7837304, "lng": -100.445882, "first_published": "2026-07-13T04:12:37.991000+00:00"}
{"url": "https://jobs.lever.co/jobgether/28b6c0b7-f715-428d-afbc-ee5a82e30f71", "company_key": "lever:jobgether", "location": "UK", "lat": 54.7023545, "lng": -3.2765753, "first_published": "2026-07-13T04:44:42.144000+00:00"}
{"url": "https://jobs.lever.co/jobgether/29e55461-616b-4741-a717-d50075f91a14", "company_key": "lever:jobgether", "location": "Netherlands", "lat": 52.2434979, "lng": 5.6343227, "first_published": "2026-07-13T04:45:56.657000+00:00"}
{"url": "https://jobs.lever.co/jobgether/3a28ee80-1f5b-410b-91e3-8840136a0c45", "company_key": "lever:jobgether", "location": "Ireland", "lat": 52.865196, "lng": -7.9794599, "first_published": "2026-07-13T04:45:40.464000+00:00"}
{"url": "https://jobs.lever.co/jobgether/73dee29e-e0cc-4430-8561-0d78c74bc058", "company_key": "lever:jobgether", "location": "Germany", "lat": 51.1638175, "lng": 10.4478313, "first_published": "2026-07-13T04:11:48.648000+00:00"}
{"url": "https://jobs.lever.co/jobgether/7a65ffb9-cdfe-4522-906a-bc064bf99fc1", "company_key": "lever:jobgether", "location": "Switzerland", "lat": 46.7985624, "lng": 8.2319736, "first_published": "2026-07-13T04:45:26.352000+00:00"}
{"url": "https://jobs.lever.co/jobgether/89e253fd-9779-4214-9b21-83695a04089a", "company_key": "lever:jobgether", "location": "France", "lat": 46.603354, "lng": 1.8883335, "first_published": "2026-07-13T04:45:11.402000+00:00"}
{"url": "https://jobs.lever.co/jobgether/953904f0-5ee1-4759-81b0-f9e567a13ef8", "company_key": "lever:jobgether", "location": "Spain", "lat": 39.3260685, "lng": -4.8379791, "first_published": "2026-07-13T04:44:56.180000+00:00"}
{"url": "https://jobs.lever.co/jobgether/d330301f-92ea-49cc-9e02-db8e199ead20", "company_key": "lever:jobgether", "location": "Canada", "lat": 61.0666922, "lng": -107.991707, "first_published": "2026-07-13T04:12:13.894000+00:00"}
{"url": "https://jobs.lever.co/jobgether/032b10d0-1c6f-4ebf-99bf-2df5eee1501a", "company_key": "lever:jobgether", "location": "US", "lat": 39.7837304, "lng": -100.445882, "first_published": "2026-07-13T06:26:49.242000+00:00"}
{"url": "https://jobs.lever.co/jobgether/094e6383-d43a-41f3-970c-25cd1874b6e1", "company_key": "lever:jobgether", "location": "Mexico", "lat": 23.6585116, "lng": -102.0077097, "first_published": "2026-07-13T04:28:30.557000+00:00"}
{"url": "https://jobs.lever.co/jobgether/4421d644-355f-4829-9e57-eba59d216f40", "company_key": "lever:jobgether", "location": "Brazil", "lat": -10.3333333, "lng": -53.2, "first_published": "2026-07-13T05:13:14.560000+00:00"}
{"url": "https://jobs.lever.co/jobgether/879fe543-0087-430d-9b68-c0223aa235de", "company_key": "lever:jobgether", "location": "Canada", "lat": 61.0666922, "lng": -107.991707, "first_published": "2026-07-13T05:17:30.084000+00:00"}
{"url": "https://jobs.lever.co/jobgether/a95a8aea-0a04-4f58-9ea7-283bc5b160bf", "company_key": "lever:jobgether", "location": "US", "lat": 39.7837304, "lng": -100.445882, "first_published": "2026-07-13T05:17:53.326000+00:00"}
{"url": "https://jobs.lever.co/jobgether/0dfa3297-6591-40d1-946a-b257f559a64d", "company_key": "lever:jobgether", "location": "Switzerland", "lat": 46.7985624, "lng": 8.2319736, "first_published": "2026-07-13T06:43:40.488000+00:00"}
{"url": "https://jobs.lever.co/jobgether/1c6d0fe8-2bf2-4197-ae7f-52e2d2e321d8", "company_key": "lever:jobgether", "location": "Netherlands", "lat": 52.2434979, "lng": 5.6343227, "first_published": "2026-07-13T06:42:40.196000+00:00"}
{"url": "https://jobs.lever.co/jobgether/9f381f30-5261-45bf-bd67-2055af1e3bca", "company_key": "lever:jobgether", "location": "France", "lat": 46.603354, "lng": 1.8883335, "first_published": "2026-07-13T06:44:03.658000+00:00"}
{"url": "https://jobs.lever.co/jobgether/bc88d7b8-1f52-47bd-833d-a4e2e6ab710d", "company_key": "lever:jobgether", "location": "Spain", "lat": 39.3260685, "lng": -4.8379791, "first_published": "2026-07-13T06:44:58.603000+00:00"}
{"url": "https://jobs.lever.co/jobgether/d08cd424-97a0-4daa-87f9-209841a1b6bd", "company_key": "lever:jobgether", "location": "Germany", "lat": 51.1638175, "lng": 10.4478313, "first_published": "2026-07-13T06:44:35.169000+00:00"}
{"url": "https://jobs.lever.co/jobgether/e93a284a-a598-4429-829a-873ab4de7770", "company_key": "lever:jobgether", "location": "Ireland", "lat": 52.865196, "lng": -7.9794599, "first_published": "2026-07-13T06:43:14.204000+00:00"}
{"url": "https://jobs.lever.co/jobgether/f4ed74e9-2f92-424f-ac90-be9b2994a188", "company_key": "lever:jobgether", "location": "UK", "lat": 54.7023545, "lng": -3.2765753, "first_published": "2026-07-13T06:45:27.753000+00:00"}
{"url": "https://jobs.lever.co/jobgether/0f82baf6-d341-4a97-9d05-09c503d08ad4", "company_key": "lever:jobgether", "location": "India", "lat": 22.3511148, "lng": 78.6677428, "first_published": "2026-07-13T06:35:04.006000+00:00"}
{"url": "https://jobs.lever.co/jobgether/8e4ce75d-ef15-44d7-8f3b-9f8d4cbedb70", "company_key": "lever:jobgether", "location": "US", "lat": 39.7837304, "lng": -100.445882, "first_published": "2026-07-13T07:01:28.687000+00:00"}
{"url": "https://jobs.lever.co/jobgether/978a72a8-6c3d-4764-9f98-cb7464d69489", "company_key": "lever:jobgether", "location": "US", "lat": 39.7837304, "lng": -100.445882, "first_published": "2026-07-13T06:25:41.073000+00:00"}
{"url": "https://jobs.lever.co/jobgether/c87ebe78-79ba-4b5d-8313-bd231a630878", "company_key": "lever:jobgether", "location": "India", "lat": 22.3511148, "lng": 78.6677428, "first_published": "2026-07-13T07:12:24.689000+00:00"}
{"url": "https://jobs.lever.co/jobgether/353c08bb-0b6d-4583-a08a-39f92fb21795", "company_key": "lever:jobgether", "location": "India", "lat": 22.3511148, "lng": 78.6677428, "first_published": "2026-07-13T06:00:13.059000+00:00"}
{"url": "https://jobs.lever.co/jobgether/91c85dea-8f47-49f4-8184-63bc2d4c4c14", "company_key": "lever:jobgether", "location": "India", "lat": 22.3511148, "lng": 78.6677428, "first_published": "2026-07-13T07:01:50.330000+00:00"}
{"url": "https://jobs.lever.co/jobgether/ab4b9118-8a00-4f63-813f-83c9761656ad", "company_key": "lever:jobgether", "location": "India", "lat": 22.3511148, "lng": 78.6677428, "first_published": "2026-07-13T06:57:04.196000+00:00"}
{"url": "https://jobs.lever.co/jobgether/8b9676c2-516a-498a-8ec8-eb2adb854d15", "company_key": "lever:jobgether", "location": "India", "lat": 22.3511148, "lng": 78.6677428, "first_published": "2026-07-13T06:55:11.338000+00:00"}
{"url": "https://jobs.lever.co/jobgether/7c46ee03-e877-45a0-b218-6def86d87fe0", "company_key": "lever:jobgether", "location": "US", "lat": 39.7837304, "lng": -100.445882, "first_published": "2026-07-13T06:21:02.192000+00:00"}
{"url": "https://jobs.lever.co/jobgether/7a08bff2-4c4c-407c-b492-45f5f8a5d9a1", "company_key": "lever:jobgether", "location": "Canada", "lat": 61.0666922, "lng": -107.991707, "first_published": "2026-07-13T06:16:53.098000+00:00"}
{"url": "https://jobs.lever.co/jobgether/a3976d70-42ef-4206-974e-3b2266d50455", "company_key": "lever:jobgether", "location": "US", "lat": 39.7837304, "lng": -100.445882, "first_published": "2026-07-13T06:16:26.949000+00:00"}
{"url": "https://jobs.lever.co/jobgether/06ac99cf-9039-4b22-9d0e-75ad9e261e1f", "company_key": "lever:jobgether", "location": "US", "lat": 39.7837304, "lng": -100.445882, "first_published": "2026-07-13T06:23:22.946000+00:00"}
{"url": "https://jobs.lever.co/jobgether/cb11d85c-f291-4868-8a05-f430f829c57d", "company_key": "lever:jobgether", "location": "US", "lat": 39.7837304, "lng": -100.445882, "first_published": "2026-07-13T05:48:52.199000+00:00"}
{"url": "https://jobs.lever.co/jobgether/747c9ec6-2c1b-4284-93b3-6466ac1c7af7", "company_key": "lever:jobgether", "location": "India", "lat": 22.3511148, "lng": 78.6677428, "first_published": "2026-07-13T06:33:24.729000+00:00"}
{"url": "https://jobs.lever.co/jobgether/c4d8e7d7-9f68-4093-9bad-b3ea9fe54ff6", "company_key": "lever:jobgether", "location": "India", "lat": 22.3511148, "lng": 78.6677428, "first_published": "2026-07-13T06:38:05.870000+00:00"}
{"url": "https://jobs.lever.co/jobgether/d4605ad9-a028-464a-8e2e-91611ad75300", "company_key": "lever:jobgether", "location": "US", "lat": 39.7837304, "lng": -100.445882, "first_published": "2026-07-13T06:18:25.869000+00:00"}
{"url": "https://jobs.lever.co/jobgether/956ef05a-6579-4bf1-83d5-6cd542771c74", "company_key": "lever:jobgether", "location": "India", "lat": 22.3511148, "lng": 78.6677428, "first_published": "2026-07-13T06:51:35.605000+00:00"}
{"url": "https://jobs.lever.co/jobgether/314b91c1-e4c3-482a-bf01-e84b4c0e7ac3", "company_key": "lever:jobgether", "location": "US", "lat": 39.7837304, "lng": -100.445882, "first_published": "2026-07-13T06:48:27.233000+00:00"}
{"url": "https://jobs.lever.co/jobgether/8b25c168-6ddd-46c5-9cc3-8122f7f1b4ea", "company_key": "lever:jobgether", "location": "US", "lat": 39.7837304, "lng": -100.445882, "first_published": "2026-07-13T07:14:24.281000+00:00"}
{"url": "https://jobs.lever.co/jobgether/b48a1f7e-ad6c-45f9-840f-b234e18b5005", "company_key": "lever:jobgether", "location": "India", "lat": 22.3511148, "lng": 78.6677428, "first_published": "2026-07-13T07:13:53.426000+00:00"}
{"url": "https://jobs.lever.co/jobgether/a6818c6b-435a-4590-98e2-24c13de904c6", "company_key": "lever:jobgether", "location": "India", "lat": 22.3511148, "lng": 78.6677428, "first_published": "2026-07-13T06:51:14.753000+00:00"}
{"url": "https://jobs.lever.co/jobgether/e9f0dce0-fcd2-4c7f-8346-7330d9c349d7", "company_key": "lever:jobgether", "location": "US", "lat": 39.7837304, "lng": -100.445882, "first_published": "2026-07-13T06:22:12.534000+00:00"}
{"url": "https://jobs.lever.co/jobgether/14c9ed12-2cbc-45e1-b75e-db7e8d9930b4", "company_key": "lever:jobgether", "location": "US", "lat": 39.7837304, "lng": -100.445882, "first_published": "2026-07-13T06:47:18.553000+00:00"}
{"url": "https://jobs.lever.co/jobgether/54f27efb-e333-444c-ace4-4154a7adbc59", "company_key": "lever:jobgether", "location": "US", "lat": 39.7837304, "lng": -100.445882, "first_published": "2026-07-13T06:07:16.624000+00:00"}
{"url": "https://jobs.lever.co/jobgether/f7eb86ff-cd57-4089-b761-c2a3dbd2743b", "company_key": "lever:jobgether", "location": "US", "lat": 39.7837304, "lng": -100.445882, "first_published": "2026-07-13T05:55:34.832000+00:00"}
{"url": "https://jobs.lever.co/jobgether/29c4a9de-cd38-4750-a0e5-9ca0a6ca0dd0", "company_key": "lever:jobgether", "location": "India", "lat": 22.3511148, "lng": 78.6677428, "first_published": "2026-07-13T06:05:12.933000+00:00"}
{"url": "https://jobs.lever.co/jobgether/12665105-2590-4770-8e15-1037d92fd3ba", "company_key": "lever:jobgether", "location": "US", "lat": 39.7837304, "lng": -100.445882, "first_published": "2026-07-13T06:10:53.656000+00:00"}
{"url": "https://jobs.lever.co/jobgether/290b2d95-962d-442f-a417-d5f5af9a8d19", "company_key": "lever:jobgether", "location": "US", "lat": 39.7837304, "lng": -100.445882, "first_published": "2026-07-13T06:34:02.245000+00:00"}
{"url": "https://jobs.lever.co/jobgether/4392a238-f685-4642-8f05-6e27a93107e6", "company_key": "lever:jobgether", "location": "Brazil", "lat": -10.3333333, "lng": -53.2, "first_published": "2026-07-13T05:48:41.352000+00:00"}
{"url": "https://jobs.lever.co/jobgether/508fd265-358d-424f-b623-27ab3fccbc29", "company_key": "lever:jobgether", "location": "US", "lat": 39.7837304, "lng": -100.445882, "first_published": "2026-07-13T06:35:05.156000+00:00"}
{"url": "https://jobs.lever.co/jobgether/1760faf8-2032-4153-bc1e-07a56e354dcc", "company_key": "lever:jobgether", "location": "India", "lat": 22.3511148, "lng": 78.6677428, "first_published": "2026-07-13T07:03:51.087000+00:00"}
{"url": "https://jobs.lever.co/jobgether/1281af34-e40a-4026-bb63-a6a31c0296a8", "company_key": "lever:jobgether", "location": "Canada", "lat": 61.0666922, "lng": -107.991707, "first_published": "2026-07-13T05:20:44.299000+00:00"}
{"url": "https://jobs.lever.co/jobgether/34c1992b-315d-4b6c-ab8d-7c731d87ebf5", "company_key": "lever:jobgether", "location": "Brazil", "lat": -10.3333333, "lng": -53.2, "first_published": "2026-07-13T05:07:01.234000+00:00"}
{"url": "https://jobs.lever.co/jobgether/19418111-8d05-4e73-881e-5f663ba39cfb", "company_key": "lever:jobgether", "location": "India", "lat": 22.3511148, "lng": 78.6677428, "first_published": "2026-07-13T06:46:53.151000+00:00"}
{"url": "https://jobs.lever.co/jobgether/65ce198d-11c6-4289-9d0a-921f9cf84aef", "company_key": "lever:jobgether", "location": "US", "lat": 39.7837304, "lng": -100.445882, "first_published": "2026-07-13T05:58:56.014000+00:00"}
{"url": "https://jobs.lever.co/jobgether/894ac1b1-f6a5-42b4-8d98-15054502002d", "company_key": "lever:jobgether", "location": "US", "lat": 39.7837304, "lng": -100.445882, "first_published": "2026-07-13T06:28:11.443000+00:00"}
{"url": "https://jobs.lever.co/jobgether/21538375-b7ee-440f-bfed-7dcad00d91fd", "company_key": "lever:jobgether", "location": "US", "lat": 39.7837304, "lng": -100.445882, "first_published": "2026-07-13T06:54:07.988000+00:00"}
{"url": "https://jobs.lever.co/jobgether/89b19b09-1d1b-4ab7-9288-053833359d25", "company_key": "lever:jobgether", "location": "India", "lat": 22.3511148, "lng": 78.6677428, "first_published": "2026-07-13T07:16:18.275000+00:00"}
{"url": "https://jobs.lever.co/jobgether/5c0297a8-1483-4400-a4ab-d10d33afefe5", "company_key": "lever:jobgether", "location": "US", "lat": 39.7837304, "lng": -100.445882, "first_published": "2026-07-13T05:29:26.574000+00:00"}
{"url": "https://jobs.lever.co/jobgether/683b951d-bd4f-4451-9fae-689598f7644f", "company_key": "lever:jobgether", "location": "US", "lat": 39.7837304, "lng": -100.445882, "first_published": "2026-07-13T06:56:53.134000+00:00"}
{"url": "https://jobs.lever.co/jobgether/b869ff02-44e1-41ee-9c18-7d08f9cbee70", "company_key": "lever:jobgether", "location": "US", "lat": 39.7837304, "lng": -100.445882, "first_published": "2026-07-13T06:14:07.735000+00:00"}
{"url": "https://jobs.lever.co/jobgether/be1a644b-2548-44b3-ad07-88033eac457f", "company_key": "lever:jobgether", "location": "Brazil", "lat": -10.3333333, "lng": -53.2, "first_published": "2026-07-13T05:53:43.646000+00:00"}
{"url": "https://jobs.lever.co/jobgether/8202eabb-dd52-436c-b894-8e6e4b456cce", "company_key": "lever:jobgether", "location": "India", "lat": 22.3511148, "lng": 78.6677428, "first_published": "2026-07-13T06:48:47.545000+00:00"}
{"url": "https://jobs.lever.co/jobgether/98461f9a-ea89-4706-889b-2c4162fdeb2b", "company_key": "lever:jobgether", "location": "India", "lat": 22.3511148, "lng": 78.6677428, "first_published": "2026-07-13T07:06:19.195000+00:00"}
{"url": "https://jobs.lever.co/jobgether/d1219b62-950b-4041-bf0e-c78fbc631866", "company_key": "lever:jobgether", "location": "Brazil", "lat": -10.3333333, "lng": -53.2, "first_published": "2026-07-13T05:39:02.150000+00:00"}
{"url": "https://jobs.lever.co/jobgether/7c58a901-958f-468b-89a1-5089589eee69", "company_key": "lever:jobgether", "location": "US", "lat": 39.7837304, "lng": -100.445882, "first_published": "2026-07-13T05:27:25.891000+00:00"}
{"url": "https://jobs.lever.co/jobgether/4f925ddc-ac8e-4396-953a-abf6ce01eda0", "company_key": "lever:jobgether", "location": "India", "lat": 22.3511148, "lng": 78.6677428, "first_published": "2026-07-13T06:59:58.792000+00:00"}
{"url": "https://jobs.lever.co/jobgether/6bc75a6d-404c-495d-9a30-4aeeec7ad50c", "company_key": "lever:jobgether", "location": "US", "lat": 39.7837304, "lng": -100.445882, "first_published": "2026-07-13T05:57:47.960000+00:00"}
{"url": "https://jobs.lever.co/jobgether/0eb4ae49-042d-48a1-8f8a-1ee7fe4297ca", "company_key": "lever:jobgether", "location": "Brazil", "lat": -10.3333333, "lng": -53.2, "first_published": "2026-07-13T05:45:32.495000+00:00"}
{"url": "https://jobs.lever.co/jobgether/3f81f478-90e6-47ba-aa56-276bc6f4cc0e", "company_key": "lever:jobgether", "location": "US", "lat": 39.7837304, "lng": -100.445882, "first_published": "2026-07-13T05:22:51.015000+00:00"}
{"url": "https://jobs.lever.co/jobgether/4c524de4-68a5-4cec-961b-cd34bbb88d69", "company_key": "lever:jobgether", "location": "Canada", "lat": 61.0666922, "lng": -107.991707, "first_published": "2026-07-13T05:23:08.256000+00:00"}
{"url": "https://jobs.lever.co/jobgether/7a4a2c00-1db0-44b7-bb42-c7e0c229b9bc", "company_key": "lever:jobgether", "location": "Brazil", "lat": -10.3333333, "lng": -53.2, "first_published": "2026-07-13T05:22:24.756000+00:00"}
{"url": "https://jobs.lever.co/jobgether/59d96024-231a-4509-8ec0-3e05cb094396", "company_key": "lever:jobgether", "location": "India", "lat": 22.3511148, "lng": 78.6677428, "first_published": "2026-07-13T06:53:07.987000+00:00"}
{"url": "https://jobs.lever.co/jobgether/09cc4dd0-457a-4726-a40c-5082d5fae94b", "company_key": "lever:jobgether", "location": "India", "lat": 22.3511148, "lng": 78.6677428, "first_published": "2026-07-13T05:17:38.271000+00:00"}
{"url": "https://jobs.lever.co/jobgether/0c01a2c9-eff3-44f6-947e-f64d70d7c7e1", "company_key": "lever:jobgether", "location": "US", "lat": 39.7837304, "lng": -100.445882, "first_published": "2026-07-13T06:43:55.781000+00:00"}
{"url": "https://jobs.lever.co/jobgether/b2b5b399-7914-448c-8ec0-9b819bdfabec", "company_key": "lever:jobgether", "location": "US", "lat": 39.7837304, "lng": -100.445882, "first_published": "2026-07-13T06:53:05.264000+00:00"}
{"url": "https://jobs.lever.co/jobgether/6988caf6-ed40-4b8c-a935-bff4830f4560", "company_key": "lever:jobgether", "location": "US", "lat": 39.7837304, "lng": -100.445882, "first_published": "2026-07-13T06:02:27.273000+00:00"}
{"url": "https://jobs.lever.co/jobgether/690ea8ff-457b-4807-a0c8-b8fefbde0059", "company_key": "lever:jobgether", "location": "India", "lat": 22.3511148, "lng": 78.6677428, "first_published": "2026-07-13T04:50:37.405000+00:00"}
{"url": "https://jobs.lever.co/jobgether/15c0e784-3407-48c1-babe-341d3af0dbb8", "company_key": "lever:jobgether", "location": "US", "lat": 39.7837304, "lng": -100.445882, "first_published": "2026-07-13T05:53:24.049000+00:00"}
{"url": "https://jobs.lever.co/jobgether/e0b447dd-437c-41f0-9077-21aa3550a1be", "company_key": "lever:jobgether", "location": "India", "lat": 22.3511148, "lng": 78.6677428, "first_published": "2026-07-13T05:12:40.137000+00:00"}
{"url": "https://jobs.lever.co/jobgether/a31f104a-bae9-4a79-884c-5063beb8a881", "company_key": "lever:jobgether", "location": "US", "lat": 39.7837304, "lng": -100.445882, "first_published": "2026-07-13T05:54:34.726000+00:00"}
{"url": "https://jobs.lever.co/jobgether/e40c73d4-8c42-4b76-8dae-810a9e24120c", "company_key": "lever:jobgether", "location": "US", "lat": 39.7837304, "lng": -100.445882, "first_published": "2026-07-13T06:09:33.359000+00:00"}
{"url": "https://jobs.lever.co/jobgether/d8446fc0-a7b8-4225-adea-bc8a18dd5707", "company_key": "lever:jobgether", "location": "US", "lat": 39.7837304, "lng": -100.445882, "first_published": "2026-07-13T06:19:47.789000+00:00"}
{"url": "https://jobs.lever.co/jobgether/626ddeb6-9da5-4272-96cf-1b47742d3ac4", "company_key": "lever:jobgether", "location": "India", "lat": 22.3511148, "lng": 78.6677428, "first_published": "2026-07-13T06:28:47.815000+00:00"}
{"url": "https://jobs.lever.co/jobgether/bd7ff834-ab82-4775-af60-3782001c912a", "company_key": "lever:jobgether", "location": "US", "lat": 39.7837304, "lng": -100.445882, "first_published": "2026-07-13T06:44:56.650000+00:00"}
{"url": "https://jobs.lever.co/jobgether/c2ccdfa4-5ff2-4f16-a04c-7a3f8ba991c5", "company_key": "lever:jobgether", "location": "US", "lat": 39.7837304, "lng": -100.445882, "first_published": "2026-07-13T06:38:33.968000+00:00"}
{"url": "https://jobs.lever.co/jobgether/5e13f391-e762-4528-ace3-83d8b995979b", "company_key": "lever:jobgether", "location": "US", "lat": 39.7837304, "lng": -100.445882, "first_published": "2026-07-13T06:46:05.751000+00:00"}
{"url": "https://jobs.lever.co/jobgether/105c3a8e-3b6e-401e-8674-fc6f75ec309a", "company_key": "lever:jobgether", "location": "Ireland", "lat": 52.865196, "lng": -7.9794599, "first_published": "2026-07-13T05:49:06.172000+00:00"}
{"url": "https://jobs.lever.co/jobgether/16f4a88b-99a9-4c72-a9f3-7646449661a4", "company_key": "lever:jobgether", "location": "Spain", "lat": 39.3260685, "lng": -4.8379791, "first_published": "2026-07-13T05:50:49.341000+00:00"}
{"url": "https://jobs.lever.co/jobgether/4d3ddaea-e479-468f-9327-9ef8703cf4eb", "company_key": "lever:jobgether", "location": "Romania", "lat": 45.9852129, "lng": 24.6859225, "first_published": "2026-07-13T05:45:50.749000+00:00"}
{"url": "https://jobs.lever.co/jobgether/520ee136-ef85-4dc2-9489-4ce3307dde16", "company_key": "lever:jobgether", "location": "UK", "lat": 54.7023545, "lng": -3.2765753, "first_published": "2026-07-13T05:51:19.171000+00:00"}
{"url": "https://jobs.lever.co/jobgether/5a4a01aa-87cb-4e58-b8d6-cedb50c25a61", "company_key": "lever:jobgether", "location": "Germany", "lat": 51.1638175, "lng": 10.4478313, "first_published": "2026-07-13T05:50:23.905000+00:00"}
{"url": "https://jobs.lever.co/jobgether/70f4ff43-aecc-4f02-8634-cf80862d8fab", "company_key": "lever:jobgether", "location": "France", "lat": 46.603354, "lng": 1.8883335, "first_published": "2026-07-13T05:50:00.522000+00:00"}
{"url": "https://jobs.lever.co/jobgether/9471606f-36a8-447c-9567-36ab7e41c038", "company_key": "lever:jobgether", "location": "Switzerland", "lat": 46.7985624, "lng": 8.2319736, "first_published": "2026-07-13T05:49:32.253000+00:00"}
{"url": "https://jobs.lever.co/jobgether/a75bdf8d-04bc-4864-a095-2d14b3a820d3", "company_key": "lever:jobgether", "location": "Netherlands", "lat": 52.2434979, "lng": 5.6343227, "first_published": "2026-07-13T05:48:34.711000+00:00"}
