{"url": "https://www.zipline.com/open-roles?gh_jid=7802156003", "company_key": "greenhouse:flyzipline", "location": "South San Francisco, California, USA", "lat": 37.6535403, "lng": -122.4168664, "first_published": "2026-07-11T13:51:59-04:00"}
{"url": "https://databricks.com/company/careers/open-positions/job?gh_jid=8437012002", "company_key": "greenhouse:databricks", "location": "Japan", "lat": 36.5748441, "lng": 139.2394179, "first_published": "2026-07-11T09:00:01-04:00"}
{"url": "https://databricks.com/company/careers/open-positions/job?gh_jid=8437030002", "company_key": "greenhouse:databricks", "location": "Japan", "lat": 36.5748441, "lng": 139.2394179, "first_published": "2026-07-11T08:57:06-04:00"}
{"url": "https://job-boards.greenhouse.io/natera/jobs/6105415004", "company_key": "greenhouse:natera", "location": "Greensboro, NC", "lat": null, "lng": null, "first_published": "2026-07-11T14:02:58-04:00"}
{"url": "https://job-boards.greenhouse.io/billiontoone/jobs/4714147005", "company_key": "greenhouse:billiontoone", "location": "Menlo Park, CA", "lat": 37.4519671, "lng": -122.177992, "first_published": "2026-07-11T13:13:43-04:00"}
{"url": "https://boards.greenhouse.io/spacex/jobs/8629373002?gh_jid=8629373002", "company_key": "greenhouse:spacex", "location": "Bastrop, TX", "lat": 30.0541116, "lng": -97.3887764, "first_published": "2026-07-11T13:05:20-04:00"}
{"url": "https://job-boards.greenhouse.io/tecovas/jobs/8623453002", "company_key": "greenhouse:tecovas", "location": "Baton Rouge, LA", "lat": 30.4494155, "lng": -91.1869659, "first_published": "2026-07-11T11:05:55-04:00"}
{"url": "https://www.coupang.jobs/en/jobs/?gh_jid=8044887", "company_key": "greenhouse:coupang", "location": "Seoul, South Korea", "lat": 37.5666791, "lng": 126.9782914, "first_published": "2026-07-11T07:42:00-04:00"}
{"url": "https://www.datavant.com/about/careers/open-roles/job?gh_jid=5290269008", "company_key": "greenhouse:datavant2", "location": "Alabama, Mississippi", "lat": null, "lng": null, "first_published": "2026-07-11T09:56:25-04:00"}
{"url": "https://www.zipline.com/open-roles?gh_jid=7802145003", "company_key": "greenhouse:flyzipline", "location": "South San Francisco, California, USA", "lat": 37.6535403, "lng": -122.4168664, "first_published": "2026-07-11T13:07:19-04:00"}
{"url": "https://www.zipline.com/open-roles?gh_jid=7802144003", "company_key": "greenhouse:flyzipline", "location": "South San Francisco, California, USA", "lat": 37.6535403, "lng": -122.4168664, "first_published": "2026-07-11T13:07:29-04:00"}
{"url": "https://www.zipline.com/open-roles?gh_jid=7802147003", "company_key": "greenhouse:flyzipline", "location": "South San Francisco, California, USA", "lat": 37.6535403, "lng": -122.4168664, "first_published": "2026-07-11T13:06:20-04:00"}
{"url": "https://www.zipline.com/open-roles?gh_jid=7802148003", "company_key": "greenhouse:flyzipline", "location": "South San Francisco, California, USA", "lat": 37.6535403, "lng": -122.4168664, "first_published": "2026-07-11T13:05:52-04:00"}
{"url": "https://www.zipline.com/open-roles?gh_jid=7802153003", "company_key": "greenhouse:flyzipline", "location": "South San Francisco, California, USA", "lat": 37.6535403, "lng": -122.4168664, "first_published": "2026-07-11T13:05:01-04:00"}
{"url": "https://www.zipline.com/open-roles?gh_jid=7802146003", "company_key": "greenhouse:flyzipline", "location": "South San Francisco, California, USA", "lat": 37.6535403, "lng": -122.4168664, "first_published": "2026-07-11T13:07:07-04:00"}
{"url": "https://www.zipline.com/open-roles?gh_jid=7802154003", "company_key": "greenhouse:flyzipline", "location": "South San Francisco, California, USA", "lat": 37.6535403, "lng": -122.4168664, "first_published": "2026-07-11T13:38:59-04:00"}
{"url": "https://boards.greenhouse.io/guidepointsecurity/jobs/6114223004?gh_jid=6114223004", "company_key": "greenhouse:guidepointsecurity", "location": "Remote", "lat": 43.0059455, "lng": -123.8925908, "first_published": "2026-07-11T09:04:41-04:00"}
{"url": "https://job-boards.greenhouse.io/hrpliving/jobs/4313918009", "company_key": "greenhouse:hrpliving", "location": "1287 Shoals Apartments - 1287 Cedar Shoals Drive - Athens, GA - 30605", "lat": null, "lng": null, "first_published": "2026-07-11T14:15:53-04:00"}
{"url": "https://www.jackpot.com/careers?gh_jid=4696407006", "company_key": "greenhouse:jackpot", "location": "Remote", "lat": 43.0059455, "lng": -123.8925908, "first_published": "2026-07-11T11:01:00-04:00"}
{"url": "https://job-boards.eu.greenhouse.io/jdsports/jobs/4925340101", "company_key": "greenhouse:jdsports", "location": "Benevento, Province Benevento, Italy", "lat": null, "lng": null, "first_published": "2026-07-11T09:02:51-04:00"}
{"url": "https://job-boards.eu.greenhouse.io/jdsports/jobs/4925293101", "company_key": "greenhouse:jdsports", "location": "Italy ", "lat": 42.6384261, "lng": 12.674297, "first_published": "2026-07-11T04:52:14-04:00"}
{"url": "https://job-boards.eu.greenhouse.io/jdsports/jobs/4925292101", "company_key": "greenhouse:jdsports", "location": "Italy ", "lat": 42.6384261, "lng": 12.674297, "first_published": "2026-07-11T04:52:08-04:00"}
{"url": "https://job-boards.eu.greenhouse.io/jdsports/jobs/4925311101", "company_key": "greenhouse:jdsports", "location": "Maida, Catanzaro, Italy", "lat": null, "lng": null, "first_published": "2026-07-11T06:10:18-04:00"}
{"url": "https://job-boards.eu.greenhouse.io/jdsports/jobs/4925289101", "company_key": "greenhouse:jdsports", "location": "Italy ", "lat": 42.6384261, "lng": 12.674297, "first_published": "2026-07-11T04:46:13-04:00"}
{"url": "https://job-boards.eu.greenhouse.io/jdsports/jobs/4925276101", "company_key": "greenhouse:jdsports", "location": "Chieti, Chieti, Italy", "lat": null, "lng": null, "first_published": "2026-07-11T03:28:20-04:00"}
{"url": "https://job-boards.greenhouse.io/lucidmotors/jobs/5184013007", "company_key": "greenhouse:lucidmotors", "location": "Mission Viejo, CA", "lat": 33.5965685, "lng": -117.659405, "first_published": "2026-07-11T10:20:32-04:00"}
{"url": "https://job-boards.greenhouse.io/lucidmotors/jobs/5185023007", "company_key": "greenhouse:lucidmotors", "location": "Mission Viejo, CA", "lat": 33.5965685, "lng": -117.659405, "first_published": "2026-07-11T10:25:26-04:00"}
{"url": "https://job-boards.greenhouse.io/lucidmotors/jobs/5178935007", "company_key": "greenhouse:lucidmotors", "location": "Saudi Arabia", "lat": 25.6242618, "lng": 42.3528328, "first_published": "2026-07-11T08:25:20-04:00"}
{"url": "https://boards.greenhouse.io/mindgrub/jobs/7801795003?gh_jid=7801795003", "company_key": "greenhouse:mindgrub", "location": "Baltimore, Maryland - Remote, U.S.", "lat": null, "lng": null, "first_published": "2026-07-11T08:31:55-04:00"}
{"url": "https://job-boards.greenhouse.io/myfundedfutures/jobs/4313916009", "company_key": "greenhouse:myfundedfutures", "location": "Plano, Texas, United States", "lat": 33.0136764, "lng": -96.6925096, "first_published": "2026-07-11T13:52:01-04:00"}
{"url": "https://job-boards.greenhouse.io/myfundedfutures/jobs/4313917009", "company_key": "greenhouse:myfundedfutures", "location": "Plano, Texas, United States", "lat": 33.0136764, "lng": -96.6925096, "first_published": "2026-07-11T13:58:38-04:00"}
{"url": "https://job-boards.greenhouse.io/razorpaysoftwareprivatelimited/jobs/4713769005", "company_key": "greenhouse:razorpaysoftwareprivatelimited", "location": "Bengaluru", "lat": 12.9767936, "lng": 77.590082, "first_published": "2026-07-11T03:31:10-04:00"}
{"url": "https://job-boards.greenhouse.io/reformation/jobs/8056662", "company_key": "greenhouse:reformation", "location": "White Plains, New York", "lat": null, "lng": null, "first_published": "2026-07-11T08:02:50-04:00"}
{"url": "https://job-boards.greenhouse.io/reformation/jobs/8056664", "company_key": "greenhouse:reformation", "location": "White Plains, NY", "lat": null, "lng": null, "first_published": "2026-07-11T08:08:54-04:00"}
{"url": "https://job-boards.greenhouse.io/wppmedia/jobs/5302546008", "company_key": "greenhouse:wppmedia", "location": "Madrid, Spain", "lat": 40.416782, "lng": -3.703507, "first_published": "2026-07-11T13:27:38-04:00"}
{"url": "https://jobs.lever.co/jobgether/75c66a35-85e1-4bb2-9e31-f1755f2bc1ed", "company_key": "lever:jobgether", "location": "Brazil", "lat": -10.3333333, "lng": -53.2, "first_published": "2026-07-11T12:23:04.978000+00:00"}
{"url": "https://jobs.lever.co/jobgether/d1aca89d-3109-4678-9d1f-d2f87e72b362", "company_key": "lever:jobgether", "location": "India", "lat": 22.3511148, "lng": 78.6677428, "first_published": "2026-07-11T12:23:28.536000+00:00"}
{"url": "https://jobs.lever.co/jobgether/042d9c57-352a-462a-af7e-7fab77710ae7", "company_key": "lever:jobgether", "location": "Romania", "lat": 45.9852129, "lng": 24.6859225, "first_published": "2026-07-11T10:23:08.087000+00:00"}
{"url": "https://jobs.lever.co/jobgether/0a3a60a1-04f0-4e01-aacf-462a6a32378e", "company_key": "lever:jobgether", "location": "Ireland", "lat": 52.865196, "lng": -7.9794599, "first_published": "2026-07-11T10:22:00.139000+00:00"}
{"url": "https://jobs.lever.co/jobgether/346c9e3f-4ace-4f99-af66-23aa93ac3151", "company_key": "lever:jobgether", "location": "Italy", "lat": 42.6384261, "lng": 12.674297, "first_published": "2026-07-11T10:22:52.934000+00:00"}
{"url": "https://jobs.lever.co/jobgether/5f0b158a-6994-47ac-9077-22f0ba0e4ee5", "company_key": "lever:jobgether", "location": "France", "lat": 46.603354, "lng": 1.8883335, "first_published": "2026-07-11T10:21:21.582000+00:00"}
{"url": "https://jobs.lever.co/jobgether/7f477936-9822-4664-8026-de9163b41e91", "company_key": "lever:jobgether", "location": "Spain", "lat": 39.3260685, "lng": -4.8379791, "first_published": "2026-07-11T10:20:49.800000+00:00"}
{"url": "https://jobs.lever.co/jobgether/9dd7eb3f-6886-4f45-b738-c3f99c0039fe", "company_key": "lever:jobgether", "location": "UK", "lat": 54.7023545, "lng": -3.2765753, "first_published": "2026-07-11T10:20:30.907000+00:00"}
{"url": "https://jobs.lever.co/jobgether/b11e9214-9c79-420c-b9b0-f9df2f9fbd1a", "company_key": "lever:jobgether", "location": "Portugal", "lat": 39.6621648, "lng": -8.1353519, "first_published": "2026-07-11T10:22:37.487000+00:00"}
{"url": "https://jobs.lever.co/jobgether/bb5dfd49-cb89-4ffb-bd3e-9df4c44a07a1", "company_key": "lever:jobgether", "location": "Switzerland", "lat": 46.7985624, "lng": 8.2319736, "first_published": "2026-07-11T10:21:38.819000+00:00"}
{"url": "https://jobs.lever.co/jobgether/d4e7d5f3-f5d6-4de4-960e-eb424c81bbb6", "company_key": "lever:jobgether", "location": "Germany", "lat": 51.1638175, "lng": 10.4478313, "first_published": "2026-07-11T10:21:05.504000+00:00"}
{"url": "https://jobs.lever.co/jobgether/e1978881-120e-45ac-bb41-79c4297a1685", "company_key": "lever:jobgether", "location": "Netherlands", "lat": 52.2434979, "lng": 5.6343227, "first_published": "2026-07-11T10:22:22.212000+00:00"}
{"url": "https://jobs.lever.co/jobgether/030c9d8d-1a42-4d4d-a25d-e3d2f3dc705e", "company_key": "lever:jobgether", "location": "Ireland", "lat": 52.865196, "lng": -7.9794599, "first_published": "2026-07-11T10:39:31.884000+00:00"}
{"url": "https://jobs.lever.co/jobgether/1b60700f-81a2-48dc-b5f8-1f320a3916a7", "company_key": "lever:jobgether", "location": "Spain", "lat": 39.3260685, "lng": -4.8379791, "first_published": "2026-07-11T10:38:19.598000+00:00"}
{"url": "https://jobs.lever.co/jobgether/82dd1d6e-d61f-4a33-861a-1edd9cf64e35", "company_key": "lever:jobgether", "location": "France", "lat": 46.603354, "lng": 1.8883335, "first_published": "2026-07-11T10:38:54.582000+00:00"}
{"url": "https://jobs.lever.co/jobgether/96643912-eb31-4ceb-bf43-aa927509f9ca", "company_key": "lever:jobgether", "location": "Germany", "lat": 51.1638175, "lng": 10.4478313, "first_published": "2026-07-11T10:38:37.047000+00:00"}
{"url": "https://jobs.lever.co/jobgether/aa77e6c9-ed57-48c0-9021-99db96b46923", "company_key": "lever:jobgether", "location": "UK", "lat": 54.7023545, "lng": -3.2765753, "first_published": "2026-07-11T10:37:54.815000+00:00"}
{"url": "https://jobs.lever.co/jobgether/b6ccdc25-c15f-4b05-a230-16deee5dd983", "company_key": "lever:jobgether", "location": "Netherlands", "lat": 52.2434979, "lng": 5.6343227, "first_published": "2026-07-11T10:39:54.223000+00:00"}
{"url": "https://jobs.lever.co/jobgether/e7f3b459-ea29-4c47-bb7e-07d9cd4727db", "company_key": "lever:jobgether", "location": "Switzerland", "lat": 46.7985624, "lng": 8.2319736, "first_published": "2026-07-11T10:39:15.597000+00:00"}
{"url": "https://jobs.lever.co/jobgether/231eec51-3307-4616-8139-843f2cd716c7", "company_key": "lever:jobgether", "location": "Germany", "lat": 51.1638175, "lng": 10.4478313, "first_published": "2026-07-11T08:47:51.111000+00:00"}
{"url": "https://jobs.lever.co/jobgether/2becca04-463d-44b6-90c8-2058a071b7b6", "company_key": "lever:jobgether", "location": "Mexico", "lat": 23.6585116, "lng": -102.0077097, "first_published": "2026-07-11T08:45:38.286000+00:00"}
{"url": "https://jobs.lever.co/jobgether/2f7d2d87-ac3a-48bc-b520-45a974b2470c", "company_key": "lever:jobgether", "location": "Netherlands", "lat": 52.2434979, "lng": 5.6343227, "first_published": "2026-07-11T08:46:44.158000+00:00"}
{"url": "https://jobs.lever.co/jobgether/2f7e7f3c-b88e-4c69-9808-8b15526d4576", "company_key": "lever:jobgether", "location": "Spain", "lat": 39.3260685, "lng": -4.8379791, "first_published": "2026-07-11T08:48:08.390000+00:00"}
{"url": "https://jobs.lever.co/jobgether/33c6ab18-27a1-41e6-be7d-455cf2012ce7", "company_key": "lever:jobgether", "location": "Portugal", "lat": 39.6621648, "lng": -8.1353519, "first_published": "2026-07-11T08:46:25.566000+00:00"}
{"url": "https://jobs.lever.co/jobgether/564f188f-2028-4e63-8c47-2af33727e5f9", "company_key": "lever:jobgether", "location": "Brazil", "lat": -10.3333333, "lng": -53.2, "first_published": "2026-07-11T08:48:40.510000+00:00"}
{"url": "https://jobs.lever.co/jobgether/578329e2-76d1-4c7d-9b28-6ecf92fa51f9", "company_key": "lever:jobgether", "location": "Italy", "lat": 42.6384261, "lng": 12.674297, "first_published": "2026-07-11T08:46:09.822000+00:00"}
{"url": "https://jobs.lever.co/jobgether/696d1ffb-1c81-44a4-a520-d3856e39e4fc", "company_key": "lever:jobgether", "location": "Canada", "lat": 61.0666922, "lng": -107.991707, "first_published": "2026-07-11T08:48:55.409000+00:00"}
{"url": "https://jobs.lever.co/jobgether/69992e69-e33d-4f35-bf84-fcaf4ef51d20", "company_key": "lever:jobgether", "location": "South Africa", "lat": -28.8166236, "lng": 24.991639, "first_published": "2026-07-11T08:45:22.558000+00:00"}
{"url": "https://jobs.lever.co/jobgether/6ba332d8-bbb3-4689-81a9-eb6616a2bb3d", "company_key": "lever:jobgether", "location": "Australia", "lat": -24.7761086, "lng": 134.755, "first_published": "2026-07-11T08:44:56.965000+00:00"}
{"url": "https://jobs.lever.co/jobgether/83c084a7-efa7-4f7b-8959-a1accfac6fcc", "company_key": "lever:jobgether", "location": "US", "lat": 39.7837304, "lng": -100.445882, "first_published": "2026-07-11T08:49:32.662000+00:00"}
{"url": "https://jobs.lever.co/jobgether/acd20e0c-f98f-44c1-9ef2-31224fe2c647", "company_key": "lever:jobgether", "location": "India", "lat": 22.3511148, "lng": 78.6677428, "first_published": "2026-07-11T08:49:11.070000+00:00"}
{"url": "https://jobs.lever.co/jobgether/d8e37fd3-2751-4f9c-9c3f-875ab4cb4b83", "company_key": "lever:jobgether", "location": "Switzerland", "lat": 46.7985624, "lng": 8.2319736, "first_published": "2026-07-11T08:47:20.237000+00:00"}
{"url": "https://jobs.lever.co/jobgether/e86c0e85-b9a8-4928-b922-e4da275613dd", "company_key": "lever:jobgether", "location": "France", "lat": 46.603354, "lng": 1.8883335, "first_published": "2026-07-11T08:47:35.710000+00:00"}
{"url": "https://jobs.lever.co/jobgether/f14360fc-7ea6-4376-9ea9-8273627748af", "company_key": "lever:jobgether", "location": "Ireland", "lat": 52.865196, "lng": -7.9794599, "first_published": "2026-07-11T08:47:01.110000+00:00"}
{"url": "https://jobs.lever.co/jobgether/f21e386c-97a8-450f-8069-1153b1680914", "company_key": "lever:jobgether", "location": "UK", "lat": 54.7023545, "lng": -3.2765753, "first_published": "2026-07-11T08:48:24.814000+00:00"}
{"url": "https://jobs.lever.co/jobgether/f6c87736-35b4-48f2-97f2-4c5502c8435e", "company_key": "lever:jobgether", "location": "Romania", "lat": 45.9852129, "lng": 24.6859225, "first_published": "2026-07-11T08:45:54.702000+00:00"}
{"url": "https://jobs.lever.co/jobgether/6ef59ea3-d36f-4f02-9571-cc51ac7bacf5", "company_key": "lever:jobgether", "location": "India", "lat": 22.3511148, "lng": 78.6677428, "first_published": "2026-07-11T11:58:44.892000+00:00"}
{"url": "https://jobs.lever.co/jobgether/a6f79ab4-ec53-4026-89dc-86920fca8a0c", "company_key": "lever:jobgether", "location": "US", "lat": 39.7837304, "lng": -100.445882, "first_published": "2026-07-11T11:59:04.380000+00:00"}
{"url": "https://jobs.lever.co/jobgether/b149d7c9-3f92-48ea-9617-a19296ed2def", "company_key": "lever:jobgether", "location": "Brazil", "lat": -10.3333333, "lng": -53.2, "first_published": "2026-07-11T11:57:58.356000+00:00"}
{"url": "https://jobs.lever.co/jobgether/f633ae07-301d-460c-a503-283e761e515f", "company_key": "lever:jobgether", "location": "Canada", "lat": 61.0666922, "lng": -107.991707, "first_published": "2026-07-11T11:58:27.877000+00:00"}
{"url": "https://jobs.lever.co/jobgether/339366b9-1bfc-428b-b380-3f68cdbd22ab", "company_key": "lever:jobgether", "location": "India", "lat": 22.3511148, "lng": 78.6677428, "first_published": "2026-07-11T11:49:09.675000+00:00"}
{"url": "https://jobs.lever.co/jobgether/8a0d4ed6-5cde-43a5-9a16-198c57820995", "company_key": "lever:jobgether", "location": "US", "lat": 39.7837304, "lng": -100.445882, "first_published": "2026-07-11T11:48:42.826000+00:00"}
{"url": "https://jobs.lever.co/jobgether/ac03547e-4ed9-4328-8a0a-e50d2c397ad9", "company_key": "lever:jobgether", "location": "Canada", "lat": 61.0666922, "lng": -107.991707, "first_published": "2026-07-11T11:49:27.083000+00:00"}
{"url": "https://jobs.lever.co/jobgether/e282b37f-90ff-40e7-87c3-a578454d1d30", "company_key": "lever:jobgether", "location": "Brazil", "lat": -10.3333333, "lng": -53.2, "first_published": "2026-07-11T11:49:44.443000+00:00"}
{"url": "https://jobs.lever.co/jobgether/15e8a492-86f6-44d4-9668-daa0d8dd288b", "company_key": "lever:jobgether", "location": "France", "lat": 46.603354, "lng": 1.8883335, "first_published": "2026-07-11T10:35:35.686000+00:00"}
{"url": "https://jobs.lever.co/jobgether/81975cef-7251-4620-9ddb-9822089f1a50", "company_key": "lever:jobgether", "location": "Germany", "lat": 51.1638175, "lng": 10.4478313, "first_published": "2026-07-11T10:35:52.647000+00:00"}
{"url": "https://jobs.lever.co/jobgether/84b0e94e-6113-46c2-82b1-a66aff564fbd", "company_key": "lever:jobgether", "location": "Spain", "lat": 39.3260685, "lng": -4.8379791, "first_published": "2026-07-11T10:36:16.228000+00:00"}
{"url": "https://jobs.lever.co/jobgether/a802b674-6089-4787-b813-39d706ee9b57", "company_key": "lever:jobgether", "location": "UK", "lat": 54.7023545, "lng": -3.2765753, "first_published": "2026-07-11T10:36:33.029000+00:00"}
{"url": "https://jobs.lever.co/jobgether/b08e868b-c2ad-4653-91b4-845e58101eab", "company_key": "lever:jobgether", "location": "Ireland", "lat": 52.865196, "lng": -7.9794599, "first_published": "2026-07-11T10:35:03.151000+00:00"}
{"url": "https://jobs.lever.co/jobgether/ed57a480-6e45-413f-875a-77e270404a63", "company_key": "lever:jobgether", "location": "Netherlands", "lat": 52.2434979, "lng": 5.6343227, "first_published": "2026-07-11T10:34:33.746000+00:00"}
{"url": "https://jobs.lever.co/jobgether/f0fbbee7-fd8b-45aa-a083-e1491a49ce74", "company_key": "lever:jobgether", "location": "Switzerland", "lat": 46.7985624, "lng": 8.2319736, "first_published": "2026-07-11T10:35:19.334000+00:00"}
{"url": "https://jobs.lever.co/jobgether/72a17940-8f91-44f3-a764-7f45c5a8b37c", "company_key": "lever:jobgether", "location": "Brazil", "lat": -10.3333333, "lng": -53.2, "first_published": "2026-07-11T12:04:45.567000+00:00"}
{"url": "https://jobs.lever.co/jobgether/a56e561b-2572-4e6b-871c-019983a61bbc", "company_key": "lever:jobgether", "location": "Canada", "lat": 61.0666922, "lng": -107.991707, "first_published": "2026-07-11T12:05:16.294000+00:00"}
{"url": "https://jobs.lever.co/jobgether/aca8dab7-45dc-458f-b34d-8393a70ad0a0", "company_key": "lever:jobgether", "location": "US", "lat": 39.7837304, "lng": -100.445882, "first_published": "2026-07-11T12:06:04.287000+00:00"}
{"url": "https://jobs.lever.co/jobgether/b07e68e4-c272-483a-bd98-8ddc24951dc8", "company_key": "lever:jobgether", "location": "India", "lat": 22.3511148, "lng": 78.6677428, "first_published": "2026-07-11T12:05:44.109000+00:00"}
{"url": "https://jobs.lever.co/jobgether/3394b515-ce50-4790-be64-eea6627aa90d", "company_key": "lever:jobgether", "location": "Brazil", "lat": -10.3333333, "lng": -53.2, "first_published": "2026-07-11T11:54:36.332000+00:00"}
{"url": "https://jobs.lever.co/jobgether/41944f6f-75ef-4bc6-b79b-132acd076adc", "company_key": "lever:jobgether", "location": "Canada", "lat": 61.0666922, "lng": -107.991707, "first_published": "2026-07-11T11:54:15.807000+00:00"}
{"url": "https://jobs.lever.co/jobgether/686caf95-ace6-4314-9b6f-e60f82bf52a3", "company_key": "lever:jobgether", "location": "India", "lat": 22.3511148, "lng": 78.6677428, "first_published": "2026-07-11T11:53:58.588000+00:00"}
{"url": "https://jobs.lever.co/jobgether/e964bdfd-d67b-42af-9126-845bd76048db", "company_key": "lever:jobgether", "location": "US", "lat": 39.7837304, "lng": -100.445882, "first_published": "2026-07-11T11:53:34.696000+00:00"}
{"url": "https://jobs.lever.co/jobgether/27a2230a-f009-4d34-ba89-84357698718e", "company_key": "lever:jobgether", "location": "Spain", "lat": 39.3260685, "lng": -4.8379791, "first_published": "2026-07-11T10:26:19.575000+00:00"}
{"url": "https://jobs.lever.co/jobgether/3a224d61-a740-46e7-9841-637ae49d8792", "company_key": "lever:jobgether", "location": "Germany", "lat": 51.1638175, "lng": 10.4478313, "first_published": "2026-07-11T10:26:40.190000+00:00"}
{"url": "https://jobs.lever.co/jobgether/45575f20-2e4f-498c-b42f-53ceeac76563", "company_key": "lever:jobgether", "location": "UK", "lat": 54.7023545, "lng": -3.2765753, "first_published": "2026-07-11T10:25:41.794000+00:00"}
{"url": "https://jobs.lever.co/jobgether/623ce15d-45fa-4bc7-bb4c-cf92db936e5b", "company_key": "lever:jobgether", "location": "France", "lat": 46.603354, "lng": 1.8883335, "first_published": "2026-07-11T10:26:59.914000+00:00"}
{"url": "https://jobs.lever.co/jobgether/6f7ae6e4-e285-46b7-bdba-33ef7e20b3f3", "company_key": "lever:jobgether", "location": "Netherlands", "lat": 52.2434979, "lng": 5.6343227, "first_published": "2026-07-11T10:27:51.734000+00:00"}
{"url": "https://jobs.lever.co/jobgether/ad86d1b4-9f69-4042-8edb-3c696ea236ca", "company_key": "lever:jobgether", "location": "Switzerland", "lat": 46.7985624, "lng": 8.2319736, "first_published": "2026-07-11T10:27:18.087000+00:00"}
{"url": "https://jobs.lever.co/jobgether/f5d88ad1-d471-4daf-b503-bb827f8c8684", "company_key": "lever:jobgether", "location": "Ireland", "lat": 52.865196, "lng": -7.9794599, "first_published": "2026-07-11T10:27:35.259000+00:00"}
{"url": "https://jobs.lever.co/jobgether/1e683e65-b8bc-4eac-96d6-e0e4c6d45773", "company_key": "lever:jobgether", "location": "UK", "lat": 54.7023545, "lng": -3.2765753, "first_published": "2026-07-11T10:57:52.024000+00:00"}
{"url": "https://jobs.lever.co/jobgether/1f3be196-02dc-4823-9dee-03bc32bb14ca", "company_key": "lever:jobgether", "location": "France", "lat": 46.603354, "lng": 1.8883335, "first_published": "2026-07-11T10:56:50.601000+00:00"}
{"url": "https://jobs.lever.co/jobgether/4c208d6e-acb0-4f94-abde-7aa54e2ec6b5", "company_key": "lever:jobgether", "location": "Germany", "lat": 51.1638175, "lng": 10.4478313, "first_published": "2026-07-11T10:57:10.968000+00:00"}
{"url": "https://jobs.lever.co/jobgether/607cad3a-86c2-4995-a8cc-9ff070e99f0a", "company_key": "lever:jobgether", "location": "Spain", "lat": 39.3260685, "lng": -4.8379791, "first_published": "2026-07-11T10:57:27.873000+00:00"}
{"url": "https://jobs.lever.co/jobgether/b69a0fa8-6623-4729-b057-79a3ef87614b", "company_key": "lever:jobgether", "location": "Switzerland", "lat": 46.7985624, "lng": 8.2319736, "first_published": "2026-07-11T10:56:26.836000+00:00"}
{"url": "https://jobs.lever.co/jobgether/18186ffa-86c5-4321-880a-4b10b21336e1", "company_key": "lever:jobgether", "location": "India", "lat": 22.3511148, "lng": 78.6677428, "first_published": "2026-07-11T11:56:22.228000+00:00"}
{"url": "https://jobs.lever.co/jobgether/1b38f8ee-7bd9-4fcf-ae84-e59a066d1db0", "company_key": "lever:jobgether", "location": "Brazil", "lat": -10.3333333, "lng": -53.2, "first_published": "2026-07-11T11:55:42.347000+00:00"}
{"url": "https://jobs.lever.co/jobgether/8a3c5a8f-d8a6-456d-83f5-86646300fcaa", "company_key": "lever:jobgether", "location": "Canada", "lat": 61.0666922, "lng": -107.991707, "first_published": "2026-07-11T11:56:04.988000+00:00"}
{"url": "https://jobs.lever.co/jobgether/8cfd61ca-457c-4473-8dff-25a37450b8b7", "company_key": "lever:jobgether", "location": "US", "lat": 39.7837304, "lng": -100.445882, "first_published": "2026-07-11T11:56:42.692000+00:00"}
{"url": "https://jobs.lever.co/jobgether/8cce6679-1788-4d2c-9ff2-3196e5fb0263", "company_key": "lever:jobgether", "location": "Brazil", "lat": -10.3333333, "lng": -53.2, "first_published": "2026-07-11T12:18:32.337000+00:00"}
{"url": "https://jobs.lever.co/jobgether/c947e34d-bb3c-44c5-9c50-174b0f37ae49", "company_key": "lever:jobgether", "location": "India", "lat": 22.3511148, "lng": 78.6677428, "first_published": "2026-07-11T12:19:00.802000+00:00"}
{"url": "https://jobs.lever.co/jobgether/02c6d859-c822-4404-a558-bb0f4f00610d", "company_key": "lever:jobgether", "location": "India", "lat": 22.3511148, "lng": 78.6677428, "first_published": "2026-07-11T11:51:52.690000+00:00"}
{"url": "https://jobs.lever.co/jobgether/0ae1f6c8-bd8c-4be8-a0c1-933edc11015e", "company_key": "lever:jobgether", "location": "Brazil", "lat": -10.3333333, "lng": -53.2, "first_published": "2026-07-11T11:51:03.640000+00:00"}
{"url": "https://jobs.lever.co/jobgether/697ab088-f061-414b-b63b-2bc6dfc817f0", "company_key": "lever:jobgether", "location": "US", "lat": 39.7837304, "lng": -100.445882, "first_published": "2026-07-11T11:52:13.396000+00:00"}
{"url": "https://jobs.lever.co/jobgether/d8cdb082-d41f-45c5-bfe1-6b046fea6401", "company_key": "lever:jobgether", "location": "Canada", "lat": 61.0666922, "lng": -107.991707, "first_published": "2026-07-11T11:51:34.244000+00:00"}
{"url": "https://jobs.lever.co/jobgether/062305d2-87d5-42c0-b6d1-4c0003a97c17", "company_key": "lever:jobgether", "location": "Saudi Arabia", "lat": 25.6242618, "lng": 42.3528328, "first_published": "2026-07-11T08:16:30.364000+00:00"}
{"url": "https://jobs.lever.co/jobgether/06a317a0-ba5f-4c19-9d5b-4e989ce66aec", "company_key": "lever:jobgether", "location": "UK", "lat": 54.7023545, "lng": -3.2765753, "first_published": "2026-07-11T08:05:56.559000+00:00"}
{"url": "https://jobs.lever.co/jobgether/09ec3576-875f-4532-b3bf-5f8410149df1", "company_key": "lever:jobgether", "location": "Germany", "lat": 51.1638175, "lng": 10.4478313, "first_published": "2026-07-11T08:06:28.284000+00:00"}
{"url": "https://jobs.lever.co/jobgether/0c593ce6-d629-43dc-86e2-52902bef283a", "company_key": "lever:jobgether", "location": "Greece", "lat": 38.9953683, "lng": 21.9877132, "first_published": "2026-07-11T08:19:10.819000+00:00"}
{"url": "https://jobs.lever.co/jobgether/0cac33dd-0290-4b08-9672-d479a6827354", "company_key": "lever:jobgether", "location": "Australia", "lat": -24.7761086, "lng": 134.755, "first_published": "2026-07-11T08:12:06.212000+00:00"}
{"url": "https://jobs.lever.co/jobgether/10853859-de3b-44df-9e10-7411a6170434", "company_key": "lever:jobgether", "location": "Spain", "lat": 39.3260685, "lng": -4.8379791, "first_published": "2026-07-11T08:06:12.530000+00:00"}
{"url": "https://jobs.lever.co/jobgether/164408df-6ff2-4d85-b21d-99894cdc7ba1", "company_key": "lever:jobgether", "location": "Chile", "lat": -31.7613365, "lng": -71.3187697, "first_published": "2026-07-11T08:18:40.476000+00:00"}
{"url": "https://jobs.lever.co/jobgether/2ebddc95-0dec-4366-8dce-1d6c530d012d", "company_key": "lever:jobgether", "location": "Sweden", "lat": 59.6749712, "lng": 14.5208584, "first_published": "2026-07-11T08:17:14.564000+00:00"}
{"url": "https://jobs.lever.co/jobgether/42a9302b-4e59-4e1d-a9e5-41a36f6238d1", "company_key": "lever:jobgether", "location": "United Arab Emirates", "lat": 24.0002488, "lng": 53.9994829, "first_published": "2026-07-11T08:15:49.471000+00:00"}
{"url": "https://jobs.lever.co/jobgether/436e973e-4222-4c89-94c0-f65d64b5f606", "company_key": "lever:jobgether", "location": "Brazil", "lat": -10.3333333, "lng": -53.2, "first_published": "2026-07-11T08:05:39.924000+00:00"}
{"url": "https://jobs.lever.co/jobgether/4f7046cd-a19d-4a20-9964-3f02f37e10e1", "company_key": "lever:jobgether", "location": "Romania", "lat": 45.9852129, "lng": 24.6859225, "first_published": "2026-07-11T08:11:01.508000+00:00"}
{"url": "https://jobs.lever.co/jobgether/53c43f9c-69ca-45ea-8f0f-16082557a643", "company_key": "lever:jobgether", "location": "Estonia", "lat": 58.7523778, "lng": 25.3319078, "first_published": "2026-07-11T08:22:46.253000+00:00"}
{"url": "https://jobs.lever.co/jobgether/549c74d7-627c-443b-9674-a07bf71b2fed", "company_key": "lever:jobgether", "location": "Hungary", "lat": 47.1817585, "lng": 19.5060937, "first_published": "2026-07-11T08:22:17.131000+00:00"}
{"url": "https://jobs.lever.co/jobgether/5f0485c0-0fe6-47ca-8a32-ba1faaaa9c87", "company_key": "lever:jobgether", "location": "Switzerland", "lat": 46.7985624, "lng": 8.2319736, "first_published": "2026-07-11T08:07:21.023000+00:00"}
{"url": "https://jobs.lever.co/jobgether/6171706b-8d95-456a-a094-ee2c7000c545", "company_key": "lever:jobgether", "location": "Turkey", "lat": 39.294076, "lng": 35.2316631, "first_published": "2026-07-11T08:14:35.757000+00:00"}
{"url": "https://jobs.lever.co/jobgether/6c442a2b-3be9-4ead-abe4-df551ccb0176", "company_key": "lever:jobgether", "location": "Canada", "lat": 61.0666922, "lng": -107.991707, "first_published": "2026-07-11T08:05:21.541000+00:00"}
{"url": "https://jobs.lever.co/jobgether/7096df5b-587d-4507-83b2-3e232668e5d5", "company_key": "lever:jobgether", "location": "US", "lat": 39.7837304, "lng": -100.445882, "first_published": "2026-07-11T08:03:55.457000+00:00"}
{"url": "https://jobs.lever.co/jobgether/76416225-ee16-4914-80a1-8b412b16d0cc", "company_key": "lever:jobgether", "location": "India", "lat": 22.3511148, "lng": 78.6677428, "first_published": "2026-07-11T08:05:02.148000+00:00"}
{"url": "https://jobs.lever.co/jobgether/871e9389-5cab-4c58-803a-ab8fd1e38e30", "company_key": "lever:jobgether", "location": "Luxembourg", "lat": 49.8158683, "lng": 6.1296751, "first_published": "2026-07-11T08:20:27.684000+00:00"}
{"url": "https://jobs.lever.co/jobgether/8b679a77-a2d3-4a50-86b0-9768857699e4", "company_key": "lever:jobgether", "location": "Ireland", "lat": 52.865196, "lng": -7.9794599, "first_published": "2026-07-11T08:07:39.133000+00:00"}
{"url": "https://jobs.lever.co/jobgether/98ece952-7a69-4e95-8e12-74e1cbc9c36f", "company_key": "lever:jobgether", "location": "Finland", "lat": 63.2467777, "lng": 25.9209164, "first_published": "2026-07-11T08:21:59.428000+00:00"}
{"url": "https://jobs.lever.co/jobgether/ab5cfa60-68fb-4ed3-a660-47b595b1a816", "company_key": "lever:jobgether", "location": "Denmark", "lat": 55.670249, "lng": 10.3333283, "first_published": "2026-07-11T08:19:28.060000+00:00"}
{"url": "https://jobs.lever.co/jobgether/acc9eda5-f86f-41c9-9d16-12cbb5b5ebc6", "company_key": "lever:jobgether", "location": "France", "lat": 46.603354, "lng": 1.8883335, "first_published": "2026-07-11T08:06:43.932000+00:00"}
{"url": "https://jobs.lever.co/jobgether/b6b43723-4ee3-43ff-bd28-fe6ec2a294c9", "company_key": "lever:jobgether", "location": "Austria", "lat": 47.59397, "lng": 14.12456, "first_published": "2026-07-11T08:17:33.219000+00:00"}
{"url": "https://jobs.lever.co/jobgether/bc9c087f-ecf4-45ea-87ee-5c1c9d553617", "company_key": "lever:jobgether", "location": "Israel", "lat": 30.8124247, "lng": 34.8594762, "first_published": "2026-07-11T08:16:51.892000+00:00"}
{"url": "https://jobs.lever.co/jobgether/cb1bdc1e-9927-49aa-9693-48b5cc9d090a", "company_key": "lever:jobgether", "location": "Bulgaria", "lat": 42.6073975, "lng": 25.4856617, "first_published": "2026-07-11T08:19:51.793000+00:00"}
{"url": "https://jobs.lever.co/jobgether/d59b3565-5804-4281-a340-e6778edbaee3", "company_key": "lever:jobgether", "location": "Portugal", "lat": 39.6621648, "lng": -8.1353519, "first_published": "2026-07-11T08:10:11.745000+00:00"}
{"url": "https://jobs.lever.co/jobgether/d760726b-271f-431f-a1cb-96b0e7aab653", "company_key": "lever:jobgether", "location": "Norway", "lat": 61.1529386, "lng": 8.7876653, "first_published": "2026-07-11T08:20:47.379000+00:00"}
{"url": "https://jobs.lever.co/jobgether/d9c0a772-663f-4ac3-89f1-8b9f7b6eba38", "company_key": "lever:jobgether", "location": "Belgium", "lat": 50.6402809, "lng": 4.6667145, "first_published": "2026-07-11T08:16:12.356000+00:00"}
{"url": "https://jobs.lever.co/jobgether/ddd1baff-9ffa-4a87-ad3d-a4f93d2bac58", "company_key": "lever:jobgether", "location": "Italy", "lat": 42.6384261, "lng": 12.674297, "first_published": "2026-07-11T08:10:30.685000+00:00"}
{"url": "https://jobs.lever.co/jobgether/de424103-0549-49e6-b289-9644cc629899", "company_key": "lever:jobgether", "location": "Czechia", "lat": 49.7439047, "lng": 15.3381061, "first_published": "2026-07-11T08:21:43.341000+00:00"}
{"url": "https://jobs.lever.co/jobgether/de5a30cf-2930-4341-96e0-d2c0975fb0bc", "company_key": "lever:jobgether", "location": "Croatia", "lat": 45.3658443, "lng": 15.6575209, "first_published": "2026-07-11T08:20:10.221000+00:00"}
{"url": "https://jobs.lever.co/jobgether/e14f0b39-42bf-4a37-9e4c-ba00e7737972", "company_key": "lever:jobgether", "location": "Netherlands", "lat": 52.2434979, "lng": 5.6343227, "first_published": "2026-07-11T08:07:56.813000+00:00"}
{"url": "https://jobs.lever.co/jobgether/e36afebf-9b07-4f95-9f19-fd0f7674a095", "company_key": "lever:jobgether", "location": "Mexico", "lat": 23.6585116, "lng": -102.0077097, "first_published": "2026-07-11T08:11:32.077000+00:00"}
{"url": "https://jobs.lever.co/jobgether/ea4070d9-9d9c-4a19-bc85-1958fff4181a", "company_key": "lever:jobgether", "location": "South Africa", "lat": -28.8166236, "lng": 24.991639, "first_published": "2026-07-11T08:11:49.541000+00:00"}
{"url": "https://jobs.lever.co/jobgether/ed8a320a-99fa-4c88-8fa4-12dccbc5eebd", "company_key": "lever:jobgether", "location": "Poland", "lat": 52.215933, "lng": 19.134422, "first_published": "2026-07-11T08:17:56.957000+00:00"}
{"url": "https://jobs.lever.co/jobgether/0c311495-80cf-4a5d-9047-cd9772a82c48", "company_key": "lever:jobgether", "location": "Brazil", "lat": -10.3333333, "lng": -53.2, "first_published": "2026-07-11T12:02:17.474000+00:00"}
{"url": "https://jobs.lever.co/jobgether/5ab78212-5b63-4f0d-a207-d15967a8b4ed", "company_key": "lever:jobgether", "location": "US", "lat": 39.7837304, "lng": -100.445882, "first_published": "2026-07-11T12:03:16.205000+00:00"}
{"url": "https://jobs.lever.co/jobgether/b29a25c7-9690-4235-bbae-56572a3beb15", "company_key": "lever:jobgether", "location": "India", "lat": 22.3511148, "lng": 78.6677428, "first_published": "2026-07-11T12:02:54.989000+00:00"}
{"url": "https://jobs.lever.co/jobgether/e500c107-f071-4ae3-b33d-4ea184fc3fe4", "company_key": "lever:jobgether", "location": "Canada", "lat": 61.0666922, "lng": -107.991707, "first_published": "2026-07-11T12:02:38.116000+00:00"}
{"url": "https://jobs.lever.co/jobgether/089ef71f-18f1-4500-a108-42a0633e89f6", "company_key": "lever:jobgether", "location": "Canada", "lat": 61.0666922, "lng": -107.991707, "first_published": "2026-07-11T12:01:00.119000+00:00"}
{"url": "https://jobs.lever.co/jobgether/09f23582-6123-4226-9652-6bab3667d58f", "company_key": "lever:jobgether", "location": "Brazil", "lat": -10.3333333, "lng": -53.2, "first_published": "2026-07-11T12:01:17.942000+00:00"}
{"url": "https://jobs.lever.co/jobgether/9324e5c7-2ed2-42af-98e3-7e63af28b580", "company_key": "lever:jobgether", "location": "India", "lat": 22.3511148, "lng": 78.6677428, "first_published": "2026-07-11T12:00:38.694000+00:00"}
{"url": "https://jobs.lever.co/jobgether/ef527182-b100-4987-8eca-53085d82fe5c", "company_key": "lever:jobgether", "location": "US", "lat": 39.7837304, "lng": -100.445882, "first_published": "2026-07-11T12:00:16.927000+00:00"}
{"url": "https://jobs.lever.co/jobgether/0aa55716-3262-497c-bb80-18e62f92161e", "company_key": "lever:jobgether", "location": "Portugal", "lat": 39.6621648, "lng": -8.1353519, "first_published": "2026-07-11T08:36:55.414000+00:00"}
{"url": "https://jobs.lever.co/jobgether/0d34b672-826a-4994-b9a9-8e5c14cd3753", "company_key": "lever:jobgether", "location": "South Africa", "lat": -28.8166236, "lng": 24.991639, "first_published": "2026-07-11T08:37:56.374000+00:00"}
{"url": "https://jobs.lever.co/jobgether/16554f98-e273-415c-ad6e-7f85aaabe7fa", "company_key": "lever:jobgether", "location": "Germany", "lat": 51.1638175, "lng": 10.4478313, "first_published": "2026-07-11T08:34:53.901000+00:00"}
{"url": "https://jobs.lever.co/jobgether/39510267-1bb9-4547-8a61-b2ec08be711c", "company_key": "lever:jobgether", "location": "Saudi Arabia", "lat": 25.6242618, "lng": 42.3528328, "first_published": "2026-07-11T08:39:22.573000+00:00"}
{"url": "https://jobs.lever.co/jobgether/3ef6a3e4-2009-4575-aa29-dae040c7de1e", "company_key": "lever:jobgether", "location": "Belgium", "lat": 50.6402809, "lng": 4.6667145, "first_published": "2026-07-11T08:39:03.982000+00:00"}
{"url": "https://jobs.lever.co/jobgether/45493c6b-1783-4d08-82c0-722c392720f5", "company_key": "lever:jobgether", "location": "Italy", "lat": 42.6384261, "lng": 12.674297, "first_published": "2026-07-11T08:37:10.325000+00:00"}
{"url": "https://jobs.lever.co/jobgether/503e41c0-f779-4e1c-80f1-73f76c8a2e5d", "company_key": "lever:jobgether", "location": "India", "lat": 22.3511148, "lng": 78.6677428, "first_published": "2026-07-11T08:33:31.420000+00:00"}
{"url": "https://jobs.lever.co/jobgether/54667666-0987-41df-b949-aac6dca02222", "company_key": "lever:jobgether", "location": "US", "lat": 39.7837304, "lng": -100.445882, "first_published": "2026-07-11T08:33:07.904000+00:00"}
{"url": "https://jobs.lever.co/jobgether/57020f8b-9f71-45f5-b9ef-76ea65687fb5", "company_key": "lever:jobgether", "location": "Romania", "lat": 45.9852129, "lng": 24.6859225, "first_published": "2026-07-11T08:37:24.501000+00:00"}
{"url": "https://jobs.lever.co/jobgether/5eb6dd05-7a27-417b-9ca4-2bf5551aa8c9", "company_key": "lever:jobgether", "location": "Spain", "lat": 39.3260685, "lng": -4.8379791, "first_published": "2026-07-11T08:34:37.158000+00:00"}
{"url": "https://jobs.lever.co/jobgether/608e84c5-47e0-46dc-b915-1700c88e79e7", "company_key": "lever:jobgether", "location": "Turkey", "lat": 39.294076, "lng": 35.2316631, "first_published": "2026-07-11T08:38:32.630000+00:00"}
{"url": "https://jobs.lever.co/jobgether/64d8f3ab-dfab-4b46-86b1-cc398f469712", "company_key": "lever:jobgether", "location": "Netherlands", "lat": 52.2434979, "lng": 5.6343227, "first_published": "2026-07-11T08:35:58.118000+00:00"}
{"url": "https://jobs.lever.co/jobgether/651d2e76-2153-406b-98c7-5b13f2b16421", "company_key": "lever:jobgether", "location": "Ireland", "lat": 52.865196, "lng": -7.9794599, "first_published": "2026-07-11T08:35:40.228000+00:00"}
{"url": "https://jobs.lever.co/jobgether/7708f8f4-062d-47fa-8548-73c597bf96ad", "company_key": "lever:jobgether", "location": "UK", "lat": 54.7023545, "lng": -3.2765753, "first_published": "2026-07-11T08:34:20.027000+00:00"}
{"url": "https://jobs.lever.co/jobgether/77edf569-7b21-4e1a-b7b2-aab1285aa56a", "company_key": "lever:jobgether", "location": "Australia", "lat": -24.7761086, "lng": 134.755, "first_published": "2026-07-11T08:38:13.709000+00:00"}
{"url": "https://jobs.lever.co/jobgether/96645d27-13ad-4188-b942-06f33e0f2b89", "company_key": "lever:jobgether", "location": "Switzerland", "lat": 46.7985624, "lng": 8.2319736, "first_published": "2026-07-11T08:35:23.997000+00:00"}
{"url": "https://jobs.lever.co/jobgether/a25dfe8b-4d73-47ab-9128-50bbed03f240", "company_key": "lever:jobgether", "location": "Mexico", "lat": 23.6585116, "lng": -102.0077097, "first_published": "2026-07-11T08:37:39.046000+00:00"}
{"url": "https://jobs.lever.co/jobgether/aa31baf6-5316-47f3-9142-bc2d4d563e6b", "company_key": "lever:jobgether", "location": "France", "lat": 46.603354, "lng": 1.8883335, "first_published": "2026-07-11T08:35:08.941000+00:00"}
{"url": "https://jobs.lever.co/jobgether/be6372ec-1522-4456-885a-7b83b9d67889", "company_key": "lever:jobgether", "location": "Brazil", "lat": -10.3333333, "lng": -53.2, "first_published": "2026-07-11T08:34:03.861000+00:00"}
{"url": "https://jobs.lever.co/jobgether/f0f70d4a-e5dc-48d4-b7d6-fd894bb301fc", "company_key": "lever:jobgether", "location": "United Arab Emirates", "lat": 24.0002488, "lng": 53.9994829, "first_published": "2026-07-11T08:38:47.479000+00:00"}
{"url": "https://jobs.lever.co/jobgether/f97973ae-338a-47f2-a29b-443208be83e0", "company_key": "lever:jobgether", "location": "Canada", "lat": 61.0666922, "lng": -107.991707, "first_published": "2026-07-11T08:33:47.701000+00:00"}
{"url": "https://jobs.lever.co/jobgether/8b0f102a-9859-4c4d-8510-79ad2ec2e757", "company_key": "lever:jobgether", "location": "India", "lat": 22.3511148, "lng": 78.6677428, "first_published": "2026-07-11T12:14:45.422000+00:00"}
{"url": "https://jobs.lever.co/jobgether/8d4aa8a0-923d-4ae7-9715-9115db0a6bd6", "company_key": "lever:jobgether", "location": "Canada", "lat": 61.0666922, "lng": -107.991707, "first_published": "2026-07-11T12:14:10.814000+00:00"}
{"url": "https://jobs.lever.co/jobgether/b42f6508-5ca5-4f63-bf46-5ec40c93736f", "company_key": "lever:jobgether", "location": "Brazil", "lat": -10.3333333, "lng": -53.2, "first_published": "2026-07-11T12:13:34.103000+00:00"}
{"url": "https://jobs.lever.co/jobgether/7cdd91e0-14cc-47d4-b2f6-07b0ee1dc4db", "company_key": "lever:jobgether", "location": "Canada", "lat": 61.0666922, "lng": -107.991707, "first_published": "2026-07-11T12:08:08.842000+00:00"}
{"url": "https://jobs.lever.co/jobgether/96e8e4fa-0415-4613-8d53-a2ebabd8031f", "company_key": "lever:jobgether", "location": "US", "lat": 39.7837304, "lng": -100.445882, "first_published": "2026-07-11T12:07:24.961000+00:00"}
{"url": "https://jobs.lever.co/jobgether/a238aa89-dba0-4720-9120-3cf836c14f3a", "company_key": "lever:jobgether", "location": "Brazil", "lat": -10.3333333, "lng": -53.2, "first_published": "2026-07-11T12:08:24.975000+00:00"}
{"url": "https://jobs.lever.co/jobgether/f8aac5b2-e6cc-4f06-bf97-ef04763102ff", "company_key": "lever:jobgether", "location": "India", "lat": 22.3511148, "lng": 78.6677428, "first_published": "2026-07-11T12:07:48.428000+00:00"}
{"url": "https://jobs.lever.co/jobgether/c3388b7a-8fa6-4eab-9820-9710bf8e6fae", "company_key": "lever:jobgether", "location": "India", "lat": 22.3511148, "lng": 78.6677428, "first_published": "2026-07-11T12:20:30.606000+00:00"}
{"url": "https://jobs.lever.co/jobgether/ee5a38e5-888a-43a3-90bd-c4a9fd9bf292", "company_key": "lever:jobgether", "location": "Brazil", "lat": -10.3333333, "lng": -53.2, "first_published": "2026-07-11T12:20:06.145000+00:00"}
{"url": "https://jobs.lever.co/jobgether/63a66518-6af2-4fa8-a72f-aea712ecbf75", "company_key": "lever:jobgether", "location": "Brazil", "lat": -10.3333333, "lng": -53.2, "first_published": "2026-07-11T12:17:18.398000+00:00"}
{"url": "https://jobs.lever.co/jobgether/b34687cc-0894-47cd-b008-b7021e323505", "company_key": "lever:jobgether", "location": "Canada", "lat": 61.0666922, "lng": -107.991707, "first_published": "2026-07-11T12:17:01.775000+00:00"}
{"url": "https://jobs.lever.co/jobgether/e087b939-9bf1-456e-8e0f-b337274de81d", "company_key": "lever:jobgether", "location": "India", "lat": 22.3511148, "lng": 78.6677428, "first_published": "2026-07-11T12:16:36.909000+00:00"}
{"url": "https://jobs.lever.co/jobgether/2e57aaf2-2f03-4d73-bbf5-2a4479686ccb", "company_key": "lever:jobgether", "location": "Germany", "lat": 51.1638175, "lng": 10.4478313, "first_published": "2026-07-11T10:48:03.167000+00:00"}
{"url": "https://jobs.lever.co/jobgether/456334ce-8591-4856-aa70-800def62acc5", "company_key": "lever:jobgether", "location": "France", "lat": 46.603354, "lng": 1.8883335, "first_published": "2026-07-11T10:47:48.288000+00:00"}
{"url": "https://jobs.lever.co/jobgether/54694d5f-d23a-4ad8-b4f3-fe11822a6523", "company_key": "lever:jobgether", "location": "Netherlands", "lat": 52.2434979, "lng": 5.6343227, "first_published": "2026-07-11T10:46:49.405000+00:00"}
{"url": "https://jobs.lever.co/jobgether/5b73a465-755a-46b1-b666-707604775d14", "company_key": "lever:jobgether", "location": "Spain", "lat": 39.3260685, "lng": -4.8379791, "first_published": "2026-07-11T10:48:19.680000+00:00"}
{"url": "https://jobs.lever.co/jobgether/7842118a-89f3-40a8-addd-318c0a13f25b", "company_key": "lever:jobgether", "location": "Switzerland", "lat": 46.7985624, "lng": 8.2319736, "first_published": "2026-07-11T10:47:31.768000+00:00"}
{"url": "https://jobs.lever.co/jobgether/a2407e8d-3bb0-47f5-97a8-3e856b59a945", "company_key": "lever:jobgether", "location": "Ireland", "lat": 52.865196, "lng": -7.9794599, "first_published": "2026-07-11T10:47:16.493000+00:00"}
{"url": "https://jobs.lever.co/jobgether/f4b78711-7c5b-40a9-9b32-2eb65d3343f2", "company_key": "lever:jobgether", "location": "UK", "lat": 54.7023545, "lng": -3.2765753, "first_published": "2026-07-11T10:48:36.760000+00:00"}
{"url": "https://jobs.lever.co/jobgether/247d0a0f-ee62-4b62-b1cb-b49079fe244f", "company_key": "lever:jobgether", "location": "Switzerland", "lat": 46.7985624, "lng": 8.2319736, "first_published": "2026-07-11T10:54:00.857000+00:00"}
{"url": "https://jobs.lever.co/jobgether/28c95cd1-42e9-4848-a1f7-adc5fc047a5a", "company_key": "lever:jobgether", "location": "Spain", "lat": 39.3260685, "lng": -4.8379791, "first_published": "2026-07-11T10:52:44.560000+00:00"}
{"url": "https://jobs.lever.co/jobgether/5428f5fe-85e9-4b22-9337-84585517db16", "company_key": "lever:jobgether", "location": "France", "lat": 46.603354, "lng": 1.8883335, "first_published": "2026-07-11T10:53:38.128000+00:00"}
{"url": "https://jobs.lever.co/jobgether/853b8b08-83d9-4ee2-88c0-d29c52779739", "company_key": "lever:jobgether", "location": "Germany", "lat": 51.1638175, "lng": 10.4478313, "first_published": "2026-07-11T10:53:14.505000+00:00"}
{"url": "https://jobs.lever.co/jobgether/9dd376b1-d630-4838-89b7-72262c1a1f3e", "company_key": "lever:jobgether", "location": "UK", "lat": 54.7023545, "lng": -3.2765753, "first_published": "2026-07-11T10:51:06.906000+00:00"}
{"url": "https://jobs.lever.co/jobgether/e0fa5977-e8cb-44ae-9118-3c989028a931", "company_key": "lever:jobgether", "location": "Netherlands", "lat": 52.2434979, "lng": 5.6343227, "first_published": "2026-07-11T10:54:35.592000+00:00"}
{"url": "https://jobs.lever.co/jobgether/f9e51a70-db12-4672-9739-c79358faf0d9", "company_key": "lever:jobgether", "location": "Ireland", "lat": 52.865196, "lng": -7.9794599, "first_published": "2026-07-11T10:54:19.400000+00:00"}
{"url": "https://jobs.lever.co/jobgether/71cad772-0c1f-4242-9696-4d67063ac112", "company_key": "lever:jobgether", "location": "Brazil", "lat": -10.3333333, "lng": -53.2, "first_published": "2026-07-11T12:22:00.879000+00:00"}
{"url": "https://jobs.lever.co/jobgether/d36a2490-ccbb-46b7-890b-a65ee41f61f6", "company_key": "lever:jobgether", "location": "India", "lat": 22.3511148, "lng": 78.6677428, "first_published": "2026-07-11T12:21:40.873000+00:00"}
{"url": "https://jobs.lever.co/jobgether/04968bd2-2c6e-4455-983b-0ddb82b9d8ff", "company_key": "lever:jobgether", "location": "Brazil", "lat": -10.3333333, "lng": -53.2, "first_published": "2026-07-11T11:45:25.069000+00:00"}
{"url": "https://jobs.lever.co/jobgether/3a5c62ad-9480-4f08-a948-8795788d5007", "company_key": "lever:jobgether", "location": "Canada", "lat": 61.0666922, "lng": -107.991707, "first_published": "2026-07-11T11:45:53.826000+00:00"}
{"url": "https://jobs.lever.co/jobgether/e096dd28-31fc-40ee-b9fb-3dff7f063f5f", "company_key": "lever:jobgether", "location": "India", "lat": 22.3511148, "lng": 78.6677428, "first_published": "2026-07-11T11:46:10.732000+00:00"}
{"url": "https://jobs.lever.co/jobgether/e7455e62-412b-49e4-b4c1-2c832ba5e7f0", "company_key": "lever:jobgether", "location": "US", "lat": 39.7837304, "lng": -100.445882, "first_published": "2026-07-11T11:46:33.427000+00:00"}
{"url": "https://jobs.lever.co/jobgether/18b121a7-da8e-4fc4-9f2a-ef9870629189", "company_key": "lever:jobgether", "location": "Brazil", "lat": -10.3333333, "lng": -53.2, "first_published": "2026-07-11T12:09:38.629000+00:00"}
{"url": "https://jobs.lever.co/jobgether/1f289155-93d4-41bf-a822-7357fc3a7bb7", "company_key": "lever:jobgether", "location": "Canada", "lat": 61.0666922, "lng": -107.991707, "first_published": "2026-07-11T12:10:11.376000+00:00"}
{"url": "https://jobs.lever.co/jobgether/29438609-c02b-4492-ab19-ef4340a12e4a", "company_key": "lever:jobgether", "location": "Brazil", "lat": -10.3333333, "lng": -53.2, "first_published": "2026-07-11T12:10:47.151000+00:00"}
{"url": "https://jobs.lever.co/jobgether/05db4ec9-84d7-4544-8db7-45d0ec7486c7", "company_key": "lever:jobgether", "location": "Germany", "lat": 51.1638175, "lng": 10.4478313, "first_published": "2026-07-11T08:25:33.544000+00:00"}
{"url": "https://jobs.lever.co/jobgether/33b19dc1-02fb-4061-967f-5ade4806e953", "company_key": "lever:jobgether", "location": "Mexico", "lat": 23.6585116, "lng": -102.0077097, "first_published": "2026-07-11T08:29:28.025000+00:00"}
{"url": "https://jobs.lever.co/jobgether/3aa2570b-b206-441a-a784-238b49f92e78", "company_key": "lever:jobgether", "location": "Turkey", "lat": 39.294076, "lng": 35.2316631, "first_published": "2026-07-11T08:30:21.886000+00:00"}
{"url": "https://jobs.lever.co/jobgether/55430691-8a0a-404d-803e-f7f3b8ae47db", "company_key": "lever:jobgether", "location": "Italy", "lat": 42.6384261, "lng": 12.674297, "first_published": "2026-07-11T08:28:57.326000+00:00"}
{"url": "https://jobs.lever.co/jobgether/7a77aba7-8b41-4603-9e39-ad86325e46b5", "company_key": "lever:jobgether", "location": "Portugal", "lat": 39.6621648, "lng": -8.1353519, "first_published": "2026-07-11T08:27:00.107000+00:00"}
{"url": "https://jobs.lever.co/jobgether/88deac19-77ca-4fd6-b0aa-edf54071a19c", "company_key": "lever:jobgether", "location": "Switzerland", "lat": 46.7985624, "lng": 8.2319736, "first_published": "2026-07-11T08:26:06.062000+00:00"}
{"url": "https://jobs.lever.co/jobgether/8e924847-eb97-4d11-b655-b4431239578a", "company_key": "lever:jobgether", "location": "Netherlands", "lat": 52.2434979, "lng": 5.6343227, "first_published": "2026-07-11T08:26:43.296000+00:00"}
{"url": "https://jobs.lever.co/jobgether/9db4d373-f86c-40db-ae77-5468dba22e8e", "company_key": "lever:jobgether", "location": "United Arab Emirates", "lat": 24.0002488, "lng": 53.9994829, "first_published": "2026-07-11T08:30:38.321000+00:00"}
{"url": "https://jobs.lever.co/jobgether/a39528d8-51b3-4039-8431-d6cc7376c3bf", "company_key": "lever:jobgether", "location": "India", "lat": 22.3511148, "lng": 78.6677428, "first_published": "2026-07-11T08:24:11.125000+00:00"}
{"url": "https://jobs.lever.co/jobgether/a829b9d0-1459-4f8b-94ea-2453a3fb85f4", "company_key": "lever:jobgether", "location": "Belgium", "lat": 50.6402809, "lng": 4.6667145, "first_published": "2026-07-11T08:31:01.657000+00:00"}
{"url": "https://jobs.lever.co/jobgether/c26e6db5-7995-432f-a18e-bb47d6f3b98c", "company_key": "lever:jobgether", "location": "Ireland", "lat": 52.865196, "lng": -7.9794599, "first_published": "2026-07-11T08:26:27.097000+00:00"}
{"url": "https://jobs.lever.co/jobgether/c6cc97d5-098a-4d6f-afe0-b12f09929593", "company_key": "lever:jobgether", "location": "Brazil", "lat": -10.3333333, "lng": -53.2, "first_published": "2026-07-11T08:24:44.910000+00:00"}
{"url": "https://jobs.lever.co/jobgether/c7705194-5516-4c14-9731-9523d2f0750b", "company_key": "lever:jobgether", "location": "Saudi Arabia", "lat": 25.6242618, "lng": 42.3528328, "first_published": "2026-07-11T08:31:18.240000+00:00"}
{"url": "https://jobs.lever.co/jobgether/d55f3f7e-5ecf-487c-8a3c-abf758d717ce", "company_key": "lever:jobgether", "location": "Spain", "lat": 39.3260685, "lng": -4.8379791, "first_published": "2026-07-11T08:25:17.152000+00:00"}
{"url": "https://jobs.lever.co/jobgether/d8000c7b-e56a-42f5-9368-3a24f053a288", "company_key": "lever:jobgether", "location": "Canada", "lat": 61.0666922, "lng": -107.991707, "first_published": "2026-07-11T08:24:29.024000+00:00"}
{"url": "https://jobs.lever.co/jobgether/dd6f4eaa-e777-400c-8e43-b514ace85ed1", "company_key": "lever:jobgether", "location": "South Africa", "lat": -28.8166236, "lng": 24.991639, "first_published": "2026-07-11T08:29:44.561000+00:00"}
{"url": "https://jobs.lever.co/jobgether/e49eb212-9311-430f-b482-10b3f65072e3", "company_key": "lever:jobgether", "location": "France", "lat": 46.603354, "lng": 1.8883335, "first_published": "2026-07-11T08:25:50.287000+00:00"}
{"url": "https://jobs.lever.co/jobgether/f1239b96-9a02-4cc2-992e-2bd90f1ca31e", "company_key": "lever:jobgether", "location": "Australia", "lat": -24.7761086, "lng": 134.755, "first_published": "2026-07-11T08:30:01.833000+00:00"}
{"url": "https://jobs.lever.co/jobgether/f7d5961c-e88d-4f97-abfa-d8980229bf2b", "company_key": "lever:jobgether", "location": "UK", "lat": 54.7023545, "lng": -3.2765753, "first_published": "2026-07-11T08:25:00.376000+00:00"}
{"url": "https://jobs.lever.co/jobgether/fc250b4f-8960-450c-b17e-7ee3b53759bf", "company_key": "lever:jobgether", "location": "Romania", "lat": 45.9852129, "lng": 24.6859225, "first_published": "2026-07-11T08:29:12.904000+00:00"}
{"url": "https://jobs.lever.co/jobgether/1f7941b2-f0fb-427a-84af-34dd90ae5b07", "company_key": "lever:jobgether", "location": "Switzerland", "lat": 46.7985624, "lng": 8.2319736, "first_published": "2026-07-11T10:31:01.847000+00:00"}
{"url": "https://jobs.lever.co/jobgether/48e24869-f995-4cea-a6a6-b18bc7dfe24d", "company_key": "lever:jobgether", "location": "Spain", "lat": 39.3260685, "lng": -4.8379791, "first_published": "2026-07-11T10:30:04.790000+00:00"}
{"url": "https://jobs.lever.co/jobgether/600c650a-ad9b-42ba-aa99-e9e1d8b25b6e", "company_key": "lever:jobgether", "location": "France", "lat": 46.603354, "lng": 1.8883335, "first_published": "2026-07-11T10:30:45.590000+00:00"}
{"url": "https://jobs.lever.co/jobgether/8d2dea4a-cce0-4743-b32d-a0f6f57bc1cc", "company_key": "lever:jobgether", "location": "Germany", "lat": 51.1638175, "lng": 10.4478313, "first_published": "2026-07-11T10:30:22.766000+00:00"}
{"url": "https://jobs.lever.co/jobgether/cfaa6765-8d9c-4fac-b013-4a0fad7fff16", "company_key": "lever:jobgether", "location": "UK", "lat": 54.7023545, "lng": -3.2765753, "first_published": "2026-07-11T10:29:38.157000+00:00"}
{"url": "https://jobs.lever.co/jobgether/d4fa48dc-1327-47fb-a938-275b09a71c33", "company_key": "lever:jobgether", "location": "Netherlands", "lat": 52.2434979, "lng": 5.6343227, "first_published": "2026-07-11T10:31:37.614000+00:00"}
{"url": "https://jobs.lever.co/jobgether/f1ccbebf-c2ba-42b6-b4d0-30ca92d3a805", "company_key": "lever:jobgether", "location": "Ireland", "lat": 52.865196, "lng": -7.9794599, "first_published": "2026-07-11T10:31:18.990000+00:00"}
{"url": "https://jobs.lever.co/jobgether/3f45abf5-4d80-45c2-81f7-913bab9e722b", "company_key": "lever:jobgether", "location": "Canada", "lat": 61.0666922, "lng": -107.991707, "first_published": "2026-07-11T11:37:17.675000+00:00"}
{"url": "https://jobs.lever.co/jobgether/6750a8e0-cf77-4d98-9163-77d6d0a7b326", "company_key": "lever:jobgether", "location": "India", "lat": 22.3511148, "lng": 78.6677428, "first_published": "2026-07-11T11:36:53.866000+00:00"}
{"url": "https://jobs.lever.co/jobgether/6d41ae40-c630-4435-b2ae-df55864b7cbb", "company_key": "lever:jobgether", "location": "Brazil", "lat": -10.3333333, "lng": -53.2, "first_published": "2026-07-11T11:37:38.051000+00:00"}
{"url": "https://jobs.lever.co/jobgether/8bbc88d8-aea5-4f1e-a5c2-ce7eeff88a87", "company_key": "lever:jobgether", "location": "US", "lat": 39.7837304, "lng": -100.445882, "first_published": "2026-07-11T11:36:31.252000+00:00"}
{"url": "https://jobs.ashbyhq.com/honey%20homes/a601c886-700b-46d0-9279-64a16ebb1848", "company_key": "ashby:honey homes", "location": "Evanston", "lat": null, "lng": null, "first_published": "2026-07-11T15:02:00.303+00:00"}
{"url": "https://jobs.ashbyhq.com/metriport/a02a9bda-84be-4d93-aa6c-3cc1c5112d6e", "company_key": "ashby:metriport", "location": "San Francisco", "lat": 37.7879363, "lng": -122.4075201, "first_published": "2026-07-11T16:16:16.280+00:00"}
{"url": "https://jobs.ashbyhq.com/Stepful/67ff2e4a-3bfc-4956-b7d7-2e732708e0d6", "company_key": "ashby:Stepful", "location": "Columbus, Ohio", "lat": 39.9622601, "lng": -83.0007065, "first_published": "2026-07-11T17:24:18.084+00:00"}
{"url": "https://jobs.ashbyhq.com/AfterQuery/a06f0b5f-63f6-4e33-a195-e2f5d5f6e1b1", "company_key": "ashby:AfterQuery", "location": "San Francisco", "lat": 37.7879363, "lng": -122.4075201, "first_published": "2026-07-11T21:41:07.151+00:00"}
{"url": "https://job-boards.greenhouse.io/dragos/jobs/5287904008", "company_key": "greenhouse:dragos", "location": "United States", "lat": 39.7837304, "lng": -100.445882, "first_published": "2026-07-11T16:31:07-04:00"}
{"url": "https://stripe.com/jobs/search?gh_jid=8050878", "company_key": "greenhouse:stripe", "location": "San Francisco", "lat": 37.7879363, "lng": -122.4075201, "first_published": "2026-07-11T16:06:40-04:00"}
{"url": "https://boards.greenhouse.io/spacex/jobs/8629380002?gh_jid=8629380002", "company_key": "greenhouse:spacex", "location": "Austin, TX", "lat": 30.2711286, "lng": -97.7436995, "first_published": "2026-07-11T16:28:10-04:00"}
{"url": "https://boards.greenhouse.io/spacex/jobs/8629381002?gh_jid=8629381002", "company_key": "greenhouse:spacex", "location": "Austin, TX", "lat": 30.2711286, "lng": -97.7436995, "first_published": "2026-07-11T16:29:40-04:00"}
{"url": "https://boards.greenhouse.io/careem/jobs/8620725002?gh_jid=8620725002", "company_key": "greenhouse:careem", "location": "Karachi, Pakistan", "lat": 24.8546842, "lng": 67.0207055, "first_published": "2026-07-11T15:52:24-04:00"}
{"url": "https://coreweave.com/careers/job?4696197006&board=coreweave&gh_jid=4696197006", "company_key": "greenhouse:coreweave", "location": "Singapore", "lat": 1.357107, "lng": 103.8194992, "first_published": "2026-07-11T21:20:26-04:00"}
{"url": "https://coreweave.com/careers/job?4696410006&board=coreweaveu&gh_jid=4696410006", "company_key": "greenhouse:coreweaveu", "location": "UK", "lat": 54.7023545, "lng": -3.2765753, "first_published": "2026-07-11T20:58:57-04:00"}
{"url": "https://job-boards.greenhouse.io/dialpad/jobs/8629382002", "company_key": "greenhouse:dialpad", "location": "Kitchener, Canada", "lat": null, "lng": null, "first_published": "2026-07-11T18:09:04-04:00"}
{"url": "https://job-boards.greenhouse.io/eulerity/jobs/4696408006", "company_key": "greenhouse:eulerity", "location": "New York, New York", "lat": 40.7127281, "lng": -74.0060152, "first_published": "2026-07-11T17:58:54-04:00"}
{"url": "https://job-boards.greenhouse.io/ever/jobs/5333064008", "company_key": "greenhouse:ever", "location": "Costa Mesa, CA", "lat": 33.6633386, "lng": -117.903317, "first_published": "2026-07-11T21:05:37-04:00"}
{"url": "https://job-boards.greenhouse.io/ever/jobs/5333002008", "company_key": "greenhouse:ever", "location": "San Francisco", "lat": 37.7879363, "lng": -122.4075201, "first_published": "2026-07-11T20:49:38-04:00"}
{"url": "https://job-boards.greenhouse.io/lucidmotors/jobs/5183999007", "company_key": "greenhouse:lucidmotors", "location": "Mission Viejo, CA", "lat": 33.5965685, "lng": -117.659405, "first_published": "2026-07-11T20:50:39-04:00"}
{"url": "https://job-boards.greenhouse.io/lucidmotors/jobs/5184001007", "company_key": "greenhouse:lucidmotors", "location": "Newark, CA", "lat": 37.5296593, "lng": -122.0402399, "first_published": "2026-07-11T21:11:15-04:00"}
{"url": "https://job-boards.greenhouse.io/lucidmotors/jobs/5184019007", "company_key": "greenhouse:lucidmotors", "location": "Mission Viejo, CA", "lat": 33.5965685, "lng": -117.659405, "first_published": "2026-07-11T21:04:36-04:00"}
{"url": "https://job-boards.greenhouse.io/lucidmotors/jobs/5184022007", "company_key": "greenhouse:lucidmotors", "location": "Mission Viejo, CA", "lat": 33.5965685, "lng": -117.659405, "first_published": "2026-07-11T20:59:59-04:00"}
{"url": "https://job-boards.greenhouse.io/myfundedfutures/jobs/4313925009", "company_key": "greenhouse:myfundedfutures", "location": "Plano, TX, United States", "lat": null, "lng": null, "first_published": "2026-07-11T16:24:34-04:00"}
{"url": "https://job-boards.greenhouse.io/myfundedfutures/jobs/4313927009", "company_key": "greenhouse:myfundedfutures", "location": "Plano, Texas, United States", "lat": 33.0136764, "lng": -96.6925096, "first_published": "2026-07-11T17:22:21-04:00"}
{"url": "https://job-boards.greenhouse.io/myfundedfutures/jobs/4313928009", "company_key": "greenhouse:myfundedfutures", "location": "Hybrid, Plano, Texas, United States", "lat": null, "lng": null, "first_published": "2026-07-11T17:40:22-04:00"}
{"url": "https://job-boards.greenhouse.io/myfundedfutures/jobs/4313926009", "company_key": "greenhouse:myfundedfutures", "location": "Plano, Texas, United States", "lat": 33.0136764, "lng": -96.6925096, "first_published": "2026-07-11T16:57:42-04:00"}
{"url": "https://job-boards.greenhouse.io/northpointtechnology/jobs/8629376002", "company_key": "greenhouse:northpointtechnology", "location": "Novi, Michigan, United States", "lat": 42.48059, "lng": -83.4754913, "first_published": "2026-07-11T14:22:01-04:00"}
{"url": "https://job-boards.greenhouse.io/reformation/jobs/8056677", "company_key": "greenhouse:reformation", "location": "Short Hills, NJ", "lat": null, "lng": null, "first_published": "2026-07-11T16:01:28-04:00"}
{"url": "https://job-boards.eu.greenhouse.io/sohohouseco/jobs/4921637101", "company_key": "greenhouse:sohohouseco", "location": "White City House - 2, Television Centre, 101 Wood Ln, London W12 7FR", "lat": null, "lng": null, "first_published": "2026-07-11T14:38:47-04:00"}
{"url": "https://job-boards.eu.greenhouse.io/sohohouseco/jobs/4921601101", "company_key": "greenhouse:sohohouseco", "location": "White City House - 2, Television Centre, 101 Wood Ln, London W12 7FR", "lat": null, "lng": null, "first_published": "2026-07-11T14:39:07-04:00"}
{"url": "https://job-boards.greenhouse.io/turing/jobs/6114235004", "company_key": "greenhouse:turing", "location": "New York, New York, United States", "lat": 40.7127281, "lng": -74.0060152, "first_published": "2026-07-11T20:38:05-04:00"}
{"url": "https://www.vml.com/careers/job/8624557002?gh_jid=8624557002", "company_key": "greenhouse:wundermanthompson", "location": "S\u00e3o Paulo, Brazil", "lat": -23.5506507, "lng": -46.6333824, "first_published": "2026-07-11T14:29:27-04:00"}
{"url": "https://jobs.lever.co/d-fendsolutions/fc04b80b-ce75-432e-9c72-02f8ce678246", "company_key": "lever:d-fendsolutions", "location": "McLean, Virginia", "lat": null, "lng": null, "first_published": "2026-07-11T22:36:10.739000+00:00"}
{"url": "https://jobs.lever.co/ppfa/a37e9466-425f-4256-aa94-730a3cc2e6d2", "company_key": "lever:ppfa", "location": "Telecommuter", "lat": null, "lng": null, "first_published": "2026-07-11T17:47:16.470000+00:00"}
{"url": "https://jobs.ashbyhq.com/elevenlabs/b43e388f-f204-41c5-a2bc-ee3bc1281e39", "company_key": "ashby:elevenlabs", "location": "Washington, D.C.", "lat": 38.8950982, "lng": -77.0363849, "first_published": "2026-07-11T23:38:42.153+00:00"}
{"url": "https://jobs.ashbyhq.com/mercor/476294e6-7aa2-4231-b3d0-5f1abe512922", "company_key": "ashby:mercor", "location": "San Francisco", "lat": 37.7879363, "lng": -122.4075201, "first_published": "2026-07-11T23:31:03.867+00:00"}
{"url": "https://jobs.ashbyhq.com/mercor/ed1e0124-d0db-4824-8f94-27106b20815e", "company_key": "ashby:mercor", "location": "San Francisco", "lat": 37.7879363, "lng": -122.4075201, "first_published": "2026-07-11T20:46:47.714+00:00"}
{"url": "https://jobs.ashbyhq.com/ramp/ffc09fc0-7785-48db-a203-a148f62534be", "company_key": "ashby:ramp", "location": "New York, NY (HQ) | San Francisco, CA", "lat": null, "lng": null, "first_published": "2026-07-11T20:22:52.649+00:00"}
{"url": "https://jobs.ashbyhq.com/superdial/468c3570-c2f2-480c-86a5-25cb1762280b", "company_key": "ashby:superdial", "location": "New York City | Burlingame, CA | Remote", "lat": null, "lng": null, "first_published": "2026-07-11T23:12:29.588+00:00"}
{"url": "https://job-boards.greenhouse.io/biomedrealty/jobs/4696334006", "company_key": "greenhouse:biomedrealty", "location": "San Diego, CA", "lat": 32.7174202, "lng": -117.162772, "first_published": "2026-07-11T13:29:17-04:00"}
{"url": "https://job-boards.greenhouse.io/biomedrealty/jobs/4696240006", "company_key": "greenhouse:biomedrealty", "location": "South San Francisco, CA", "lat": 37.6535403, "lng": -122.4168664, "first_published": "2026-07-11T13:29:46-04:00"}
{"url": "https://www.carvana.com/careers/apply?gh_jid=8056755", "company_key": "greenhouse:carvana", "location": "Dayton, MN", "lat": null, "lng": null, "first_published": "2026-07-11T23:53:40-04:00"}
{"url": "https://www.carvana.com/careers/apply?gh_jid=8056753", "company_key": "greenhouse:carvana", "location": "Mira Loma, CA", "lat": 33.9863913, "lng": -117.5227325, "first_published": "2026-07-11T23:31:39-04:00"}
{"url": "https://job-boards.greenhouse.io/givedirectly/jobs/4714132005", "company_key": "greenhouse:givedirectly", "location": "Remote", "lat": 43.0059455, "lng": -123.8925908, "first_published": "2026-07-11T08:29:56-04:00"}
{"url": "https://job-boards.greenhouse.io/openfx/jobs/5333063008", "company_key": "greenhouse:openfx", "location": "Miami (USA), London (UK), Dubai (UAE), Bengaluru (India)", "lat": null, "lng": null, "first_published": "2026-07-11T21:13:25-04:00"}
{"url": "https://job-boards.greenhouse.io/openfx/jobs/5333071008", "company_key": "greenhouse:openfx", "location": "Miami (USA), London (UK), Dubai (UAE), Bangalore (India)", "lat": null, "lng": null, "first_published": "2026-07-11T21:46:53-04:00"}
{"url": "https://job-boards.greenhouse.io/plootocareers/jobs/5332520008", "company_key": "greenhouse:plootocareers", "location": "Remote - Canada", "lat": 70.8553058, "lng": -70.9174507, "first_published": "2026-07-11T18:48:52-04:00"}
{"url": "https://job-boards.greenhouse.io/studsinc/jobs/6114238004", "company_key": "greenhouse:studsinc", "location": "1450 Ala Moana Blvd., Unit #3825, Honolulu, HI. 96814", "lat": null, "lng": null, "first_published": "2026-07-11T22:16:35-04:00"}
{"url": "https://job-boards.greenhouse.io/studsinc/jobs/6114239004", "company_key": "greenhouse:studsinc", "location": "5064 Broadway Place  Nashville, TN 37203", "lat": null, "lng": null, "first_published": "2026-07-11T22:27:36-04:00"}
{"url": "https://jobs.ashbyhq.com/artsy/4697897b-89f4-4a23-87f2-5e84ebab8821", "company_key": "ashby:artsy", "location": "Berlin", "lat": 52.5173885, "lng": 13.3951309, "first_published": "2026-07-11T11:54:31.108+00:00"}
{"url": "https://job-boards.greenhouse.io/xai/jobs/5182183007", "company_key": "greenhouse:xai", "location": "Palo Alto, CA", "lat": 37.4443293, "lng": -122.1598465, "first_published": "2026-07-12T03:52:08-04:00"}
{"url": "https://boards.greenhouse.io/andurilindustries/jobs/5185274007?gh_jid=5185274007", "company_key": "greenhouse:andurilindustries", "location": "Boulder, Colorado, United States", "lat": 40.0149856, "lng": -105.270545, "first_published": "2026-07-12T09:07:38-04:00"}
{"url": "https://boards.greenhouse.io/andurilindustries/jobs/5185271007?gh_jid=5185271007", "company_key": "greenhouse:andurilindustries", "location": "Lexington, Massachusetts, United States", "lat": 42.4473175, "lng": -71.2245003, "first_published": "2026-07-12T08:55:22-04:00"}
{"url": "https://boards.greenhouse.io/andurilindustries/jobs/5185270007?gh_jid=5185270007", "company_key": "greenhouse:andurilindustries", "location": "Lexington, Massachusetts, United States", "lat": 42.4473175, "lng": -71.2245003, "first_published": "2026-07-12T08:54:46-04:00"}
{"url": "https://boards.greenhouse.io/andurilindustries/jobs/5185272007?gh_jid=5185272007", "company_key": "greenhouse:andurilindustries", "location": "Lexington, Massachusetts, United States", "lat": 42.4473175, "lng": -71.2245003, "first_published": "2026-07-12T08:56:51-04:00"}
{"url": "https://boards.greenhouse.io/andurilindustries/jobs/5185269007?gh_jid=5185269007", "company_key": "greenhouse:andurilindustries", "location": "Lexington, Massachusetts, United States", "lat": 42.4473175, "lng": -71.2245003, "first_published": "2026-07-12T08:54:16-04:00"}
{"url": "https://boards.greenhouse.io/andurilindustries/jobs/5185273007?gh_jid=5185273007", "company_key": "greenhouse:andurilindustries", "location": "Lexington, Massachusetts, United States", "lat": 42.4473175, "lng": -71.2245003, "first_published": "2026-07-12T08:56:52-04:00"}
{"url": "https://databricks.com/company/careers/open-positions/job?gh_jid=8593713002", "company_key": "greenhouse:databricks", "location": "Remote - United Kingdom", "lat": 55.8754971, "lng": -2.9525105, "first_published": "2026-07-12T11:25:20-04:00"}
{"url": "https://www.pinterestcareers.com/jobs/?gh_jid=8037865", "company_key": "greenhouse:pinterest", "location": "Dublin, IE", "lat": 53.3493795, "lng": -6.2605593, "first_published": "2026-07-12T06:53:45-04:00"}
{"url": "https://boards.greenhouse.io/braze/jobs/8002284?gh_jid=8002284", "company_key": "greenhouse:braze", "location": "Tokyo", "lat": 35.6768601, "lng": 139.7638947, "first_published": "2026-07-12T06:32:24-04:00"}
{"url": "https://www.taboola.com/careers/job/8059153?gh_jid=8059153", "company_key": "greenhouse:taboola", "location": "Tel Aviv, Israel", "lat": 32.0852997, "lng": 34.7818064, "first_published": "2026-07-12T08:24:23-04:00"}
{"url": "https://boards.greenhouse.io/careem/jobs/8624018002?gh_jid=8624018002", "company_key": "greenhouse:careem", "location": "Amman, Jordan", "lat": 31.9515694, "lng": 35.9239625, "first_published": "2026-07-12T05:44:21-04:00"}
{"url": "https://job-boards.greenhouse.io/elwoodtechnologies/jobs/6114296004", "company_key": "greenhouse:elwoodtechnologies", "location": "Singapore", "lat": 1.357107, "lng": 103.8194992, "first_published": "2026-07-12T11:21:18-04:00"}
{"url": "https://www.fireblocks.com/careers/4692079006?gh_jid=4692079006", "company_key": "greenhouse:fireblocks", "location": "Berlin, Berlin, Germany", "lat": 52.503379, "lng": 13.3386522, "first_published": "2026-07-12T04:43:51-04:00"}
{"url": "https://job-boards.greenhouse.io/hudl/jobs/8045945", "company_key": "greenhouse:hudl", "location": "Sydney, Australia", "lat": -33.8698439, "lng": 151.2082848, "first_published": "2026-07-12T03:07:07-04:00"}
{"url": "https://job-boards.greenhouse.io/via/jobs/8627735002", "company_key": "greenhouse:via", "location": "Tel Aviv", "lat": 32.0852997, "lng": 34.7818064, "first_published": "2026-07-12T03:43:51-04:00"}
{"url": "https://job-boards.greenhouse.io/advancedtechnologyservices/jobs/4690741006", "company_key": "greenhouse:advancedtechnologyservices", "location": "Mexico- El Salto, Jalisco", "lat": 20.5066723, "lng": -103.2377262, "first_published": "2026-07-12T10:51:12-04:00"}
{"url": "https://job-boards.greenhouse.io/agibank/jobs/5300396008", "company_key": "greenhouse:agibank", "location": "Campinas, S\u00e3o Paulo, Brasil", "lat": -22.9056391, "lng": -47.059564, "first_published": "2026-07-12T08:15:43-04:00"}
{"url": "https://careers.appsflyer.com/jobs/position/8611963002?gh_jid=8611963002", "company_key": "greenhouse:appsflyer", "location": "Herzliya", "lat": 32.1656255, "lng": 34.8469023, "first_published": "2026-07-12T05:47:25-04:00"}
{"url": "https://www.catonetworks.com/careers/careers-post/4925503101?gh_jid=4925503101", "company_key": "greenhouse:catonetworks", "location": "Tel Aviv District, Israel", "lat": 32.0956658, "lng": 34.8062579, "first_published": "2026-07-12T04:37:54-04:00"}
{"url": "https://www.catonetworks.com/careers/careers-post/4920920101?gh_jid=4920920101", "company_key": "greenhouse:catonetworks", "location": "Tel Aviv District, Israel", "lat": 32.0956658, "lng": 34.8062579, "first_published": "2026-07-12T06:52:39-04:00"}
{"url": "https://connecteam.com/careers/6114292004?gh_jid=6114292004", "company_key": "greenhouse:connecteam", "location": "Tel Aviv District, Israel", "lat": 32.0956658, "lng": 34.8062579, "first_published": "2026-07-12T10:42:58-04:00"}
{"url": "https://connecteam.com/careers/6114294004?gh_jid=6114294004", "company_key": "greenhouse:connecteam", "location": "Tel Aviv District, Israel", "lat": 32.0956658, "lng": 34.8062579, "first_published": "2026-07-12T10:43:00-04:00"}
{"url": "https://job-boards.greenhouse.io/decimainternational/jobs/4696417006", "company_key": "greenhouse:decimainternational", "location": "Cairo, Egypt", "lat": 30.0443879, "lng": 31.2357257, "first_published": "2026-07-12T08:49:33-04:00"}
{"url": "https://job-boards.greenhouse.io/decimainternational/jobs/4696415006", "company_key": "greenhouse:decimainternational", "location": "Riyadh, Riyadh, Saudi Arabia", "lat": 24.638916, "lng": 46.7160104, "first_published": "2026-07-12T06:50:37-04:00"}
{"url": "https://job-boards.greenhouse.io/decimainternational/jobs/4696413006", "company_key": "greenhouse:decimainternational", "location": "Riyadh, Riyadh, Saudi Arabia", "lat": 24.638916, "lng": 46.7160104, "first_published": "2026-07-12T06:39:12-04:00"}
{"url": "https://job-boards.greenhouse.io/decimainternational/jobs/4696414006", "company_key": "greenhouse:decimainternational", "location": "Riyadh, Riyadh, Saudi Arabia", "lat": 24.638916, "lng": 46.7160104, "first_published": "2026-07-12T06:45:54-04:00"}
{"url": "https://job-boards.greenhouse.io/decimainternational/jobs/4696411006", "company_key": "greenhouse:decimainternational", "location": "Riyadh, Riyadh, Saudi Arabia", "lat": 24.638916, "lng": 46.7160104, "first_published": "2026-07-12T06:34:43-04:00"}
{"url": "https://job-boards.greenhouse.io/decimainternational/jobs/4696412006", "company_key": "greenhouse:decimainternational", "location": "Riyadh, Riyadh, Saudi Arabia", "lat": 24.638916, "lng": 46.7160104, "first_published": "2026-07-12T06:36:57-04:00"}
{"url": "https://job-boards.greenhouse.io/decimainternational/jobs/4696416006", "company_key": "greenhouse:decimainternational", "location": "Riyadh, Riyadh, Saudi Arabia", "lat": 24.638916, "lng": 46.7160104, "first_published": "2026-07-12T06:53:09-04:00"}
{"url": "https://job-boards.eu.greenhouse.io/jdsports/jobs/4918652101", "company_key": "greenhouse:jdsports", "location": "LIVORNO PORTA A MARE", "lat": 43.5438837, "lng": 10.3035144, "first_published": "2026-07-12T04:23:49-04:00"}
{"url": "https://job-boards.eu.greenhouse.io/jdsports/jobs/4925511101", "company_key": "greenhouse:jdsports", "location": "LIVORNO PORTA A MARE", "lat": 43.5438837, "lng": 10.3035144, "first_published": "2026-07-12T04:41:04-04:00"}
{"url": "https://job-boards.greenhouse.io/khealthcareers/jobs/6110356004", "company_key": "greenhouse:khealthcareers", "location": "Tel-Aviv, IL", "lat": 32.0852997, "lng": 34.7818064, "first_published": "2026-07-12T07:53:55-04:00"}
{"url": "https://job-boards.greenhouse.io/lucidmotors/jobs/5182701007", "company_key": "greenhouse:lucidmotors", "location": "Newark, CA", "lat": 37.5296593, "lng": -122.0402399, "first_published": "2026-07-12T13:14:45-04:00"}
{"url": "https://job-boards.greenhouse.io/lucidmotors/jobs/5142023007", "company_key": "greenhouse:lucidmotors", "location": "Riyadh, Saudi Arabia", "lat": 24.638916, "lng": 46.7160104, "first_published": "2026-07-12T10:57:24-04:00"}
{"url": "https://job-boards.greenhouse.io/melio/jobs/7792385003", "company_key": "greenhouse:melio", "location": "Tel Aviv", "lat": 32.0852997, "lng": 34.7818064, "first_published": "2026-07-12T07:57:18-04:00"}
{"url": "https://job-boards.eu.greenhouse.io/moniepoint/jobs/4925539101", "company_key": "greenhouse:moniepoint", "location": "Akwa Ibom, Nigeria", "lat": 4.990638, "lng": 7.7966205, "first_published": "2026-07-12T06:31:49-04:00"}
{"url": "https://job-boards.eu.greenhouse.io/moniepoint/jobs/4925536101", "company_key": "greenhouse:moniepoint", "location": "Edo, Nigeria", "lat": 6.6076575, "lng": 5.9722713, "first_published": "2026-07-12T06:31:51-04:00"}
{"url": "https://job-boards.eu.greenhouse.io/moniepoint/jobs/4925530101", "company_key": "greenhouse:moniepoint", "location": "Akwa Ibom, Nigeria", "lat": 4.990638, "lng": 7.7966205, "first_published": "2026-07-12T06:22:02-04:00"}
{"url": "https://job-boards.eu.greenhouse.io/moniepoint/jobs/4925534101", "company_key": "greenhouse:moniepoint", "location": "Delta, Nigeria", "lat": 5.5273061, "lng": 6.1784167, "first_published": "2026-07-12T06:22:03-04:00"}
{"url": "https://job-boards.eu.greenhouse.io/moniepoint/jobs/4925535101", "company_key": "greenhouse:moniepoint", "location": "Edo, Nigeria", "lat": 6.6076575, "lng": 5.9722713, "first_published": "2026-07-12T06:22:04-04:00"}
{"url": "https://careers.myheritage.com/jobs/8059147?gh_jid=8059147", "company_key": "greenhouse:myheritage", "location": "Tel Aviv", "lat": 32.0852997, "lng": 34.7818064, "first_published": "2026-07-12T07:41:15-04:00"}
{"url": "https://www.netskope.com/company/careers/open-positions/?gh_jid=8059158", "company_key": "greenhouse:netskope", "location": "Bengaluru, Karnataka, India", "lat": 12.9767936, "lng": 77.590082, "first_published": "2026-07-12T11:02:12-04:00"}
{"url": "https://www.netskope.com/company/careers/open-positions/?gh_jid=8059161", "company_key": "greenhouse:netskope", "location": "Bengaluru, Karnataka, India", "lat": 12.9767936, "lng": 77.590082, "first_published": "2026-07-12T11:23:46-04:00"}
{"url": "https://boards.eu.greenhouse.io/nice/jobs/4925516101?gh_jid=4925516101", "company_key": "greenhouse:nice", "location": "Israel - Raanana", "lat": 32.1860244, "lng": 34.8678359, "first_published": "2026-07-12T04:56:00-04:00"}
{"url": "https://boards.eu.greenhouse.io/nice/jobs/4925531101?gh_jid=4925531101", "company_key": "greenhouse:nice", "location": "Israel - Raanana", "lat": 32.1860244, "lng": 34.8678359, "first_published": "2026-07-12T06:30:21-04:00"}
{"url": "https://boards.eu.greenhouse.io/nice/jobs/4911345101?gh_jid=4911345101", "company_key": "greenhouse:nice", "location": "Israel - Raanana", "lat": 32.1860244, "lng": 34.8678359, "first_published": "2026-07-12T06:18:27-04:00"}
{"url": "https://job-boards.greenhouse.io/okx/jobs/7800833003", "company_key": "greenhouse:okx", "location": "San Jose, California, United States", "lat": 37.3361663, "lng": -121.890591, "first_published": "2026-07-12T10:28:49-04:00"}
{"url": "https://www.payoneer.com/careers/position/8053094/?gh_jid=8053094", "company_key": "greenhouse:payoneer", "location": "Herzliya, Tel Aviv District, Israel", "lat": 32.1656255, "lng": 34.8469023, "first_published": "2026-07-12T06:29:07-04:00"}
{"url": "https://www.payoneer.com/careers/position/8053634/?gh_jid=8053634", "company_key": "greenhouse:payoneer", "location": "Herzliya, Tel Aviv District, Israel", "lat": 32.1656255, "lng": 34.8469023, "first_published": "2026-07-12T06:33:21-04:00"}
{"url": "https://www.payoneer.com/careers/position/7925955/?gh_jid=7925955", "company_key": "greenhouse:payoneer", "location": "Herzliya, Tel Aviv District, Israel", "lat": 32.1656255, "lng": 34.8469023, "first_published": "2026-07-12T09:40:38-04:00"}
{"url": "https://job-boards.greenhouse.io/reformation/jobs/8059163", "company_key": "greenhouse:reformation", "location": "East Hampton", "lat": 40.9633868, "lng": -72.1847598, "first_published": "2026-07-12T12:03:51-04:00"}
{"url": "https://job-boards.greenhouse.io/rocketlab/jobs/7782679003", "company_key": "greenhouse:rocketlab", "location": "Pasadena, CA", "lat": 34.1476507, "lng": -118.144155, "first_published": "2026-07-12T14:03:07-04:00"}
{"url": "https://www.sentinelone.com/jobs/7781374003?gh_jid=7781374003", "company_key": "greenhouse:sentinellabs", "location": "Tel Aviv-Yafo, Tel Aviv District, Israel", "lat": 32.0852997, "lng": 34.7818064, "first_published": "2026-07-12T05:38:32-04:00"}
{"url": "https://www.sentinelone.com/jobs/7802168003?gh_jid=7802168003", "company_key": "greenhouse:sentinellabs", "location": "Israel", "lat": 30.8124247, "lng": 34.8594762, "first_published": "2026-07-12T04:32:37-04:00"}
{"url": "https://www.sentinelone.com/jobs/7802170003?gh_jid=7802170003", "company_key": "greenhouse:sentinellabs", "location": "Tel Aviv-Yafo, Tel Aviv District, Israel", "lat": 32.0852997, "lng": 34.7818064, "first_published": "2026-07-12T04:37:57-04:00"}
{"url": "https://www.sentinelone.com/jobs/7802169003?gh_jid=7802169003", "company_key": "greenhouse:sentinellabs", "location": "Israel", "lat": 30.8124247, "lng": 34.8594762, "first_published": "2026-07-12T04:34:46-04:00"}
{"url": "https://www.sentinelone.com/jobs/7802177003?gh_jid=7802177003", "company_key": "greenhouse:sentinellabs", "location": "Tel Aviv-Yafo, Tel Aviv District, Israel", "lat": 32.0852997, "lng": 34.7818064, "first_published": "2026-07-12T11:41:44-04:00"}
{"url": "https://job-boards.greenhouse.io/sevenroomsuk/jobs/8059155", "company_key": "greenhouse:sevenroomsuk", "location": "London, United Kingdom", "lat": 51.5074456, "lng": -0.1277653, "first_published": "2026-07-12T09:06:06-04:00"}
{"url": "https://job-boards.eu.greenhouse.io/tamara/jobs/4919884101", "company_key": "greenhouse:tamara", "location": "Dubai & Sharjah", "lat": 25.0839809, "lng": 55.1411137, "first_published": "2026-07-12T03:14:00-04:00"}
{"url": "https://job-boards.eu.greenhouse.io/unframe/jobs/4925549101", "company_key": "greenhouse:unframe", "location": "Tel Aviv-Yafo, Tel Aviv District, Israel", "lat": 32.0852997, "lng": 34.7818064, "first_published": "2026-07-12T07:27:15-04:00"}
{"url": "https://job-boards.eu.greenhouse.io/unframe/jobs/4925550101", "company_key": "greenhouse:unframe", "location": "Tel Aviv-Yafo, Tel Aviv District, Israel", "lat": 32.0852997, "lng": 34.7818064, "first_published": "2026-07-12T07:27:35-04:00"}
{"url": "https://job-boards.eu.greenhouse.io/unframe/jobs/4925551101", "company_key": "greenhouse:unframe", "location": "Tel Aviv-Yafo, Tel Aviv District, Israel", "lat": 32.0852997, "lng": 34.7818064, "first_published": "2026-07-12T07:27:59-04:00"}
{"url": "https://job-boards.eu.greenhouse.io/unframe/jobs/4925552101", "company_key": "greenhouse:unframe", "location": "Tel Aviv-Yafo, Tel Aviv District, Israel", "lat": 32.0852997, "lng": 34.7818064, "first_published": "2026-07-12T07:28:18-04:00"}
{"url": "https://job-boards.eu.greenhouse.io/unframe/jobs/4925546101", "company_key": "greenhouse:unframe", "location": "Tel Aviv-Yafo, Tel Aviv District, Israel", "lat": 32.0852997, "lng": 34.7818064, "first_published": "2026-07-12T07:11:19-04:00"}
{"url": "https://job-boards.greenhouse.io/wppmedia/jobs/5335025008", "company_key": "greenhouse:wppmedia", "location": "Beirut, Lebanon", "lat": 33.8892265, "lng": 35.5025585, "first_published": "2026-07-12T06:02:44-04:00"}
{"url": "https://jobs.lever.co/lendbuzz/e229a10a-a64c-4e87-a331-227c1b994053", "company_key": "lever:lendbuzz", "location": "Tel Aviv", "lat": 32.0852997, "lng": 34.7818064, "first_published": "2026-07-12T13:12:12.817000+00:00"}
{"url": "https://jobs.lever.co/theodo/0a0fa3b1-454a-4d7e-b3c9-aca4e58a0e9b", "company_key": "lever:theodo", "location": "Paris", "lat": 48.8588897, "lng": 2.320041, "first_published": "2026-07-12T16:58:01.793000+00:00"}
{"url": "https://jobs.lever.co/walkme/2594252b-3e93-4b2e-918a-8a00ae684fe1", "company_key": "lever:walkme", "location": "Tel Aviv", "lat": 32.0852997, "lng": 34.7818064, "first_published": "2026-07-12T16:00:22.587000+00:00"}
{"url": "https://jobs.lever.co/walkme/8f9b6155-ce75-4756-b5b4-00cd75dbb943", "company_key": "lever:walkme", "location": "Tel Aviv", "lat": 32.0852997, "lng": 34.7818064, "first_published": "2026-07-12T09:48:15.611000+00:00"}
{"url": "https://jobs.ashbyhq.com/angi/090e7b36-87dd-486d-9723-5bf7469def43", "company_key": "ashby:angi", "location": "Hybrid - United Kingdom - London", "lat": null, "lng": null, "first_published": "2026-07-12T12:24:45.228+00:00"}
{"url": "https://jobs.ashbyhq.com/angi/bef8731d-b6de-4dc5-81a7-de20900febeb", "company_key": "ashby:angi", "location": "Hybrid - France - Aix-en-Provence", "lat": 43.4870746, "lng": 5.4166795, "first_published": "2026-07-12T12:24:24.628+00:00"}
{"url": "https://jobs.ashbyhq.com/angi/f453cea7-69a5-4663-81cc-2a12abd5a95a", "company_key": "ashby:angi", "location": "Hybrid - Germany - Berlin", "lat": null, "lng": null, "first_published": "2026-07-12T12:24:21.402+00:00"}
{"url": "https://jobs.ashbyhq.com/angi/4be8b200-da84-46df-8c79-32b13fdb0ad6", "company_key": "ashby:angi", "location": "Hybrid - Netherlands - Amsterdam", "lat": null, "lng": null, "first_published": "2026-07-12T12:24:17.652+00:00"}
{"url": "https://jobs.ashbyhq.com/angi/50950bdc-b402-435c-b783-625073a7903f", "company_key": "ashby:angi", "location": "Hybrid - France - Aix-en-Provence", "lat": 43.4870746, "lng": 5.4166795, "first_published": "2026-07-12T12:23:52.729+00:00"}
{"url": "https://jobs.ashbyhq.com/angi/b40fb47c-5581-4f48-a884-aa721ec7187f", "company_key": "ashby:angi", "location": "Hybrid - Germany - Berlin", "lat": null, "lng": null, "first_published": "2026-07-12T12:24:09.695+00:00"}
{"url": "https://jobs.ashbyhq.com/angi/51eac4b9-22a5-4324-b026-86cc6d2accf4", "company_key": "ashby:angi", "location": "Hybrid - Netherlands - Amsterdam", "lat": null, "lng": null, "first_published": "2026-07-12T12:23:59.846+00:00"}
{"url": "https://jobs.ashbyhq.com/angi/a21d55bd-5bfd-4606-91cb-085fbce2e7eb", "company_key": "ashby:angi", "location": "Hybrid - United Kingdom - London", "lat": null, "lng": null, "first_published": "2026-07-12T12:23:57.025+00:00"}
{"url": "https://jobs.ashbyhq.com/camunda/e4926b7f-275b-442a-9c4a-c657b7bd79df", "company_key": "ashby:camunda", "location": "Remote | United Kingdom | USEAST", "lat": null, "lng": null, "first_published": "2026-07-12T14:10:14.438+00:00"}
{"url": "https://jobs.ashbyhq.com/simply/23c1a796-0249-4dbc-81c0-fafab5b76954", "company_key": "ashby:simply", "location": "Tel Aviv-Yafo", "lat": 32.0852997, "lng": 34.7818064, "first_published": "2026-07-12T15:15:24.336+00:00"}
{"url": "https://job-boards.greenhouse.io/workstream/jobs/5597335004", "company_key": "greenhouse:workstream", "location": "San Francisco, California", "lat": 37.7879363, "lng": -122.4075201, "first_published": "2026-07-13T02:04:13-04:00"}
{"url": "https://jobs.lever.co/jobgether/d5fe2092-0eab-447d-b8b8-c914c38d101c", "company_key": "lever:jobgether", "location": "US", "lat": 39.7837304, "lng": -100.445882, "first_published": "2026-07-13T05:18:29.101000+00:00"}
{"url": "https://jobs.lever.co/jobgether/ab80bcd2-6c18-4c0a-835d-5975061d653b", "company_key": "lever:jobgether", "location": "US", "lat": 39.7837304, "lng": -100.445882, "first_published": "2026-07-13T05:20:19.792000+00:00"}
{"url": "https://jobs.lever.co/jobgether/b98b3de9-464f-4167-82ac-38e2385ecf23", "company_key": "lever:jobgether", "location": "US", "lat": 39.7837304, "lng": -100.445882, "first_published": "2026-07-13T06:00:06.323000+00:00"}
{"url": "https://jobs.lever.co/jobgether/a0c0a2f1-c730-425d-836c-906c8ba1f457", "company_key": "lever:jobgether", "location": "US", "lat": 39.7837304, "lng": -100.445882, "first_published": "2026-07-13T06:52:02.674000+00:00"}
{"url": "https://jobs.lever.co/jobgether/e25b964d-a5ec-4c7f-8175-f5bd504f64ba", "company_key": "lever:jobgether", "location": "US", "lat": 39.7837304, "lng": -100.445882, "first_published": "2026-07-13T06:31:46.277000+00:00"}
{"url": "https://jobs.lever.co/jobgether/13e614b6-f55d-4888-9d63-2c0d43d69df4", "company_key": "lever:jobgether", "location": "US", "lat": 39.7837304, "lng": -100.445882, "first_published": "2026-07-13T06:39:37.318000+00:00"}
{"url": "https://databricks.com/company/careers/open-positions/job?gh_jid=8611391002", "company_key": "greenhouse:databricks", "location": "Tokyo, Japan", "lat": 35.6768601, "lng": 139.7638947, "first_published": "2026-07-12T22:34:08-04:00"}
{"url": "https://epicgames.com/careers/jobs/5789278004?gh_jid=5789278004", "company_key": "greenhouse:epicgames", "location": "BLANK,BLANK,Multiple Locations", "lat": null, "lng": null, "first_published": "2026-07-12T19:20:04-04:00"}
{"url": "https://epicgames.com/careers/jobs/5789276004?gh_jid=5789276004", "company_key": "greenhouse:epicgames", "location": "Cary,North Carolina,United States", "lat": 35.7882893, "lng": -78.7812081, "first_published": "2026-07-12T19:13:12-04:00"}
{"url": "https://www.weareroku.com/jobs/8022897?gh_jid=8022897", "company_key": "greenhouse:roku", "location": "Bengaluru, India", "lat": 12.9767936, "lng": 77.590082, "first_published": "2026-07-13T00:30:59-04:00"}
{"url": "https://www.weareroku.com/jobs/7361860?gh_jid=7361860", "company_key": "greenhouse:roku", "location": "Bengaluru, India", "lat": 12.9767936, "lng": 77.590082, "first_published": "2026-07-13T00:37:25-04:00"}
{"url": "https://job-boards.greenhouse.io/twilio/jobs/8048659", "company_key": "greenhouse:twilio", "location": "Remote - India", "lat": 17.4668554, "lng": 78.4499355, "first_published": "2026-07-13T03:00:10-04:00"}
{"url": "https://boards.greenhouse.io/cloudflare/jobs/8052843?gh_jid=8052843", "company_key": "greenhouse:cloudflare", "location": "Hybrid", "lat": 47.1188391, "lng": 1.0982204, "first_published": "2026-07-12T22:22:39-04:00"}
{"url": "https://boards.greenhouse.io/cloudflare/jobs/8052856?gh_jid=8052856", "company_key": "greenhouse:cloudflare", "location": "Hybrid", "lat": 47.1188391, "lng": 1.0982204, "first_published": "2026-07-12T22:05:51-04:00"}
{"url": "https://job-boards.greenhouse.io/gitlab/jobs/8617211002", "company_key": "greenhouse:gitlab", "location": "Remote, Australia", "lat": -42.96609, "lng": 146.04658, "first_published": "2026-07-12T19:05:20-04:00"}
{"url": "https://job-boards.greenhouse.io/gitlab/jobs/8615389002", "company_key": "greenhouse:gitlab", "location": "Remote, India", "lat": 17.4668554, "lng": 78.4499355, "first_published": "2026-07-13T02:29:08-04:00"}
{"url": "https://job-boards.greenhouse.io/gitlab/jobs/8623751002", "company_key": "greenhouse:gitlab", "location": "Remote, India", "lat": 17.4668554, "lng": 78.4499355, "first_published": "2026-07-13T02:29:51-04:00"}
{"url": "https://job-boards.greenhouse.io/gitlab/jobs/8615439002", "company_key": "greenhouse:gitlab", "location": "Remote, India", "lat": 17.4668554, "lng": 78.4499355, "first_published": "2026-07-13T02:29:28-04:00"}
{"url": "https://job-boards.greenhouse.io/gitlab/jobs/8623763002", "company_key": "greenhouse:gitlab", "location": "Remote, India", "lat": 17.4668554, "lng": 78.4499355, "first_published": "2026-07-13T02:27:52-04:00"}
{"url": "https://job-boards.greenhouse.io/alpaca/jobs/6113960004", "company_key": "greenhouse:alpaca", "location": "Remote - Japan", "lat": 35.5092394, "lng": 139.6300458, "first_published": "2026-07-12T21:09:50-04:00"}
{"url": "https://job-boards.greenhouse.io/fictiv/jobs/8629985002", "company_key": "greenhouse:fictiv", "location": "Oakland, CA Office", "lat": 37.7929742, "lng": -122.2756943, "first_published": "2026-07-12T20:23:19-04:00"}
{"url": "https://job-boards.greenhouse.io/fictiv/jobs/8629940002", "company_key": "greenhouse:fictiv", "location": "Schaumburg, IL", "lat": 42.0333608, "lng": -88.083406, "first_published": "2026-07-12T16:40:48-04:00"}
{"url": "https://job-boards.greenhouse.io/fictiv/jobs/8617382002", "company_key": "greenhouse:fictiv", "location": "Oakland, CA Office", "lat": 37.7929742, "lng": -122.2756943, "first_published": "2026-07-12T21:10:38-04:00"}
{"url": "https://careers.godaddy/jobs?gh_jid=7801583003", "company_key": "greenhouse:godaddy", "location": "India", "lat": 22.3511148, "lng": 78.6677428, "first_published": "2026-07-13T00:54:41-04:00"}
{"url": "https://careers.hellofresh.com/global/en/job/8050325?gh_jid=8050325", "company_key": "greenhouse:hellofresh", "location": "Perth, Western Australia, Australia", "lat": -31.9558967, "lng": 115.8605784, "first_published": "2026-07-12T22:07:17-04:00"}
{"url": "https://4dmoleculartherapeutics.com/careers/?gh_jid=4714086005", "company_key": "greenhouse:4dmoleculartherapeutics", "location": "Remote, United States", "lat": 43.0059455, "lng": -123.8925908, "first_published": "2026-07-12T23:07:55-04:00"}
{"url": "https://boards.greenhouse.io/accenturefederalservices/jobs/4692035006?gh_jid=4692035006", "company_key": "greenhouse:accenturefederalservices", "location": "Washington, DC", "lat": 38.8950982, "lng": -77.0363849, "first_published": "2026-07-12T17:51:24-04:00"}
{"url": "https://job-boards.greenhouse.io/agoda/jobs/8059193", "company_key": "greenhouse:agoda", "location": "Bangkok", "lat": 13.7524938, "lng": 100.4935089, "first_published": "2026-07-12T21:10:21-04:00"}
{"url": "https://job-boards.greenhouse.io/agoda/jobs/8059192", "company_key": "greenhouse:agoda", "location": "Bangkok", "lat": 13.7524938, "lng": 100.4935089, "first_published": "2026-07-12T21:09:27-04:00"}
{"url": "https://job-boards.greenhouse.io/agoda/jobs/8045760", "company_key": "greenhouse:agoda", "location": "Bangkok, Thailand", "lat": 13.7524938, "lng": 100.4935089, "first_published": "2026-07-13T02:14:16-04:00"}
{"url": "https://job-boards.greenhouse.io/alphasense/jobs/8630660002", "company_key": "greenhouse:alphasense", "location": "Pune", "lat": 18.5213738, "lng": 73.8545071, "first_published": "2026-07-13T02:43:31-04:00"}
{"url": "https://job-boards.greenhouse.io/alphasense/jobs/8630663002", "company_key": "greenhouse:alphasense", "location": "Bengaluru", "lat": 12.9767936, "lng": 77.590082, "first_published": "2026-07-13T02:46:09-04:00"}
{"url": "https://job-boards.greenhouse.io/alphasense/jobs/8630664002", "company_key": "greenhouse:alphasense", "location": "Delhi", "lat": 28.6138954, "lng": 77.2090057, "first_published": "2026-07-13T02:47:02-04:00"}
{"url": "https://job-boards.greenhouse.io/alphasenseindia/jobs/8630665002", "company_key": "greenhouse:alphasenseindia", "location": "Delhi", "lat": 28.6138954, "lng": 77.2090057, "first_published": "2026-07-13T02:47:27-04:00"}
{"url": "https://job-boards.greenhouse.io/alphasenseindia/jobs/8624043002", "company_key": "greenhouse:alphasenseindia", "location": "Pune", "lat": 18.5213738, "lng": 73.8545071, "first_published": "2026-07-13T02:42:45-04:00"}
{"url": "https://job-boards.greenhouse.io/alphasenseindia/jobs/8630662002", "company_key": "greenhouse:alphasenseindia", "location": "Bengaluru", "lat": 12.9767936, "lng": 77.590082, "first_published": "2026-07-13T02:45:00-04:00"}
{"url": "https://job-boards.greenhouse.io/artefactlinkedin/jobs/8630657002", "company_key": "greenhouse:artefactlinkedin", "location": "135 W 26th Street, New York, NY 10001", "lat": 40.7453094, "lng": -73.9923958, "first_published": "2026-07-13T02:04:15-04:00"}
{"url": "https://job-boards.greenhouse.io/assetwatch/jobs/4714179005", "company_key": "greenhouse:assetwatch", "location": "United States", "lat": 39.7837304, "lng": -100.445882, "first_published": "2026-07-12T17:31:02-04:00"}
{"url": "https://avathon.com/company/careers-job-listing/?gh_jid=4714149005", "company_key": "greenhouse:avathon", "location": "Bengaluru, Karnataka, India", "lat": 12.9767936, "lng": 77.590082, "first_published": "2026-07-12T07:19:13-04:00"}
{"url": "https://avathon.com/company/careers-job-listing/?gh_jid=4714153005", "company_key": "greenhouse:avathon", "location": "Bengaluru, Karnataka, India", "lat": 12.9767936, "lng": 77.590082, "first_published": "2026-07-12T07:34:35-04:00"}
{"url": "https://avathon.com/company/careers-job-listing/?gh_jid=4714155005", "company_key": "greenhouse:avathon", "location": "Bengaluru, Karnataka, India", "lat": 12.9767936, "lng": 77.590082, "first_published": "2026-07-12T07:58:08-04:00"}
{"url": "https://avathon.com/company/careers-job-listing/?gh_jid=4714148005", "company_key": "greenhouse:avathon", "location": "Bengaluru, Karnataka, India", "lat": 12.9767936, "lng": 77.590082, "first_published": "2026-07-12T06:15:34-04:00"}
{"url": "https://avathon.com/company/careers-job-listing/?gh_jid=4714154005", "company_key": "greenhouse:avathon", "location": "Bengaluru, Karnataka, India", "lat": 12.9767936, "lng": 77.590082, "first_published": "2026-07-12T07:44:12-04:00"}
{"url": "https://avathon.com/company/careers-job-listing/?gh_jid=4714150005", "company_key": "greenhouse:avathon", "location": "Bengaluru, Karnataka, India", "lat": 12.9767936, "lng": 77.590082, "first_published": "2026-07-12T06:57:07-04:00"}
{"url": "https://job-boards.greenhouse.io/aviationinstituteofmaintenance/jobs/5332519008", "company_key": "greenhouse:aviationinstituteofmaintenance", "location": "Norfolk, VA (AIM)", "lat": null, "lng": null, "first_published": "2026-07-12T15:02:41-04:00"}
{"url": "https://job-boards.greenhouse.io/aviationinstituteofmaintenance/jobs/5337870008", "company_key": "greenhouse:aviationinstituteofmaintenance", "location": "Kansas City, MO", "lat": 39.100105, "lng": -94.5781416, "first_published": "2026-07-12T16:32:04-04:00"}
{"url": "https://job-boards.greenhouse.io/aviationinstituteofmaintenance/jobs/5332458008", "company_key": "greenhouse:aviationinstituteofmaintenance", "location": "Norfolk, VA (AIM)", "lat": null, "lng": null, "first_published": "2026-07-12T15:01:55-04:00"}
{"url": "https://job-boards.greenhouse.io/aviationinstituteofmaintenance/jobs/5330274008", "company_key": "greenhouse:aviationinstituteofmaintenance", "location": "Charlotte, NC", "lat": 35.2272086, "lng": -80.8430827, "first_published": "2026-07-12T14:59:16-04:00"}
{"url": "https://job-boards.greenhouse.io/aviationinstituteofmaintenance/jobs/5337741008", "company_key": "greenhouse:aviationinstituteofmaintenance", "location": "Hasbrouck Heights, NJ", "lat": 40.8579293, "lng": -74.0816693, "first_published": "2026-07-12T16:01:29-04:00"}
{"url": "https://job-boards.greenhouse.io/aviationinstituteofmaintenance/jobs/5337743008", "company_key": "greenhouse:aviationinstituteofmaintenance", "location": "Chicago, IL ", "lat": 41.8755616, "lng": -87.6244212, "first_published": "2026-07-12T16:09:36-04:00"}
{"url": "https://job-boards.greenhouse.io/aviationinstituteofmaintenance/jobs/5337806008", "company_key": "greenhouse:aviationinstituteofmaintenance", "location": "Hasbrouck Heights, NJ", "lat": 40.8579293, "lng": -74.0816693, "first_published": "2026-07-12T16:13:06-04:00"}
{"url": "https://job-boards.greenhouse.io/aviationinstituteofmaintenance/jobs/5337678008", "company_key": "greenhouse:aviationinstituteofmaintenance", "location": "Charlotte, NC", "lat": 35.2272086, "lng": -80.8430827, "first_published": "2026-07-12T15:48:44-04:00"}
{"url": "https://job-boards.greenhouse.io/aviationinstituteofmaintenance/jobs/5337809008", "company_key": "greenhouse:aviationinstituteofmaintenance", "location": "Philadelphia, PA", "lat": 39.9527237, "lng": -75.1635262, "first_published": "2026-07-12T16:17:06-04:00"}
{"url": "https://job-boards.greenhouse.io/aviationinstituteofmaintenance/jobs/5337807008", "company_key": "greenhouse:aviationinstituteofmaintenance", "location": "Manassas, VA", "lat": 38.7509488, "lng": -77.4752667, "first_published": "2026-07-12T16:14:44-04:00"}
