{"url": "https://job-boards.greenhouse.io/scaleai/jobs/4713608005", "company_key": "greenhouse:scaleai", "location": "New York, NY; San Francisco, CA; Seattle, WA; New York, NY", "lat": null, "lng": null, "first_published": "2026-07-09T14:54:54-04:00"}
{"url": "https://job-boards.greenhouse.io/clickhouse/jobs/6107514004", "company_key": "greenhouse:clickhouse", "location": "United States (Remote)", "lat": 43.0059455, "lng": -123.8925908, "first_published": "2026-07-09T08:23:47-04:00"}
{"url": "https://boards.greenhouse.io/chime/jobs/8587249002?gh_jid=8587249002", "company_key": "greenhouse:chime", "location": "San Francisco, CA, USA", "lat": 37.7879363, "lng": -122.4075201, "first_published": "2026-07-09T19:10:50-04:00"}
{"url": "https://aurora.tech/jobs/8620384002?gh_jid=8620384002", "company_key": "greenhouse:aurorainnovation", "location": "Mountain View, California", "lat": null, "lng": null, "first_published": "2026-07-09T18:54:09-04:00"}
{"url": "https://job-boards.greenhouse.io/afresh/jobs/6108311004", "company_key": "greenhouse:afresh", "location": "San Francisco, CA", "lat": 37.7879363, "lng": -122.4075201, "first_published": "2026-07-09T17:21:28-04:00"}
{"url": "https://job-boards.greenhouse.io/afresh/jobs/6108318004", "company_key": "greenhouse:afresh", "location": "San Francisco, CA", "lat": 37.7879363, "lng": -122.4075201, "first_published": "2026-07-09T17:34:58-04:00"}
{"url": "https://job-boards.greenhouse.io/smartasset/jobs/8626665002", "company_key": "greenhouse:smartasset", "location": "Remote", "lat": 43.0059455, "lng": -123.8925908, "first_published": "2026-07-09T12:31:13-04:00"}
{"url": "https://job-boards.greenhouse.io/acquia/jobs/8043888", "company_key": "greenhouse:acquia", "location": "Pune or Delhi/NCR Remote", "lat": null, "lng": null, "first_published": "2026-07-09T04:59:34-04:00"}
{"url": "https://job-boards.greenhouse.io/archer56/jobs/7797796003", "company_key": "greenhouse:archer56", "location": "San Jose, California, United States", "lat": 37.3361663, "lng": -121.890591, "first_published": "2026-07-09T18:54:45-04:00"}
{"url": "https://job-boards.greenhouse.io/archer56/jobs/7797802003", "company_key": "greenhouse:archer56", "location": "San Jose, California, United States", "lat": 37.3361663, "lng": -121.890591, "first_published": "2026-07-09T18:48:42-04:00"}
{"url": "https://job-boards.greenhouse.io/clearstreet/jobs/8053475", "company_key": "greenhouse:clearstreet", "location": "Remote", "lat": 43.0059455, "lng": -123.8925908, "first_published": "2026-07-09T12:18:51-04:00"}
{"url": "https://job-boards.greenhouse.io/clearstreet/jobs/8053387", "company_key": "greenhouse:clearstreet", "location": "Remote", "lat": 43.0059455, "lng": -123.8925908, "first_published": "2026-07-09T12:16:29-04:00"}
{"url": "https://boards.greenhouse.io/cordial81/jobs/8627498002?gh_jid=8627498002", "company_key": "greenhouse:cordial81", "location": "Remote (US)", "lat": null, "lng": null, "first_published": "2026-07-09T18:31:14-04:00"}
{"url": "https://coreweave.com/careers/job?4695751006&board=coreweave&gh_jid=4695751006", "company_key": "greenhouse:coreweave", "location": "Livingston, NJ / New York, NY / Sunnyvale, CA / Bellevue, WA", "lat": null, "lng": null, "first_published": "2026-07-09T14:01:34-04:00"}
{"url": "https://job-boards.greenhouse.io/fuseglobalpartners/jobs/5317998008", "company_key": "greenhouse:fuseglobalpartners", "location": "remote", "lat": null, "lng": null, "first_published": "2026-07-09T16:37:58-04:00"}
{"url": "https://job-boards.greenhouse.io/honeycomb/jobs/5304116008", "company_key": "greenhouse:honeycomb", "location": "Remote - United States", "lat": 43.0059455, "lng": -123.8925908, "first_published": "2026-07-09T19:24:01-04:00"}
{"url": "https://job-boards.greenhouse.io/kodiak/jobs/4310775009", "company_key": "greenhouse:kodiak", "location": "Mountain View, CA", "lat": 37.3893889, "lng": -122.0832101, "first_published": "2026-07-09T12:07:51-04:00"}
{"url": "https://job-boards.greenhouse.io/latitude/jobs/8053784", "company_key": "greenhouse:latitude", "location": "Pittsburgh, PA, Palo Alto, CA, Detroit, MI", "lat": null, "lng": null, "first_published": "2026-07-09T12:34:02-04:00"}
{"url": "https://job-boards.greenhouse.io/mochihealth/jobs/5318664008", "company_key": "greenhouse:mochihealth", "location": "San Francisco, CA", "lat": 37.7879363, "lng": -122.4075201, "first_published": "2026-07-09T18:15:53-04:00"}
{"url": "https://job-boards.greenhouse.io/oportun/jobs/4712944005", "company_key": "greenhouse:oportun", "location": "Remote - MX", "lat": null, "lng": null, "first_published": "2026-07-08T19:26:57-04:00"}
{"url": "https://pantheon.io/about/careers/detail?gh_jid=8054337", "company_key": "greenhouse:pantheon", "location": "United States (Remote)", "lat": 43.0059455, "lng": -123.8925908, "first_published": "2026-07-09T16:27:53-04:00"}
{"url": "https://careers.roblox.com/jobs/8047817?gh_jid=8047817", "company_key": "greenhouse:roblox", "location": "San Mateo, CA, United States", "lat": null, "lng": null, "first_published": "2026-07-08T20:03:43-04:00"}
{"url": "https://careers.roblox.com/jobs/8011273?gh_jid=8011273", "company_key": "greenhouse:roblox", "location": "San Mateo, CA, United States", "lat": null, "lng": null, "first_published": "2026-07-09T17:39:50-04:00"}
{"url": "https://senecaholdings.com/jobs/?gh_jid=4713630005", "company_key": "greenhouse:shinvestmentsllc", "location": "Remote", "lat": 43.0059455, "lng": -123.8925908, "first_published": "2026-07-09T15:34:20-04:00"}
{"url": "https://job-boards.greenhouse.io/signifyd95/jobs/8046396", "company_key": "greenhouse:signifyd95", "location": "United States (Remote);", "lat": null, "lng": null, "first_published": "2026-07-09T14:10:42-04:00"}
{"url": "https://job-boards.greenhouse.io/sourcegraph91/jobs/6103628004", "company_key": "greenhouse:sourcegraph91", "location": "Remote", "lat": 43.0059455, "lng": -123.8925908, "first_published": "2026-07-09T12:15:18-04:00"}
{"url": "https://job-boards.eu.greenhouse.io/stubhubinc/jobs/4924201101", "company_key": "greenhouse:stubhubinc", "location": "San Francisco, California, United States", "lat": 37.7879363, "lng": -122.4075201, "first_published": "2026-07-09T17:58:02-04:00"}
{"url": "https://job-boards.eu.greenhouse.io/stubhubinc/jobs/4924172101", "company_key": "greenhouse:stubhubinc", "location": "San Francisco, California, United States", "lat": 37.7879363, "lng": -122.4075201, "first_published": "2026-07-09T17:10:46-04:00"}
{"url": "https://job-boards.greenhouse.io/temporaltechnologies/jobs/5183565007", "company_key": "greenhouse:temporaltechnologies", "location": "United States - Remote Opportunity", "lat": null, "lng": null, "first_published": "2026-07-09T14:11:43-04:00"}
{"url": "https://job-boards.greenhouse.io/twosixtechnologies/jobs/6112140004", "company_key": "greenhouse:twosixtechnologies", "location": "Remote, USA", "lat": 43.0059455, "lng": -123.8925908, "first_published": "2026-07-09T10:03:52-04:00"}
{"url": "https://careers.upstart.com/jobs?gh_jid=8047138", "company_key": "greenhouse:upstart", "location": "United States | Remote", "lat": 43.0059455, "lng": -123.8925908, "first_published": "2026-07-08T23:24:08-04:00"}
{"url": "https://careers.upstart.com/jobs?gh_jid=8047140", "company_key": "greenhouse:upstart", "location": "United States | Remote", "lat": 43.0059455, "lng": -123.8925908, "first_published": "2026-07-08T23:18:38-04:00"}
{"url": "https://job-boards.greenhouse.io/yurtsai/jobs/5182958007", "company_key": "greenhouse:yurtsai", "location": "Remote USA", "lat": null, "lng": null, "first_published": "2026-07-08T20:04:46-04:00"}
{"url": "https://jobs.lever.co/agile-defense/d3c5026c-7184-4d65-a6d9-26437e987ffd", "company_key": "lever:agile-defense", "location": "Remote", "lat": 43.0059455, "lng": -123.8925908, "first_published": "2026-07-09T18:36:26.776000+00:00"}
{"url": "https://jobs.ashbyhq.com/Crusoe/dbc41e5c-97be-4859-9bca-2b2bfb41fa00", "company_key": "ashby:Crusoe", "location": "San Francisco, CA - US", "lat": null, "lng": null, "first_published": "2026-07-09T18:02:32.833+00:00"}
{"url": "https://jobs.ashbyhq.com/Deepgram/2084edc0-2df0-4bd4-b759-0f05c38d5ef5", "company_key": "ashby:Deepgram", "location": "USA | Remote", "lat": 43.0059455, "lng": -123.8925908, "first_published": "2026-07-09T00:31:35.047+00:00"}
{"url": "https://jobs.ashbyhq.com/metriport/bb1bf8d6-85e7-46ed-b315-3b2501eb0576", "company_key": "ashby:metriport", "location": "San Francisco", "lat": 37.7879363, "lng": -122.4075201, "first_published": "2026-07-09T16:00:38.455+00:00"}
{"url": "https://jobs.ashbyhq.com/mudflap/759ba690-5550-4148-8a62-60e8fe588673", "company_key": "ashby:mudflap", "location": "Palo Alto, CA", "lat": 37.4443293, "lng": -122.1598465, "first_published": "2026-07-09T21:56:00.068+00:00"}
{"url": "https://jobs.ashbyhq.com/openai/ca54cd23-2bcc-4327-bcb6-46d81ed414a8", "company_key": "ashby:openai", "location": "San Francisco", "lat": 37.7879363, "lng": -122.4075201, "first_published": "2026-07-09T22:15:49.719+00:00"}
{"url": "https://jobs.ashbyhq.com/openai/86450337-b12a-48c1-836e-cc0c5766eb8e", "company_key": "ashby:openai", "location": "San Francisco", "lat": 37.7879363, "lng": -122.4075201, "first_published": "2026-07-09T19:05:39.562+00:00"}
{"url": "https://jobs.ashbyhq.com/openai/6c552323-f0bd-4756-a5fb-db2cda70173f", "company_key": "ashby:openai", "location": "San Francisco", "lat": 37.7879363, "lng": -122.4075201, "first_published": "2026-07-09T21:41:46.386+00:00"}
{"url": "https://jobs.ashbyhq.com/perplexity/ea87532c-69a0-497d-9cf3-04cc2a6c6410", "company_key": "ashby:perplexity", "location": "San Francisco", "lat": 37.7879363, "lng": -122.4075201, "first_published": "2026-07-09T22:28:24.241+00:00"}
{"url": "https://jobs.ashbyhq.com/perplexity/2c5fdd71-472a-4c62-bc53-deafb66e7941", "company_key": "ashby:perplexity", "location": "San Francisco | Seattle | New York City", "lat": null, "lng": null, "first_published": "2026-07-09T23:24:48.580+00:00"}
{"url": "https://jobs.ashbyhq.com/pylon-labs/38814ce7-217b-40f2-9ba5-8a7733a5691d", "company_key": "ashby:pylon-labs", "location": "San Francisco", "lat": 37.7879363, "lng": -122.4075201, "first_published": "2026-07-09T17:05:00.199+00:00"}
{"url": "https://jobs.ashbyhq.com/pylon-labs/3cc5cc5d-3ced-410a-82dd-fa1602d8d650", "company_key": "ashby:pylon-labs", "location": "San Francisco", "lat": 37.7879363, "lng": -122.4075201, "first_published": "2026-07-09T16:51:01.732+00:00"}
{"url": "https://jobs.ashbyhq.com/pylon-labs/4fff671a-837c-4d85-bdef-0bb8a28506ea", "company_key": "ashby:pylon-labs", "location": "San Francisco", "lat": 37.7879363, "lng": -122.4075201, "first_published": "2026-07-09T17:00:10.205+00:00"}
{"url": "https://jobs.ashbyhq.com/pylon-labs/8d8264b7-8094-4a55-8991-7876796487ae", "company_key": "ashby:pylon-labs", "location": "San Francisco", "lat": 37.7879363, "lng": -122.4075201, "first_published": "2026-07-09T17:08:46.292+00:00"}
{"url": "https://jobs.ashbyhq.com/pylon-labs/b1a16e8f-7268-41d5-a6e8-4db6538694bf", "company_key": "ashby:pylon-labs", "location": "San Francisco", "lat": 37.7879363, "lng": -122.4075201, "first_published": "2026-07-09T16:55:49.232+00:00"}
{"url": "https://jobs.ashbyhq.com/pylon-labs/fcea8b52-81f1-4b0c-b575-d7b180faec4d", "company_key": "ashby:pylon-labs", "location": "San Francisco", "lat": 37.7879363, "lng": -122.4075201, "first_published": "2026-07-09T17:13:18.421+00:00"}
{"url": "https://jobs.ashbyhq.com/turquoise-health/1fbc3cd7-fc6a-4b8a-8e73-d2c14f737826", "company_key": "ashby:turquoise-health", "location": "Remote", "lat": 43.0059455, "lng": -123.8925908, "first_published": "2026-07-09T18:46:37.758+00:00"}
{"url": "https://jobs.ashbyhq.com/Wisdom-AI/4e6846ea-9fca-4243-a5bb-11832ed54fc4", "company_key": "ashby:Wisdom-AI", "location": "San Mateo", "lat": null, "lng": null, "first_published": "2026-07-09T21:56:47.849+00:00"}
{"url": "https://boards.greenhouse.io/andurilindustries/jobs/5184036007?gh_jid=5184036007", "company_key": "greenhouse:andurilindustries", "location": "Lexington, Massachusetts, United States", "lat": 42.4473175, "lng": -71.2245003, "first_published": "2026-07-09T19:50:02-04:00"}
{"url": "https://boards.greenhouse.io/andurilindustries/jobs/5182721007?gh_jid=5182721007", "company_key": "greenhouse:andurilindustries", "location": "Lexington, Massachusetts, United States", "lat": 42.4473175, "lng": -71.2245003, "first_published": "2026-07-09T13:00:53-04:00"}
{"url": "https://boards.greenhouse.io/andurilindustries/jobs/5184035007?gh_jid=5184035007", "company_key": "greenhouse:andurilindustries", "location": "Lexington, Massachusetts, United States", "lat": 42.4473175, "lng": -71.2245003, "first_published": "2026-07-09T19:49:30-04:00"}
{"url": "https://boards.greenhouse.io/andurilindustries/jobs/5184034007?gh_jid=5184034007", "company_key": "greenhouse:andurilindustries", "location": "Lexington, Massachusetts, United States", "lat": 42.4473175, "lng": -71.2245003, "first_published": "2026-07-09T19:48:55-04:00"}
{"url": "https://boards.greenhouse.io/andurilindustries/jobs/5183318007?gh_jid=5183318007", "company_key": "greenhouse:andurilindustries", "location": "Boulder, Colorado, United States", "lat": null, "lng": null, "first_published": "2026-07-09T11:08:56-04:00"}
{"url": "https://job-boards.greenhouse.io/torcrobotics/jobs/8626977002", "company_key": "greenhouse:torcrobotics", "location": "Blacksburg, VA ", "lat": null, "lng": null, "first_published": "2026-07-09T14:22:16-04:00"}
{"url": "https://careers.toasttab.com/jobs?gh_jid=8039432", "company_key": "greenhouse:toast", "location": "Boston, MA", "lat": 42.3588336, "lng": -71.0578303, "first_published": "2026-07-08T19:33:04-04:00"}
{"url": "https://aurora.tech/jobs/8626652002?gh_jid=8626652002", "company_key": "greenhouse:aurorainnovation", "location": "Pittsburgh, Pennsylvania", "lat": null, "lng": null, "first_published": "2026-07-09T12:22:32-04:00"}
{"url": "https://boards.greenhouse.io/spacex/jobs/8624833002?gh_jid=8624833002", "company_key": "greenhouse:spacex", "location": "Bastrop, TX", "lat": 30.0541116, "lng": -97.3887764, "first_published": "2026-07-09T14:31:20-04:00"}
{"url": "https://boards.greenhouse.io/spacex/jobs/8625617002?gh_jid=8625617002", "company_key": "greenhouse:spacex", "location": "Hawthorne, CA", "lat": 33.9128272, "lng": -118.3426122, "first_published": "2026-07-09T12:08:34-04:00"}
{"url": "https://boards.greenhouse.io/spacex/jobs/8625615002?gh_jid=8625615002", "company_key": "greenhouse:spacex", "location": "Hawthorne, CA", "lat": 33.9128272, "lng": -118.3426122, "first_published": "2026-07-09T12:08:34-04:00"}
{"url": "https://boards.greenhouse.io/spacex/jobs/8624705002?gh_jid=8624705002", "company_key": "greenhouse:spacex", "location": "Redmond, WA", "lat": 47.6694141, "lng": -122.1238767, "first_published": "2026-07-09T14:32:03-04:00"}
{"url": "https://boards.greenhouse.io/spacex/jobs/8624864002?gh_jid=8624864002", "company_key": "greenhouse:spacex", "location": "Bastrop, TX", "lat": 30.0541116, "lng": -97.3887764, "first_published": "2026-07-09T14:30:24-04:00"}
{"url": "https://job-boards.greenhouse.io/thenewyorktimes/jobs/4713551005", "company_key": "greenhouse:thenewyorktimes", "location": "New York, NY", "lat": 40.7127281, "lng": -74.0060152, "first_published": "2026-07-09T16:58:41-04:00"}
{"url": "https://job-boards.greenhouse.io/thenewyorktimes/jobs/4713567005", "company_key": "greenhouse:thenewyorktimes", "location": "New York, NY", "lat": 40.7127281, "lng": -74.0060152, "first_published": "2026-07-09T16:57:24-04:00"}
{"url": "https://job-boards.greenhouse.io/flowtraders/jobs/8027268", "company_key": "greenhouse:flowtraders", "location": "New York", "lat": 40.7127281, "lng": -74.0060152, "first_published": "2026-07-09T10:33:29-04:00"}
{"url": "https://job-boards.greenhouse.io/flowtraders/jobs/8027267", "company_key": "greenhouse:flowtraders", "location": "New York", "lat": 40.7127281, "lng": -74.0060152, "first_published": "2026-07-09T10:33:24-04:00"}
{"url": "https://job-boards.greenhouse.io/lendingtree/jobs/8052811", "company_key": "greenhouse:lendingtree", "location": "Charlotte, NC, United States", "lat": null, "lng": null, "first_published": "2026-07-08T22:04:52-04:00"}
{"url": "https://boards.greenhouse.io/ridgeline/jobs/7799312003?gh_jid=7799312003", "company_key": "greenhouse:ridgeline", "location": "San Ramon, CA; New York, NY", "lat": null, "lng": null, "first_published": "2026-07-08T18:55:09-04:00"}
{"url": "https://boards.greenhouse.io/accenturefederalservices/jobs/4695928006?gh_jid=4695928006", "company_key": "greenhouse:accenturefederalservices", "location": "Washington, DC", "lat": 38.8950982, "lng": -77.0363849, "first_published": "2026-07-09T14:30:36-04:00"}
{"url": "https://job-boards.greenhouse.io/alarmcom/jobs/8590312002", "company_key": "greenhouse:alarmcom", "location": "Tysons, Virginia", "lat": null, "lng": null, "first_published": "2026-07-09T10:40:32-04:00"}
{"url": "https://www.bill.com/job?6104113004&gh_jid=6104113004", "company_key": "greenhouse:billcom", "location": "United States", "lat": 39.7837304, "lng": -100.445882, "first_published": "2026-07-09T09:55:44-04:00"}
{"url": "http://block.xyz/careers/jobs/5311661008?gh_jid=5311661008", "company_key": "greenhouse:block", "location": "New York, NY, United States of America", "lat": null, "lng": null, "first_published": "2026-07-08T19:59:31-04:00"}
{"url": "https://coreweave.com/careers/job?4695714006&board=coreweave&gh_jid=4695714006", "company_key": "greenhouse:coreweave", "location": "New York, NY", "lat": 40.7127281, "lng": -74.0060152, "first_published": "2026-07-09T14:01:58-04:00"}
{"url": "https://job-boards.greenhouse.io/darkwolfsolutions/jobs/7670512003", "company_key": "greenhouse:darkwolfsolutions", "location": "Tampa, FL", "lat": 27.9449854, "lng": -82.4583107, "first_published": "2026-07-09T13:35:06-04:00"}
{"url": "https://job-boards.greenhouse.io/emslinqinc/jobs/5317298008", "company_key": "greenhouse:emslinqinc", "location": "Denver, Colorado", "lat": null, "lng": null, "first_published": "2026-07-09T14:45:03-04:00"}
{"url": "https://job-boards.greenhouse.io/fuseglobalpartners/jobs/5317566008", "company_key": "greenhouse:fuseglobalpartners", "location": "St. Louis, MO", "lat": null, "lng": null, "first_published": "2026-07-09T15:32:25-04:00"}
{"url": "https://job-boards.greenhouse.io/greenpointtechnologies/jobs/5285687008", "company_key": "greenhouse:greenpointtechnologies", "location": "Bothell, Washington, United States", "lat": null, "lng": null, "first_published": "2026-07-09T15:39:22-04:00"}
{"url": "https://job-boards.greenhouse.io/grvty/jobs/4312743009", "company_key": "greenhouse:grvty", "location": "Chantilly, Virginia, United States", "lat": null, "lng": null, "first_published": "2026-07-09T19:44:27-04:00"}
{"url": "https://job-boards.greenhouse.io/grvty/jobs/4310827009", "company_key": "greenhouse:grvty", "location": "Chantilly, Virginia, United States", "lat": null, "lng": null, "first_published": "2026-07-09T13:20:31-04:00"}
{"url": "https://boards.eu.greenhouse.io/nice/jobs/4922013101?gh_jid=4922013101", "company_key": "greenhouse:nice", "location": "USA - Richardson, TX", "lat": null, "lng": null, "first_published": "2026-07-09T14:59:53-04:00"}
{"url": "https://boards.eu.greenhouse.io/nice/jobs/4921997101?gh_jid=4921997101", "company_key": "greenhouse:nice", "location": "USA - Sandy, UT", "lat": null, "lng": null, "first_published": "2026-07-09T14:57:52-04:00"}
{"url": "https://boards.eu.greenhouse.io/nice/jobs/4922011101?gh_jid=4922011101", "company_key": "greenhouse:nice", "location": "USA - Richardson, TX", "lat": null, "lng": null, "first_published": "2026-07-09T14:59:48-04:00"}
{"url": "https://boards.greenhouse.io/pathrobotics/jobs/8627330002?gh_jid=8627330002", "company_key": "greenhouse:pathrobotics", "location": "Columbus, Ohio", "lat": null, "lng": null, "first_published": "2026-07-09T16:15:24-04:00"}
{"url": "https://job-boards.greenhouse.io/systemstechnologyresearch/jobs/4695956006", "company_key": "greenhouse:systemstechnologyresearch", "location": "Woburn, MA", "lat": 42.4792618, "lng": -71.1522766, "first_published": "2026-07-09T15:18:13-04:00"}
{"url": "https://job-boards.greenhouse.io/systemstechnologyresearch/jobs/4695958006", "company_key": "greenhouse:systemstechnologyresearch", "location": "Arlington, VA", "lat": 38.8769326, "lng": -77.0893094, "first_published": "2026-07-09T15:18:14-04:00"}
{"url": "https://job-boards.greenhouse.io/systemstechnologyresearch/jobs/4695959006", "company_key": "greenhouse:systemstechnologyresearch", "location": "Dayton, OH", "lat": null, "lng": null, "first_published": "2026-07-09T15:18:15-04:00"}
{"url": "https://tulip.co/careers/job-posting/?gh_jid=7800511003", "company_key": "greenhouse:tulip", "location": "Somerville, MA", "lat": 42.3875968, "lng": -71.0994968, "first_published": "2026-07-09T17:47:42-04:00"}
{"url": "https://job-boards.greenhouse.io/yoodliinc/jobs/4311193009", "company_key": "greenhouse:yoodliinc", "location": "Seattle, WA", "lat": 47.6038321, "lng": -122.330062, "first_published": "2026-07-09T15:23:44-04:00"}
{"url": "https://jobs.lever.co/peerspace/85ec5571-6836-41f3-a9c4-5933131ccff6", "company_key": "lever:peerspace", "location": "United States", "lat": 39.7837304, "lng": -100.445882, "first_published": "2026-07-08T23:21:14.753000+00:00"}
{"url": "https://jobs.lever.co/sonarsource/2af7d7de-0c0d-4178-a538-8989e24f37c8", "company_key": "lever:sonarsource", "location": "Austin, Texas", "lat": 30.2711286, "lng": -97.7436995, "first_published": "2026-07-09T09:03:05.048000+00:00"}
{"url": "https://jobs.ashbyhq.com/adaptive-innovations/55efab82-3f2b-4681-b49c-bbab87bd65dd", "company_key": "ashby:adaptive-innovations", "location": "New York, NY", "lat": 40.7127281, "lng": -74.0060152, "first_published": "2026-07-09T21:58:04.405+00:00"}
{"url": "https://jobs.ashbyhq.com/hadrian-automation/67f19298-9ee3-4d18-b490-a46e5e19eaca", "company_key": "ashby:hadrian-automation", "location": "Los Angeles, CA", "lat": 34.0536909, "lng": -118.242766, "first_published": "2026-07-09T00:16:00.951+00:00"}
{"url": "https://jobs.ashbyhq.com/StandardBots/1f4837ed-9714-4eb6-a497-8d43f56210f5", "company_key": "ashby:StandardBots", "location": "Glen Cove, NY", "lat": null, "lng": null, "first_published": "2026-07-09T17:21:10.762+00:00"}
{"url": "https://jobs.ashbyhq.com/temporal/3b5595a4-87ec-4a5d-8a25-1be00e28c0a4", "company_key": "ashby:temporal", "location": "United States", "lat": 39.7837304, "lng": -100.445882, "first_published": "2026-07-09T18:11:43.043+00:00"}
{"url": "https://job-boards.greenhouse.io/anthropic/jobs/5316593008", "company_key": "greenhouse:anthropic", "location": "San Francisco, CA | New York City, NY", "lat": null, "lng": null, "first_published": "2026-07-09T13:28:21-04:00"}
{"url": "https://job-boards.greenhouse.io/anthropic/jobs/5309805008", "company_key": "greenhouse:anthropic", "location": "London, UK", "lat": 51.5074456, "lng": -0.1277653, "first_published": "2026-07-09T17:59:48-04:00"}
{"url": "https://job-boards.greenhouse.io/anthropic/jobs/5315789008", "company_key": "greenhouse:anthropic", "location": "San Francisco, CA | Seattle, WA", "lat": null, "lng": null, "first_published": "2026-07-09T10:27:46-04:00"}
{"url": "https://job-boards.greenhouse.io/anthropic/jobs/5310996008", "company_key": "greenhouse:anthropic", "location": "San Francisco, CA | New York City, NY", "lat": null, "lng": null, "first_published": "2026-07-09T13:50:10-04:00"}
{"url": "https://job-boards.greenhouse.io/anthropic/jobs/5285244008", "company_key": "greenhouse:anthropic", "location": "New York City, NY", "lat": 40.7127281, "lng": -74.0060152, "first_published": "2026-07-08T19:17:43-04:00"}
{"url": "https://job-boards.greenhouse.io/anthropic/jobs/5285248008", "company_key": "greenhouse:anthropic", "location": "San Francisco, CA", "lat": 37.7879363, "lng": -122.4075201, "first_published": "2026-07-08T19:15:42-04:00"}
{"url": "https://job-boards.greenhouse.io/anthropic/jobs/5304242008", "company_key": "greenhouse:anthropic", "location": "San Francisco, CA", "lat": 37.7879363, "lng": -122.4075201, "first_published": "2026-07-08T19:17:00-04:00"}
{"url": "https://job-boards.greenhouse.io/anthropic/jobs/5285250008", "company_key": "greenhouse:anthropic", "location": "San Francisco, CA", "lat": 37.7879363, "lng": -122.4075201, "first_published": "2026-07-08T19:14:37-04:00"}
{"url": "https://job-boards.greenhouse.io/anthropic/jobs/5309917008", "company_key": "greenhouse:anthropic", "location": "Sydney, Australia", "lat": -33.8698439, "lng": 151.2082848, "first_published": "2026-07-09T11:55:50-04:00"}
{"url": "https://job-boards.greenhouse.io/anthropic/jobs/5317734008", "company_key": "greenhouse:anthropic", "location": "San Francisco, CA | New York City, NY", "lat": null, "lng": null, "first_published": "2026-07-09T17:42:29-04:00"}
{"url": "https://job-boards.greenhouse.io/scaleai/jobs/4713532005", "company_key": "greenhouse:scaleai", "location": "Los Angeles, CA", "lat": 34.0536909, "lng": -118.242766, "first_published": "2026-07-09T12:47:20-04:00"}
{"url": "https://boards.greenhouse.io/andurilindustries/jobs/5182985007?gh_jid=5182985007", "company_key": "greenhouse:andurilindustries", "location": "Costa Mesa, California, United States", "lat": 33.6633386, "lng": -117.903317, "first_published": "2026-07-08T19:24:18-04:00"}
{"url": "https://boards.greenhouse.io/andurilindustries/jobs/5183582007?gh_jid=5183582007", "company_key": "greenhouse:andurilindustries", "location": "Costa Mesa, California, United States", "lat": 33.6633386, "lng": -117.903317, "first_published": "2026-07-09T14:06:18-04:00"}
{"url": "https://boards.greenhouse.io/andurilindustries/jobs/5183528007?gh_jid=5183528007", "company_key": "greenhouse:andurilindustries", "location": "Seattle, Washington, United States", "lat": 47.6038321, "lng": -122.330062, "first_published": "2026-07-09T13:33:04-04:00"}
{"url": "https://boards.greenhouse.io/andurilindustries/jobs/5183529007?gh_jid=5183529007", "company_key": "greenhouse:andurilindustries", "location": "Costa Mesa, California, United States", "lat": 33.6633386, "lng": -117.903317, "first_published": "2026-07-09T13:33:28-04:00"}
{"url": "https://boards.greenhouse.io/andurilindustries/jobs/5167865007?gh_jid=5167865007", "company_key": "greenhouse:andurilindustries", "location": "Costa Mesa, California, United States", "lat": 33.6633386, "lng": -117.903317, "first_published": "2026-07-09T17:38:19-04:00"}
{"url": "https://boards.greenhouse.io/andurilindustries/jobs/5181983007?gh_jid=5181983007", "company_key": "greenhouse:andurilindustries", "location": "Costa Mesa, California, United States", "lat": 33.6633386, "lng": -117.903317, "first_published": "2026-07-08T18:39:19-04:00"}
{"url": "https://boards.greenhouse.io/andurilindustries/jobs/5165586007?gh_jid=5165586007", "company_key": "greenhouse:andurilindustries", "location": "Costa Mesa, California, United States", "lat": 33.6633386, "lng": -117.903317, "first_published": "2026-07-09T13:17:08-04:00"}
{"url": "https://boards.greenhouse.io/andurilindustries/jobs/5182975007?gh_jid=5182975007", "company_key": "greenhouse:andurilindustries", "location": "Waltham, Massachusetts, United States", "lat": 42.3762385, "lng": -71.2355644, "first_published": "2026-07-08T19:14:08-04:00"}
{"url": "https://boards.greenhouse.io/andurilindustries/jobs/5183525007?gh_jid=5183525007", "company_key": "greenhouse:andurilindustries", "location": "Seattle, Washington, United States", "lat": 47.6038321, "lng": -122.330062, "first_published": "2026-07-09T13:32:28-04:00"}
{"url": "https://boards.greenhouse.io/andurilindustries/jobs/5183524007?gh_jid=5183524007", "company_key": "greenhouse:andurilindustries", "location": "Costa Mesa, California, United States", "lat": 33.6633386, "lng": -117.903317, "first_published": "2026-07-09T13:31:59-04:00"}
{"url": "https://boards.greenhouse.io/andurilindustries/jobs/5181971007?gh_jid=5181971007", "company_key": "greenhouse:andurilindustries", "location": "Costa Mesa, California, United States", "lat": 33.6633386, "lng": -117.903317, "first_published": "2026-07-09T13:06:13-04:00"}
{"url": "https://boards.greenhouse.io/andurilindustries/jobs/5101884007?gh_jid=5101884007", "company_key": "greenhouse:andurilindustries", "location": "Costa Mesa, California, United States", "lat": 33.6633386, "lng": -117.903317, "first_published": "2026-07-09T03:13:25-04:00"}
{"url": "https://boards.greenhouse.io/andurilindustries/jobs/5183381007?gh_jid=5183381007", "company_key": "greenhouse:andurilindustries", "location": "Washington, District of Columbia, United States", "lat": 38.8950982, "lng": -77.0363849, "first_published": "2026-07-09T12:06:16-04:00"}
{"url": "https://boards.greenhouse.io/andurilindustries/jobs/5182866007?gh_jid=5182866007", "company_key": "greenhouse:andurilindustries", "location": "Atlanta, Georgia, United States", "lat": 33.7544657, "lng": -84.3898151, "first_published": "2026-07-09T18:39:10-04:00"}
{"url": "https://boards.greenhouse.io/andurilindustries/jobs/5182972007?gh_jid=5182972007", "company_key": "greenhouse:andurilindustries", "location": "Waltham, Massachusetts, United States", "lat": 42.3762385, "lng": -71.2355644, "first_published": "2026-07-08T19:13:14-04:00"}
{"url": "https://boards.greenhouse.io/andurilindustries/jobs/5178254007?gh_jid=5178254007", "company_key": "greenhouse:andurilindustries", "location": "Costa Mesa, California, United States", "lat": 33.6633386, "lng": -117.903317, "first_published": "2026-07-09T10:20:08-04:00"}
{"url": "https://boards.greenhouse.io/andurilindustries/jobs/5177195007?gh_jid=5177195007", "company_key": "greenhouse:andurilindustries", "location": "Costa Mesa, California, United States", "lat": 33.6633386, "lng": -117.903317, "first_published": "2026-07-09T09:55:39-04:00"}
{"url": "https://boards.greenhouse.io/andurilindustries/jobs/5025986007?gh_jid=5025986007", "company_key": "greenhouse:andurilindustries", "location": "Costa Mesa, California, United States", "lat": 33.6633386, "lng": -117.903317, "first_published": "2026-07-09T20:47:09-04:00"}
{"url": "https://boards.greenhouse.io/andurilindustries/jobs/5183522007?gh_jid=5183522007", "company_key": "greenhouse:andurilindustries", "location": "Seattle, Washington, United States", "lat": 47.6038321, "lng": -122.330062, "first_published": "2026-07-09T13:31:11-04:00"}
{"url": "https://boards.greenhouse.io/andurilindustries/jobs/5183523007?gh_jid=5183523007", "company_key": "greenhouse:andurilindustries", "location": "Costa Mesa, California, United States", "lat": 33.6633386, "lng": -117.903317, "first_published": "2026-07-09T13:31:30-04:00"}
{"url": "https://boards.greenhouse.io/andurilindustries/jobs/5183808007?gh_jid=5183808007", "company_key": "greenhouse:andurilindustries", "location": "Quincy, Massachusetts, United States", "lat": null, "lng": null, "first_published": "2026-07-09T16:40:20-04:00"}
{"url": "https://boards.greenhouse.io/andurilindustries/jobs/5183497007?gh_jid=5183497007", "company_key": "greenhouse:andurilindustries", "location": "Costa Mesa, California, United States", "lat": 33.6633386, "lng": -117.903317, "first_published": "2026-07-09T13:04:40-04:00"}
{"url": "https://boards.greenhouse.io/andurilindustries/jobs/5183938007?gh_jid=5183938007", "company_key": "greenhouse:andurilindustries", "location": "Atlanta, Georgia, United States", "lat": 33.7544657, "lng": -84.3898151, "first_published": "2026-07-09T20:09:27-04:00"}
{"url": "https://boards.greenhouse.io/andurilindustries/jobs/5171647007?gh_jid=5171647007", "company_key": "greenhouse:andurilindustries", "location": "Costa Mesa, California, United States", "lat": 33.6633386, "lng": -117.903317, "first_published": "2026-07-09T17:27:10-04:00"}
{"url": "https://boards.greenhouse.io/andurilindustries/jobs/5176723007?gh_jid=5176723007", "company_key": "greenhouse:andurilindustries", "location": "Costa Mesa, California, United States", "lat": 33.6633386, "lng": -117.903317, "first_published": "2026-07-09T13:50:26-04:00"}
{"url": "https://boards.greenhouse.io/andurilindustries/jobs/5182286007?gh_jid=5182286007", "company_key": "greenhouse:andurilindustries", "location": "Morrisville, North Carolina, United States", "lat": null, "lng": null, "first_published": "2026-07-09T10:08:08-04:00"}
{"url": "https://boards.greenhouse.io/andurilindustries/jobs/5182977007?gh_jid=5182977007", "company_key": "greenhouse:andurilindustries", "location": "Lexington, Massachusetts, United States; Waltham, Massachusetts, United States", "lat": null, "lng": null, "first_published": "2026-07-08T19:16:26-04:00"}
{"url": "https://boards.greenhouse.io/andurilindustries/jobs/5182976007?gh_jid=5182976007", "company_key": "greenhouse:andurilindustries", "location": "Lexington, Massachusetts, United States; Waltham, Massachusetts, United States", "lat": null, "lng": null, "first_published": "2026-07-08T19:15:19-04:00"}
{"url": "https://boards.greenhouse.io/andurilindustries/jobs/5178967007?gh_jid=5178967007", "company_key": "greenhouse:andurilindustries", "location": "Lexington, Massachusetts, United States", "lat": 42.4473175, "lng": -71.2245003, "first_published": "2026-07-09T14:11:14-04:00"}
{"url": "https://boards.greenhouse.io/andurilindustries/jobs/5172924007?gh_jid=5172924007", "company_key": "greenhouse:andurilindustries", "location": "Costa Mesa, California, United States", "lat": 33.6633386, "lng": -117.903317, "first_published": "2026-07-08T19:55:50-04:00"}
{"url": "https://boards.greenhouse.io/andurilindustries/jobs/4992680007?gh_jid=4992680007", "company_key": "greenhouse:andurilindustries", "location": "Costa Mesa, California, United States", "lat": 33.6633386, "lng": -117.903317, "first_published": "2026-07-08T20:05:15-04:00"}
{"url": "https://job-boards.greenhouse.io/defenseunicorns/jobs/5183597007", "company_key": "greenhouse:defenseunicorns", "location": "Remote", "lat": 43.0059455, "lng": -123.8925908, "first_published": "2026-07-09T14:25:03-04:00"}
{"url": "https://job-boards.greenhouse.io/defenseunicorns/jobs/5183644007", "company_key": "greenhouse:defenseunicorns", "location": "Remote", "lat": 43.0059455, "lng": -123.8925908, "first_published": "2026-07-09T15:15:58-04:00"}
{"url": "https://job-boards.greenhouse.io/astranis/jobs/4609434006", "company_key": "greenhouse:astranis", "location": "San Francisco", "lat": 37.7879363, "lng": -122.4075201, "first_published": "2026-07-09T15:10:28-04:00"}
{"url": "https://job-boards.greenhouse.io/vardaspace/jobs/7799341003", "company_key": "greenhouse:vardaspace", "location": "El Segundo, California, United States", "lat": 33.917028, "lng": -118.4156337, "first_published": "2026-07-08T19:56:43-04:00"}
{"url": "https://job-boards.greenhouse.io/torcrobotics/jobs/8627037002", "company_key": "greenhouse:torcrobotics", "location": "Blacksburg, VA", "lat": null, "lng": null, "first_published": "2026-07-09T14:44:13-04:00"}
{"url": "https://job-boards.greenhouse.io/torcrobotics/jobs/8626477002", "company_key": "greenhouse:torcrobotics", "location": "Blacksburg, VA ", "lat": null, "lng": null, "first_published": "2026-07-09T11:12:39-04:00"}
{"url": "https://careers.airbnb.com/positions/8050663?gh_jid=8050663", "company_key": "greenhouse:airbnb", "location": "Gurugram, India", "lat": 28.4646148, "lng": 77.0299194, "first_published": "2026-07-09T03:30:53-04:00"}
{"url": "https://careers.airbnb.com/positions/8050665?gh_jid=8050665", "company_key": "greenhouse:airbnb", "location": "Gurugram, India", "lat": 28.4646148, "lng": 77.0299194, "first_published": "2026-07-09T06:18:37-04:00"}
{"url": "https://careers.airbnb.com/positions/8053429?gh_jid=8053429", "company_key": "greenhouse:airbnb", "location": "Ireland", "lat": null, "lng": null, "first_published": "2026-07-09T10:46:45-04:00"}
{"url": "https://careers.airbnb.com/positions/8053756?gh_jid=8053756", "company_key": "greenhouse:airbnb", "location": "United States ", "lat": null, "lng": null, "first_published": "2026-07-09T12:51:34-04:00"}
{"url": "https://careers.airbnb.com/positions/8054361?gh_jid=8054361", "company_key": "greenhouse:airbnb", "location": "United States ", "lat": null, "lng": null, "first_published": "2026-07-09T16:55:00-04:00"}
{"url": "https://stripe.com/jobs/search?gh_jid=8049828", "company_key": "greenhouse:stripe", "location": "NYC, SF", "lat": null, "lng": null, "first_published": "2026-07-09T12:04:59-04:00"}
{"url": "https://stripe.com/jobs/search?gh_jid=7728618", "company_key": "greenhouse:stripe", "location": "Remote", "lat": 43.0059455, "lng": -123.8925908, "first_published": "2026-07-09T15:42:53-04:00"}
{"url": "https://stripe.com/jobs/search?gh_jid=8043052", "company_key": "greenhouse:stripe", "location": "Singapore", "lat": 1.357107, "lng": 103.8194992, "first_published": "2026-07-08T23:44:22-04:00"}
{"url": "https://stripe.com/jobs/search?gh_jid=8048904", "company_key": "greenhouse:stripe", "location": "London, Dublin", "lat": null, "lng": null, "first_published": "2026-07-09T12:20:26-04:00"}
{"url": "https://stripe.com/jobs/search?gh_jid=8036325", "company_key": "greenhouse:stripe", "location": "SF, SEA, NYC, CHI, US-Remote", "lat": null, "lng": null, "first_published": "2026-07-09T15:58:30-04:00"}
{"url": "https://stripe.com/jobs/search?gh_jid=8051493", "company_key": "greenhouse:stripe", "location": "Dublin", "lat": 53.3493795, "lng": -6.2605593, "first_published": "2026-07-09T08:46:23-04:00"}
{"url": "https://stripe.com/jobs/search?gh_jid=8051488", "company_key": "greenhouse:stripe", "location": "Dublin", "lat": 53.3493795, "lng": -6.2605593, "first_published": "2026-07-09T08:43:42-04:00"}
{"url": "https://stripe.com/jobs/search?gh_jid=7370967", "company_key": "greenhouse:stripe", "location": "NYC, SF, Chi, Remote", "lat": null, "lng": null, "first_published": "2026-07-09T13:25:51-04:00"}
{"url": "https://boards.greenhouse.io/figma/jobs/6111309004?gh_jid=6111309004", "company_key": "greenhouse:figma", "location": "Singapore", "lat": 1.357107, "lng": 103.8194992, "first_published": "2026-07-08T20:04:17-04:00"}
{"url": "https://boards.greenhouse.io/figma/jobs/6111591004?gh_jid=6111591004", "company_key": "greenhouse:figma", "location": "London, England", "lat": null, "lng": null, "first_published": "2026-07-09T06:10:51-04:00"}
{"url": "https://boards.greenhouse.io/figma/jobs/6105673004?gh_jid=6105673004", "company_key": "greenhouse:figma", "location": "Tel Aviv, Israel", "lat": null, "lng": null, "first_published": "2026-07-09T10:24:34-04:00"}
{"url": "https://databricks.com/company/careers/open-positions/job?gh_jid=8625462002", "company_key": "greenhouse:databricks", "location": "United States", "lat": 39.7837304, "lng": -100.445882, "first_published": "2026-07-09T11:00:34-04:00"}
{"url": "https://databricks.com/company/careers/open-positions/job?gh_jid=8582991002", "company_key": "greenhouse:databricks", "location": "United States", "lat": 39.7837304, "lng": -100.445882, "first_published": "2026-07-09T12:32:12-04:00"}
{"url": "https://databricks.com/company/careers/open-positions/job?gh_jid=8604596002", "company_key": "greenhouse:databricks", "location": "West Coast - United States", "lat": null, "lng": null, "first_published": "2026-07-09T21:40:14-04:00"}
{"url": "https://databricks.com/company/careers/open-positions/job?gh_jid=8569631002", "company_key": "greenhouse:databricks", "location": "Toronto, Canada", "lat": 43.6534817, "lng": -79.3839347, "first_published": "2026-07-08T19:25:34-04:00"}
{"url": "https://databricks.com/company/careers/open-positions/job?gh_jid=8555674002", "company_key": "greenhouse:databricks", "location": "Singapore", "lat": 1.357107, "lng": 103.8194992, "first_published": "2026-07-09T03:15:12-04:00"}
{"url": "https://databricks.com/company/careers/open-positions/job?gh_jid=8605979002", "company_key": "greenhouse:databricks", "location": "Mountain View, California; San Francisco, California", "lat": null, "lng": null, "first_published": "2026-07-09T15:07:20-04:00"}
{"url": "https://app.careerpuck.com/job-board/lyft/job/8626589002?gh_jid=8626589002", "company_key": "greenhouse:lyft", "location": "San Francisco, CA", "lat": 37.7879363, "lng": -122.4075201, "first_published": "2026-07-09T17:41:58-04:00"}
{"url": "https://app.careerpuck.com/job-board/lyft/job/8620855002?gh_jid=8620855002", "company_key": "greenhouse:lyft", "location": "San Francisco, CA", "lat": 37.7879363, "lng": -122.4075201, "first_published": "2026-07-09T12:03:08-04:00"}
{"url": "https://app.careerpuck.com/job-board/lyft/job/8620949002?gh_jid=8620949002", "company_key": "greenhouse:lyft", "location": "New York, NY", "lat": 40.7127281, "lng": -74.0060152, "first_published": "2026-07-09T12:03:08-04:00"}
{"url": "https://www.pinterestcareers.com/jobs/?gh_jid=8027260", "company_key": "greenhouse:pinterest", "location": "San Francisco, CA, US; Remote, US", "lat": null, "lng": null, "first_published": "2026-07-09T15:31:12-04:00"}
{"url": "https://www.pinterestcareers.com/jobs/?gh_jid=8016658", "company_key": "greenhouse:pinterest", "location": "Singapore, SG", "lat": null, "lng": null, "first_published": "2026-07-08T20:42:25-04:00"}
{"url": "https://www.pinterestcareers.com/jobs/?gh_jid=8046836", "company_key": "greenhouse:pinterest", "location": "New York, NY, US; Remote, US", "lat": null, "lng": null, "first_published": "2026-07-09T14:41:26-04:00"}
{"url": "https://www.pinterestcareers.com/jobs/?gh_jid=8035781", "company_key": "greenhouse:pinterest", "location": "New York, NY, US", "lat": null, "lng": null, "first_published": "2026-07-09T08:58:55-04:00"}
{"url": "https://www.pinterestcareers.com/jobs/?gh_jid=8047377", "company_key": "greenhouse:pinterest", "location": "Singapore, SG", "lat": null, "lng": null, "first_published": "2026-07-08T20:38:04-04:00"}
{"url": "https://www.pinterestcareers.com/jobs/?gh_jid=8022497", "company_key": "greenhouse:pinterest", "location": "Dublin, IE", "lat": null, "lng": null, "first_published": "2026-07-09T13:20:32-04:00"}
{"url": "https://careers.duolingo.com/jobs/8627568002?gh_jid=8627568002", "company_key": "greenhouse:duolingo", "location": "New York, NY", "lat": 40.7127281, "lng": -74.0060152, "first_published": "2026-07-09T19:45:51-04:00"}
{"url": "https://careers.duolingo.com/jobs/8627565002?gh_jid=8627565002", "company_key": "greenhouse:duolingo", "location": "Pittsburgh, PA", "lat": 40.4406968, "lng": -80.0025666, "first_published": "2026-07-09T19:45:50-04:00"}
{"url": "http://www.squarespace.com/about/careers?gh_jid=8046062", "company_key": "greenhouse:squarespace", "location": "New York City", "lat": 40.7127281, "lng": -74.0060152, "first_published": "2026-07-09T09:44:57-04:00"}
{"url": "https://www.weareroku.com/jobs/8053526?gh_jid=8053526", "company_key": "greenhouse:roku", "location": "New York, New York", "lat": 40.7127281, "lng": -74.0060152, "first_published": "2026-07-09T13:54:06-04:00"}
{"url": "https://www.weareroku.com/jobs/8053375?gh_jid=8053375", "company_key": "greenhouse:roku", "location": "Santa Monica, California", "lat": null, "lng": null, "first_published": "2026-07-09T13:54:07-04:00"}
{"url": "https://www.weareroku.com/jobs/8054166?gh_jid=8054166", "company_key": "greenhouse:roku", "location": "Santa Monica, California", "lat": null, "lng": null, "first_published": "2026-07-09T14:50:48-04:00"}
{"url": "https://www.weareroku.com/jobs/8053900?gh_jid=8053900", "company_key": "greenhouse:roku", "location": "Austin, Texas", "lat": 30.2711286, "lng": -97.7436995, "first_published": "2026-07-09T13:41:31-04:00"}
{"url": "https://www.weareroku.com/jobs/8053865?gh_jid=8053865", "company_key": "greenhouse:roku", "location": "Boston, Massachusetts", "lat": null, "lng": null, "first_published": "2026-07-09T13:41:30-04:00"}
{"url": "https://www.weareroku.com/jobs/8053822?gh_jid=8053822", "company_key": "greenhouse:roku", "location": "San Jose, California", "lat": null, "lng": null, "first_published": "2026-07-09T13:41:30-04:00"}
{"url": "https://job-boards.greenhouse.io/twilio/jobs/8000762", "company_key": "greenhouse:twilio", "location": "Remote - US", "lat": 43.0059455, "lng": -123.8925908, "first_published": "2026-07-09T08:35:39-04:00"}
{"url": "https://job-boards.greenhouse.io/twilio/jobs/8048798", "company_key": "greenhouse:twilio", "location": "Remote - US", "lat": 43.0059455, "lng": -123.8925908, "first_published": "2026-07-09T13:38:55-04:00"}
{"url": "https://job-boards.greenhouse.io/twilio/jobs/8048796", "company_key": "greenhouse:twilio", "location": "Remote - US", "lat": 43.0059455, "lng": -123.8925908, "first_published": "2026-07-09T13:41:09-04:00"}
{"url": "https://job-boards.greenhouse.io/twilio/jobs/8016229", "company_key": "greenhouse:twilio", "location": "Remote - India", "lat": null, "lng": null, "first_published": "2026-07-09T00:03:54-04:00"}
{"url": "https://job-boards.greenhouse.io/twilio/jobs/8049158", "company_key": "greenhouse:twilio", "location": "Remote - US", "lat": 43.0059455, "lng": -123.8925908, "first_published": "2026-07-08T21:05:16-04:00"}
{"url": "https://boards.greenhouse.io/cloudflare/jobs/8052464?gh_jid=8052464", "company_key": "greenhouse:cloudflare", "location": "Hybrid", "lat": 47.1188391, "lng": 1.0982204, "first_published": "2026-07-09T12:40:35-04:00"}
{"url": "https://boards.greenhouse.io/cloudflare/jobs/8050386?gh_jid=8050386", "company_key": "greenhouse:cloudflare", "location": "Hybrid", "lat": 47.1188391, "lng": 1.0982204, "first_published": "2026-07-08T23:12:28-04:00"}
{"url": "https://boards.greenhouse.io/cloudflare/jobs/8046869?gh_jid=8046869", "company_key": "greenhouse:cloudflare", "location": "Hybrid", "lat": 47.1188391, "lng": 1.0982204, "first_published": "2026-07-09T12:06:22-04:00"}
{"url": "https://boards.greenhouse.io/cloudflare/jobs/8053546?gh_jid=8053546", "company_key": "greenhouse:cloudflare", "location": "In-Office", "lat": null, "lng": null, "first_published": "2026-07-09T11:18:01-04:00"}
{"url": "https://boards.greenhouse.io/cloudflare/jobs/8050384?gh_jid=8050384", "company_key": "greenhouse:cloudflare", "location": "Hybrid", "lat": 47.1188391, "lng": 1.0982204, "first_published": "2026-07-08T23:13:22-04:00"}
{"url": "https://boards.greenhouse.io/cloudflare/jobs/8043974?gh_jid=8043974", "company_key": "greenhouse:cloudflare", "location": "Hybrid", "lat": 47.1188391, "lng": 1.0982204, "first_published": "2026-07-09T15:53:44-04:00"}
{"url": "https://boards.greenhouse.io/cloudflare/jobs/8050813?gh_jid=8050813", "company_key": "greenhouse:cloudflare", "location": "In-Office", "lat": null, "lng": null, "first_published": "2026-07-09T11:17:49-04:00"}
{"url": "https://jobs.elastic.co/jobs?gh_jid=8049188&gh_jid=8049188", "company_key": "greenhouse:elastic", "location": "Bangalore, India", "lat": 12.9767936, "lng": 77.590082, "first_published": "2026-07-09T10:13:25-04:00"}
{"url": "https://jobs.elastic.co/jobs?gh_jid=8045331&gh_jid=8045331", "company_key": "greenhouse:elastic", "location": "Germany", "lat": 51.1638175, "lng": 10.4478313, "first_published": "2026-07-09T07:45:57-04:00"}
{"url": "https://jobs.elastic.co/jobs?gh_jid=8053062&gh_jid=8053062", "company_key": "greenhouse:elastic", "location": "Bangalore, India", "lat": 12.9767936, "lng": 77.590082, "first_published": "2026-07-09T13:06:32-04:00"}
{"url": "https://jobs.elastic.co/jobs?gh_jid=8050806&gh_jid=8050806", "company_key": "greenhouse:elastic", "location": "Barcelona, Spain", "lat": 41.3825802, "lng": 2.177073, "first_published": "2026-07-09T04:38:06-04:00"}
{"url": "https://jobs.elastic.co/jobs?gh_jid=8045062&gh_jid=8045062", "company_key": "greenhouse:elastic", "location": "Singapore", "lat": 1.357107, "lng": 103.8194992, "first_published": "2026-07-09T03:15:49-04:00"}
{"url": "https://jobs.elastic.co/jobs?gh_jid=8048313&gh_jid=8048313", "company_key": "greenhouse:elastic", "location": "Virginia, United States", "lat": null, "lng": null, "first_published": "2026-07-09T15:16:39-04:00"}
{"url": "https://jobs.elastic.co/jobs?gh_jid=8053957&gh_jid=8053957", "company_key": "greenhouse:elastic", "location": "Pennsylvania, United States", "lat": null, "lng": null, "first_published": "2026-07-09T15:16:40-04:00"}
{"url": "https://jobs.elastic.co/jobs?gh_jid=8053955&gh_jid=8053955", "company_key": "greenhouse:elastic", "location": "Florida, United States", "lat": null, "lng": null, "first_published": "2026-07-09T15:16:41-04:00"}
{"url": "https://jobs.elastic.co/jobs?gh_jid=8041466&gh_jid=8041466", "company_key": "greenhouse:elastic", "location": "Bangalore, India", "lat": 12.9767936, "lng": 77.590082, "first_published": "2026-07-09T01:50:04-04:00"}
{"url": "https://jobs.elastic.co/jobs?gh_jid=8035491&gh_jid=8035491", "company_key": "greenhouse:elastic", "location": "Barcelona, Spain", "lat": 41.3825802, "lng": 2.177073, "first_published": "2026-07-09T11:53:41-04:00"}
{"url": "https://jobs.elastic.co/jobs?gh_jid=8052990&gh_jid=8052990", "company_key": "greenhouse:elastic", "location": "Bangalore, India", "lat": 12.9767936, "lng": 77.590082, "first_published": "2026-07-09T07:12:46-04:00"}
{"url": "https://www.mongodb.com/careers/job/?gh_jid=7811528", "company_key": "greenhouse:mongodb", "location": "Gurugram", "lat": 28.4646148, "lng": 77.0299194, "first_published": "2026-07-09T06:11:37-04:00"}
{"url": "https://www.mongodb.com/careers/job/?gh_jid=8053367", "company_key": "greenhouse:mongodb", "location": "Chicago", "lat": 41.8755616, "lng": -87.6244212, "first_published": "2026-07-09T09:52:48-04:00"}
{"url": "https://www.mongodb.com/careers/job/?gh_jid=8053142", "company_key": "greenhouse:mongodb", "location": "Warsaw", "lat": 52.2333742, "lng": 21.0711489, "first_published": "2026-07-09T10:58:31-04:00"}
{"url": "https://www.mongodb.com/careers/job/?gh_jid=7918613", "company_key": "greenhouse:mongodb", "location": "Bengaluru", "lat": 12.9767936, "lng": 77.590082, "first_published": "2026-07-09T05:38:50-04:00"}
{"url": "https://www.samsara.com/company/careers/roles/8053767?gh_jid=8053767", "company_key": "greenhouse:samsara", "location": "Remote - US", "lat": 43.0059455, "lng": -123.8925908, "first_published": "2026-07-09T12:58:02-04:00"}
{"url": "https://www.samsara.com/company/careers/roles/8044609?gh_jid=8044609", "company_key": "greenhouse:samsara", "location": "Remote - Seattle", "lat": null, "lng": null, "first_published": "2026-07-09T18:16:01-04:00"}
{"url": "https://www.samsara.com/company/careers/roles/8042387?gh_jid=8042387", "company_key": "greenhouse:samsara", "location": "Remote - UK", "lat": null, "lng": null, "first_published": "2026-07-09T06:54:48-04:00"}
{"url": "https://job-boards.greenhouse.io/webflow/jobs/8054253", "company_key": "greenhouse:webflow", "location": "CA Remote (BC & ON only); U.S. Remote", "lat": null, "lng": null, "first_published": "2026-07-09T17:31:42-04:00"}
{"url": "https://www.okta.com/company/careers/opportunity/8004104?gh_jid=8004104", "company_key": "greenhouse:okta", "location": "Washington, DC", "lat": 38.8950982, "lng": -77.0363849, "first_published": "2026-07-09T13:52:28-04:00"}
{"url": "https://www.okta.com/company/careers/opportunity/8046884?gh_jid=8046884", "company_key": "greenhouse:okta", "location": "Bellevue, Washington; Chicago, Illinois; San Francisco, California", "lat": null, "lng": null, "first_published": "2026-07-08T20:42:16-04:00"}
{"url": "https://www.okta.com/company/careers/opportunity/8050798?gh_jid=8050798", "company_key": "greenhouse:okta", "location": "Bellevue, Washington; Chicago, Illinois; New York, New York; Washington, DC", "lat": null, "lng": null, "first_published": "2026-07-09T09:31:16-04:00"}
{"url": "https://www.okta.com/company/careers/opportunity/8050396?gh_jid=8050396", "company_key": "greenhouse:okta", "location": "Singapore", "lat": 1.357107, "lng": 103.8194992, "first_published": "2026-07-08T23:36:39-04:00"}
{"url": "https://careers.toasttab.com/jobs?gh_jid=8052231", "company_key": "greenhouse:toast", "location": "Brooklyn, NY ", "lat": null, "lng": null, "first_published": "2026-07-09T14:03:33-04:00"}
{"url": "https://careers.toasttab.com/jobs?gh_jid=8052229", "company_key": "greenhouse:toast", "location": "OKC/Tulsa, OK", "lat": null, "lng": null, "first_published": "2026-07-09T14:03:40-04:00"}
{"url": "https://careers.toasttab.com/jobs?gh_jid=8052227", "company_key": "greenhouse:toast", "location": "Virginia", "lat": null, "lng": null, "first_published": "2026-07-09T14:03:14-04:00"}
{"url": "https://careers.toasttab.com/jobs?gh_jid=8051430", "company_key": "greenhouse:toast", "location": "London, UK", "lat": 51.5074456, "lng": -0.1277653, "first_published": "2026-07-09T04:26:48-04:00"}
{"url": "https://careers.toasttab.com/jobs?gh_jid=8029612", "company_key": "greenhouse:toast", "location": "Remote", "lat": 43.0059455, "lng": -123.8925908, "first_published": "2026-07-09T15:53:47-04:00"}
{"url": "https://careers.toasttab.com/jobs?gh_jid=8031086", "company_key": "greenhouse:toast", "location": "Remote, US", "lat": 43.0059455, "lng": -123.8925908, "first_published": "2026-07-09T10:54:23-04:00"}
{"url": "https://careers.toasttab.com/jobs?gh_jid=8049262", "company_key": "greenhouse:toast", "location": "Scranton, PA", "lat": null, "lng": null, "first_published": "2026-07-09T17:00:25-04:00"}
{"url": "https://careers.toasttab.com/jobs?gh_jid=8048977", "company_key": "greenhouse:toast", "location": "Tallahassee, FL ", "lat": null, "lng": null, "first_published": "2026-07-09T13:54:34-04:00"}
{"url": "https://job-boards.greenhouse.io/pagerduty/jobs/6110780004", "company_key": "greenhouse:pagerduty", "location": "Remote (USA - Washington DC-Baltimore Area); Remote (USA)", "lat": null, "lng": null, "first_published": "2026-07-09T10:21:29-04:00"}
{"url": "https://job-boards.greenhouse.io/gitlab/jobs/8607271002", "company_key": "greenhouse:gitlab", "location": "Remote, India", "lat": null, "lng": null, "first_published": "2026-07-09T01:10:49-04:00"}
{"url": "https://job-boards.greenhouse.io/gitlab/jobs/8592710002", "company_key": "greenhouse:gitlab", "location": "Remote, US", "lat": 43.0059455, "lng": -123.8925908, "first_published": "2026-07-09T10:03:22-04:00"}
{"url": "https://job-boards.greenhouse.io/gitlab/jobs/8623577002", "company_key": "greenhouse:gitlab", "location": "Remote, Australia", "lat": null, "lng": null, "first_published": "2026-07-09T00:52:59-04:00"}
{"url": "https://job-boards.greenhouse.io/gitlab/jobs/8623542002", "company_key": "greenhouse:gitlab", "location": "Remote, Japan", "lat": null, "lng": null, "first_published": "2026-07-09T02:57:34-04:00"}
{"url": "https://job-boards.greenhouse.io/clickhouse/jobs/6110227004", "company_key": "greenhouse:clickhouse", "location": "United States", "lat": 39.7837304, "lng": -100.445882, "first_published": "2026-07-09T17:30:05-04:00"}
{"url": "https://job-boards.greenhouse.io/clickhouse/jobs/6006037004", "company_key": "greenhouse:clickhouse", "location": "San Francisco or New York", "lat": null, "lng": null, "first_published": "2026-07-09T09:37:43-04:00"}
{"url": "https://job-boards.greenhouse.io/clickhouse/jobs/6103393004", "company_key": "greenhouse:clickhouse", "location": "Germany", "lat": 51.1638175, "lng": 10.4478313, "first_published": "2026-07-09T18:16:38-04:00"}
{"url": "https://job-boards.greenhouse.io/clickhouse/jobs/6107518004", "company_key": "greenhouse:clickhouse", "location": "Israel (remote)", "lat": null, "lng": null, "first_published": "2026-07-09T08:23:51-04:00"}
{"url": "https://job-boards.greenhouse.io/clickhouse/jobs/6107517004", "company_key": "greenhouse:clickhouse", "location": "UK (remote)", "lat": null, "lng": null, "first_published": "2026-07-09T08:23:50-04:00"}
{"url": "https://job-boards.greenhouse.io/clickhouse/jobs/6107516004", "company_key": "greenhouse:clickhouse", "location": "Germany (remote)", "lat": null, "lng": null, "first_published": "2026-07-09T08:23:48-04:00"}
{"url": "https://job-boards.greenhouse.io/clickhouse/jobs/6107515004", "company_key": "greenhouse:clickhouse", "location": "Canada (Remote)", "lat": null, "lng": null, "first_published": "2026-07-09T08:23:47-04:00"}
{"url": "https://job-boards.greenhouse.io/newrelic/jobs/5310897008", "company_key": "greenhouse:newrelic", "location": "Atlanta, Georgia, USA; Austin, Texas, USA; Portland, Oregon, USA", "lat": null, "lng": null, "first_published": "2026-07-09T13:35:39-04:00"}
{"url": "https://careers.datadoghq.com/detail/8050644/?gh_jid=8050644", "company_key": "greenhouse:datadog", "location": "Singapore, Singapore", "lat": null, "lng": null, "first_published": "2026-07-09T04:13:51-04:00"}
{"url": "https://careers.datadoghq.com/detail/7409175/?gh_jid=7409175", "company_key": "greenhouse:datadog", "location": "Paris, France; Switzerland, Remote", "lat": null, "lng": null, "first_published": "2026-07-09T09:10:38-04:00"}
{"url": "https://careers.datadoghq.com/detail/8042602/?gh_jid=8042602", "company_key": "greenhouse:datadog", "location": "Singapore, Singapore", "lat": null, "lng": null, "first_published": "2026-07-09T05:17:10-04:00"}
{"url": "https://careers.datadoghq.com/detail/8035726/?gh_jid=8035726", "company_key": "greenhouse:datadog", "location": "Singapore, Singapore", "lat": null, "lng": null, "first_published": "2026-07-09T06:06:48-04:00"}
{"url": "https://job-boards.greenhouse.io/vercel/jobs/6112143004", "company_key": "greenhouse:vercel", "location": "Hybrid - San Francisco, New York City, Austin", "lat": null, "lng": null, "first_published": "2026-07-08T19:57:32-04:00"}
{"url": "https://www.brex.com/careers/8627225002?gh_jid=8627225002", "company_key": "greenhouse:brex", "location": "San Francisco, California, United States", "lat": 37.7879363, "lng": -122.4075201, "first_published": "2026-07-09T15:52:40-04:00"}
{"url": "https://www.brex.com/careers/8627262002?gh_jid=8627262002", "company_key": "greenhouse:brex", "location": "New York, New York, United States", "lat": 40.7127281, "lng": -74.0060152, "first_published": "2026-07-09T15:54:07-04:00"}
{"url": "https://www.brex.com/careers/8627269002?gh_jid=8627269002", "company_key": "greenhouse:brex", "location": "Seattle, Washington, United States", "lat": 47.6038321, "lng": -122.330062, "first_published": "2026-07-09T15:57:17-04:00"}
{"url": "https://www.brex.com/careers/8627283002?gh_jid=8627283002", "company_key": "greenhouse:brex", "location": "Salt Lake City, Utah, United States", "lat": 40.7596198, "lng": -111.886797, "first_published": "2026-07-09T15:59:36-04:00"}
{"url": "https://www.brex.com/careers/8627541002?gh_jid=8627541002", "company_key": "greenhouse:brex", "location": "San Francisco, California, United States", "lat": 37.7879363, "lng": -122.4075201, "first_published": "2026-07-09T19:28:49-04:00"}
{"url": "https://www.brex.com/careers/8627546002?gh_jid=8627546002", "company_key": "greenhouse:brex", "location": "New York, New York, United States", "lat": 40.7127281, "lng": -74.0060152, "first_published": "2026-07-09T19:28:50-04:00"}
{"url": "https://www.brex.com/careers/8627514002?gh_jid=8627514002", "company_key": "greenhouse:brex", "location": "S\u00e3o Paulo, S\u00e3o Paulo, Brazil", "lat": -23.5506507, "lng": -46.6333824, "first_published": "2026-07-09T19:03:36-04:00"}
{"url": "https://job-boards.greenhouse.io/gusto/jobs/8039570", "company_key": "greenhouse:gusto", "location": "San Francisco, CA", "lat": 37.7879363, "lng": -122.4075201, "first_published": "2026-07-09T19:27:49-04:00"}
{"url": "https://www.coinbase.com/careers/positions/8054055?gh_jid=8054055", "company_key": "greenhouse:coinbase", "location": "Remote - India", "lat": null, "lng": null, "first_published": "2026-07-09T14:24:09-04:00"}
{"url": "https://www.coinbase.com/careers/positions/8053751?gh_jid=8053751", "company_key": "greenhouse:coinbase", "location": "Remote - Cyprus", "lat": null, "lng": null, "first_published": "2026-07-09T12:25:25-04:00"}
{"url": "https://www.coinbase.com/careers/positions/8054153?gh_jid=8054153", "company_key": "greenhouse:coinbase", "location": "Remote - India", "lat": null, "lng": null, "first_published": "2026-07-09T15:05:42-04:00"}
{"url": "https://job-boards.greenhouse.io/affirm/jobs/7799164003", "company_key": "greenhouse:affirm", "location": "Remote US", "lat": 43.0059455, "lng": -123.8925908, "first_published": "2026-07-09T09:01:54-04:00"}
{"url": "https://job-boards.greenhouse.io/affirm/jobs/7793001003", "company_key": "greenhouse:affirm", "location": "Remote US", "lat": 43.0059455, "lng": -123.8925908, "first_published": "2026-07-09T09:09:25-04:00"}
{"url": "https://job-boards.greenhouse.io/affirm/jobs/7791742003", "company_key": "greenhouse:affirm", "location": "Remote US", "lat": 43.0059455, "lng": -123.8925908, "first_published": "2026-07-09T18:31:31-04:00"}
{"url": "https://job-boards.greenhouse.io/affirm/jobs/7792932003", "company_key": "greenhouse:affirm", "location": "Remote Canada", "lat": 70.8553058, "lng": -70.9174507, "first_published": "2026-07-09T17:11:30-04:00"}
{"url": "https://job-boards.greenhouse.io/carta/jobs/7798948003", "company_key": "greenhouse:carta", "location": "London, United Kingdom", "lat": 51.5074456, "lng": -0.1277653, "first_published": "2026-07-09T10:28:02-04:00"}
{"url": "https://job-boards.greenhouse.io/carta/jobs/7798919003", "company_key": "greenhouse:carta", "location": "London, United Kingdom", "lat": 51.5074456, "lng": -0.1277653, "first_published": "2026-07-09T10:38:15-04:00"}
{"url": "https://job-boards.greenhouse.io/carta/jobs/7798935003", "company_key": "greenhouse:carta", "location": "London, United Kingdom", "lat": 51.5074456, "lng": -0.1277653, "first_published": "2026-07-09T10:33:12-04:00"}
{"url": "https://sofi.com/careers/job/7800206003?gh_jid=7800206003", "company_key": "greenhouse:sofi", "location": "TX - Frisco", "lat": null, "lng": null, "first_published": "2026-07-09T15:23:57-04:00"}
{"url": "https://boards.greenhouse.io/embed/job_app?for=gemini&token=8053939&gh_jid=8053939", "company_key": "greenhouse:gemini", "location": "New York, New York; Miami, Florida; Remote (USA)", "lat": null, "lng": null, "first_published": "2026-07-09T15:27:17-04:00"}
{"url": "https://job-boards.greenhouse.io/bitgo/jobs/8627534002", "company_key": "greenhouse:bitgo", "location": "Singapore, North West, Singapore", "lat": null, "lng": null, "first_published": "2026-07-09T19:17:39-04:00"}
{"url": "https://job-boards.greenhouse.io/bitgo/jobs/8627529002", "company_key": "greenhouse:bitgo", "location": "London, England, United Kingdom", "lat": 51.5074456, "lng": -0.1277653, "first_published": "2026-07-09T19:13:10-04:00"}
{"url": "https://job-boards.greenhouse.io/alpaca/jobs/6112162004", "company_key": "greenhouse:alpaca", "location": "Remote - APAC", "lat": null, "lng": null, "first_published": "2026-07-08T19:11:33-04:00"}
{"url": "https://job-boards.greenhouse.io/alpaca/jobs/6112157004", "company_key": "greenhouse:alpaca", "location": "Remote - North America ", "lat": null, "lng": null, "first_published": "2026-07-09T15:42:52-04:00"}
{"url": "https://boards.greenhouse.io/chime/jobs/8584950002?gh_jid=8584950002", "company_key": "greenhouse:chime", "location": "San Francisco, CA, USA", "lat": 37.7879363, "lng": -122.4075201, "first_published": "2026-07-09T12:45:12-04:00"}
{"url": "https://boards.greenhouse.io/chime/jobs/8624510002?gh_jid=8624510002", "company_key": "greenhouse:chime", "location": "San Francisco, CA, USA", "lat": 37.7879363, "lng": -122.4075201, "first_published": "2026-07-08T20:01:48-04:00"}
{"url": "https://www.asana.com/jobs/apply/8029480?gh_jid=8029480", "company_key": "greenhouse:asana", "location": "Warsaw", "lat": 52.2333742, "lng": 21.0711489, "first_published": "2026-07-09T15:21:22-04:00"}
{"url": "https://www.asana.com/jobs/apply/8049872?gh_jid=8049872", "company_key": "greenhouse:asana", "location": "Vancouver, BC", "lat": null, "lng": null, "first_published": "2026-07-08T20:44:40-04:00"}
{"url": "https://www.asana.com/jobs/apply/8028603?gh_jid=8028603", "company_key": "greenhouse:asana", "location": "San Francisco", "lat": 37.7879363, "lng": -122.4075201, "first_published": "2026-07-08T20:44:38-04:00"}
{"url": "https://www.asana.com/jobs/apply/8049867?gh_jid=8049867", "company_key": "greenhouse:asana", "location": "Chicago", "lat": 41.8755616, "lng": -87.6244212, "first_published": "2026-07-08T20:44:39-04:00"}
{"url": "https://www.asana.com/jobs/apply/8017552?gh_jid=8017552", "company_key": "greenhouse:asana", "location": "Warsaw", "lat": 52.2333742, "lng": 21.0711489, "first_published": "2026-07-09T12:21:42-04:00"}
{"url": "https://www.asana.com/jobs/apply/8022094?gh_jid=8022094", "company_key": "greenhouse:asana", "location": "Warsaw", "lat": 52.2333742, "lng": 21.0711489, "first_published": "2026-07-09T08:40:41-04:00"}
{"url": "https://www.asana.com/jobs/apply/7977197?gh_jid=7977197", "company_key": "greenhouse:asana", "location": "New York City", "lat": 40.7127281, "lng": -74.0060152, "first_published": "2026-07-09T14:29:49-04:00"}
{"url": "https://www.asana.com/jobs/apply/8022196?gh_jid=8022196", "company_key": "greenhouse:asana", "location": "San Francisco", "lat": 37.7879363, "lng": -122.4075201, "first_published": "2026-07-09T12:05:25-04:00"}
{"url": "https://job-boards.greenhouse.io/airtable/jobs/8626638002", "company_key": "greenhouse:airtable", "location": "Austin, TX", "lat": 30.2711286, "lng": -97.7436995, "first_published": "2026-07-09T12:34:15-04:00"}
{"url": "https://job-boards.greenhouse.io/mixpanel/jobs/8040016", "company_key": "greenhouse:mixpanel", "location": "Sydney, Australia (Hybrid)", "lat": null, "lng": null, "first_published": "2026-07-09T21:36:02-04:00"}
{"url": "https://job-boards.greenhouse.io/mixpanel/jobs/8040010", "company_key": "greenhouse:mixpanel", "location": "Sydney, Australia (Hybrid)", "lat": null, "lng": null, "first_published": "2026-07-09T21:44:25-04:00"}
{"url": "https://job-boards.greenhouse.io/mixpanel/jobs/8039885", "company_key": "greenhouse:mixpanel", "location": "Sydney, Australia (Hybrid)", "lat": null, "lng": null, "first_published": "2026-07-09T21:40:48-04:00"}
{"url": "https://job-boards.greenhouse.io/mixpanel/jobs/8039991", "company_key": "greenhouse:mixpanel", "location": "Sydney, Australia (Hybrid)", "lat": null, "lng": null, "first_published": "2026-07-09T21:38:11-04:00"}
{"url": "https://job-boards.greenhouse.io/mixpanel/jobs/8053868", "company_key": "greenhouse:mixpanel", "location": "San Francisco, US (Remote)", "lat": null, "lng": null, "first_published": "2026-07-09T13:28:15-04:00"}
{"url": "https://abnormal.ai/careers/jobs/7799508003?gh_jid=7799508003", "company_key": "greenhouse:abnormalsecurity", "location": "Remote - Australia", "lat": null, "lng": null, "first_published": "2026-07-09T18:52:09-04:00"}
{"url": "https://www.wiz.io/careers/job/4695126006/:title?gh_jid=4695126006", "company_key": "greenhouse:wizinc", "location": "Remote - United Kingdom", "lat": null, "lng": null, "first_published": "2026-07-09T12:21:02-04:00"}
{"url": "https://www.wiz.io/careers/job/4694452006/:title?gh_jid=4694452006", "company_key": "greenhouse:wizinc", "location": "Remote - South Korea", "lat": null, "lng": null, "first_published": "2026-07-09T01:19:48-04:00"}
{"url": "https://www.wiz.io/careers/job/4694458006/:title?gh_jid=4694458006", "company_key": "greenhouse:wizinc", "location": "Remote - Singapore", "lat": null, "lng": null, "first_published": "2026-07-09T01:21:47-04:00"}
{"url": "https://flatiron.com/careers/open-positions/job?gh_jid=8013384", "company_key": "greenhouse:flatironhealth", "location": "London office", "lat": null, "lng": null, "first_published": "2026-07-09T08:41:40-04:00"}
{"url": "https://flatiron.com/careers/open-positions/job?gh_jid=8013372", "company_key": "greenhouse:flatironhealth", "location": "Berlin office", "lat": null, "lng": null, "first_published": "2026-07-09T08:41:58-04:00"}
{"url": "http://www.onemedical.com/careers/all-departments/8053552?gh_jid=8053552", "company_key": "greenhouse:onemedical", "location": "Palo Alto, CA", "lat": 37.4443293, "lng": -122.1598465, "first_published": "2026-07-09T10:48:49-04:00"}
{"url": "http://www.onemedical.com/careers/all-departments/8054531?gh_jid=8054531", "company_key": "greenhouse:onemedical", "location": "Englewood, NJ", "lat": null, "lng": null, "first_published": "2026-07-09T18:01:02-04:00"}
{"url": "http://www.onemedical.com/careers/all-departments/8054567?gh_jid=8054567", "company_key": "greenhouse:onemedical", "location": "Edgewater, NJ", "lat": null, "lng": null, "first_published": "2026-07-09T18:02:12-04:00"}
{"url": "http://www.onemedical.com/careers/all-departments/8052655?gh_jid=8052655", "company_key": "greenhouse:onemedical", "location": "Chicago, IL ", "lat": null, "lng": null, "first_published": "2026-07-08T18:38:28-04:00"}
{"url": "http://www.onemedical.com/careers/all-departments/8041990?gh_jid=8041990", "company_key": "greenhouse:onemedical", "location": "Concord, CA", "lat": null, "lng": null, "first_published": "2026-07-09T13:30:46-04:00"}
{"url": "http://www.onemedical.com/careers/all-departments/8053924?gh_jid=8053924", "company_key": "greenhouse:onemedical", "location": "Berkeley, CA", "lat": 37.8708393, "lng": -122.272863, "first_published": "2026-07-09T13:30:37-04:00"}
{"url": "http://www.onemedical.com/careers/all-departments/8052920?gh_jid=8052920", "company_key": "greenhouse:onemedical", "location": "Aurora, CO", "lat": null, "lng": null, "first_published": "2026-07-09T01:22:31-04:00"}
{"url": "http://www.onemedical.com/careers/all-departments/8052921?gh_jid=8052921", "company_key": "greenhouse:onemedical", "location": "Aurora, CO", "lat": null, "lng": null, "first_published": "2026-07-09T01:23:44-04:00"}
{"url": "http://www.onemedical.com/careers/all-departments/8053325?gh_jid=8053325", "company_key": "greenhouse:onemedical", "location": "Washington, DC", "lat": 38.8950982, "lng": -77.0363849, "first_published": "2026-07-09T09:30:52-04:00"}
{"url": "http://www.onemedical.com/careers/all-departments/8053432?gh_jid=8053432", "company_key": "greenhouse:onemedical", "location": "Bethesda, MD", "lat": null, "lng": null, "first_published": "2026-07-09T10:10:05-04:00"}
{"url": "http://www.onemedical.com/careers/all-departments/8054570?gh_jid=8054570", "company_key": "greenhouse:onemedical", "location": "Hoboken, NJ", "lat": null, "lng": null, "first_published": "2026-07-09T18:03:56-04:00"}
{"url": "http://www.onemedical.com/careers/all-departments/8052784?gh_jid=8052784", "company_key": "greenhouse:onemedical", "location": "Mill Valley, CA", "lat": null, "lng": null, "first_published": "2026-07-08T20:47:25-04:00"}
{"url": "http://www.onemedical.com/careers/all-departments/8054370?gh_jid=8054370", "company_key": "greenhouse:onemedical", "location": "Portland, OR", "lat": 45.5202471, "lng": -122.674194, "first_published": "2026-07-09T16:38:27-04:00"}
{"url": "http://www.onemedical.com/careers/all-departments/8052657?gh_jid=8052657", "company_key": "greenhouse:onemedical", "location": "Chicago, IL", "lat": 41.8755616, "lng": -87.6244212, "first_published": "2026-07-08T18:41:41-04:00"}
{"url": "http://www.onemedical.com/careers/all-departments/8052659?gh_jid=8052659", "company_key": "greenhouse:onemedical", "location": "Chicago, IL", "lat": 41.8755616, "lng": -87.6244212, "first_published": "2026-07-08T18:41:43-04:00"}
{"url": "http://www.onemedical.com/careers/all-departments/8050054?gh_jid=8050054", "company_key": "greenhouse:onemedical", "location": "Portland, OR", "lat": 45.5202471, "lng": -122.674194, "first_published": "2026-07-09T16:33:29-04:00"}
{"url": "http://www.onemedical.com/careers/all-departments/8053946?gh_jid=8053946", "company_key": "greenhouse:onemedical", "location": "Oakland, CA", "lat": null, "lng": null, "first_published": "2026-07-09T13:39:58-04:00"}
{"url": "http://www.onemedical.com/careers/all-departments/8053765?gh_jid=8053765", "company_key": "greenhouse:onemedical", "location": "San Francisco, CA", "lat": 37.7879363, "lng": -122.4075201, "first_published": "2026-07-09T12:34:17-04:00"}
{"url": "http://www.onemedical.com/careers/all-departments/8053956?gh_jid=8053956", "company_key": "greenhouse:onemedical", "location": "San Francisco, CA", "lat": 37.7879363, "lng": -122.4075201, "first_published": "2026-07-09T13:45:16-04:00"}
{"url": "http://www.onemedical.com/careers/all-departments/8053970?gh_jid=8053970", "company_key": "greenhouse:onemedical", "location": "San Francisco, CA", "lat": 37.7879363, "lng": -122.4075201, "first_published": "2026-07-09T13:46:28-04:00"}
{"url": "http://www.onemedical.com/careers/all-departments/8053699?gh_jid=8053699", "company_key": "greenhouse:onemedical", "location": "Sunnyvale, CA", "lat": null, "lng": null, "first_published": "2026-07-09T12:04:49-04:00"}
{"url": "http://www.onemedical.com/careers/all-departments/8053344?gh_jid=8053344", "company_key": "greenhouse:onemedical", "location": "Washington, DC", "lat": 38.8950982, "lng": -77.0363849, "first_published": "2026-07-09T09:32:48-04:00"}
{"url": "http://www.onemedical.com/careers/all-departments/8054572?gh_jid=8054572", "company_key": "greenhouse:onemedical", "location": "Hoboken, NJ", "lat": null, "lng": null, "first_published": "2026-07-09T18:04:49-04:00"}
{"url": "http://www.onemedical.com/careers/all-departments/8053954?gh_jid=8053954", "company_key": "greenhouse:onemedical", "location": "Concord, CA", "lat": null, "lng": null, "first_published": "2026-07-09T13:44:32-04:00"}
{"url": "http://www.onemedical.com/careers/all-departments/8053953?gh_jid=8053953", "company_key": "greenhouse:onemedical", "location": "Berkeley, CA", "lat": 37.8708393, "lng": -122.272863, "first_published": "2026-07-09T13:42:06-04:00"}
{"url": "https://job-boards.greenhouse.io/natera/jobs/6112949004", "company_key": "greenhouse:natera", "location": "Tucson, AZ", "lat": null, "lng": null, "first_published": "2026-07-09T17:53:39-04:00"}
{"url": "https://job-boards.greenhouse.io/natera/jobs/6104513004", "company_key": "greenhouse:natera", "location": "Portland, ME", "lat": null, "lng": null, "first_published": "2026-07-09T11:37:45-04:00"}
{"url": "https://job-boards.greenhouse.io/natera/jobs/6111260004", "company_key": "greenhouse:natera", "location": "Chicago, IL", "lat": 41.8755616, "lng": -87.6244212, "first_published": "2026-07-09T17:32:56-04:00"}
{"url": "https://job-boards.greenhouse.io/natera/jobs/6112059004", "company_key": "greenhouse:natera", "location": "US Remote", "lat": 43.0059455, "lng": -123.8925908, "first_published": "2026-07-08T18:59:41-04:00"}
{"url": "https://job-boards.greenhouse.io/natera/jobs/6110598004", "company_key": "greenhouse:natera", "location": "San Carlos, CA", "lat": null, "lng": null, "first_published": "2026-07-09T17:24:23-04:00"}
{"url": "https://job-boards.greenhouse.io/natera/jobs/6110225004", "company_key": "greenhouse:natera", "location": "US Remote", "lat": 43.0059455, "lng": -123.8925908, "first_published": "2026-07-09T17:24:22-04:00"}
{"url": "https://job-boards.greenhouse.io/natera/jobs/5734564004", "company_key": "greenhouse:natera", "location": "Austin, TX", "lat": 30.2711286, "lng": -97.7436995, "first_published": "2026-07-09T17:09:32-04:00"}
{"url": "https://job-boards.greenhouse.io/natera/jobs/6112686004", "company_key": "greenhouse:natera", "location": "Boulder, CO", "lat": null, "lng": null, "first_published": "2026-07-09T13:16:45-04:00"}
{"url": "https://job-boards.greenhouse.io/natera/jobs/6112760004", "company_key": "greenhouse:natera", "location": "Boulder, CO", "lat": null, "lng": null, "first_published": "2026-07-09T13:19:29-04:00"}
{"url": "https://job-boards.greenhouse.io/freenome/jobs/8616849002", "company_key": "greenhouse:freenome", "location": "Remote", "lat": 43.0059455, "lng": -123.8925908, "first_published": "2026-07-09T15:28:03-04:00"}
{"url": "https://job-boards.greenhouse.io/billiontoone/jobs/4711331005", "company_key": "greenhouse:billiontoone", "location": "Remote", "lat": 43.0059455, "lng": -123.8925908, "first_published": "2026-07-08T19:55:00-04:00"}
{"url": "https://job-boards.greenhouse.io/garnerhealth/jobs/6112985004", "company_key": "greenhouse:garnerhealth", "location": "Remote", "lat": 43.0059455, "lng": -123.8925908, "first_published": "2026-07-09T17:52:50-04:00"}
{"url": "https://job-boards.greenhouse.io/garnerhealth/jobs/6112922004", "company_key": "greenhouse:garnerhealth", "location": "New York City, New York", "lat": null, "lng": null, "first_published": "2026-07-09T15:38:14-04:00"}
{"url": "https://job-boards.greenhouse.io/garnerhealth/jobs/6113093004", "company_key": "greenhouse:garnerhealth", "location": "New York City, New York", "lat": null, "lng": null, "first_published": "2026-07-09T19:09:42-04:00"}
{"url": "https://job-boards.greenhouse.io/garnerhealth/jobs/6112552004", "company_key": "greenhouse:garnerhealth", "location": "Remote", "lat": 43.0059455, "lng": -123.8925908, "first_published": "2026-07-09T11:17:42-04:00"}
{"url": "https://job-boards.greenhouse.io/garnerhealth/jobs/6112947004", "company_key": "greenhouse:garnerhealth", "location": "New York City, New York", "lat": null, "lng": null, "first_published": "2026-07-09T17:01:51-04:00"}
{"url": "https://job-boards.greenhouse.io/garnerhealth/jobs/6113066004", "company_key": "greenhouse:garnerhealth", "location": "Remote", "lat": 43.0059455, "lng": -123.8925908, "first_published": "2026-07-09T18:30:37-04:00"}
{"url": "https://job-boards.greenhouse.io/iterativehealth/jobs/4695430006", "company_key": "greenhouse:iterativehealth", "location": "New Albany, IN", "lat": null, "lng": null, "first_published": "2026-07-09T15:50:32-04:00"}
{"url": "https://job-boards.greenhouse.io/iterativehealth/jobs/4695429006", "company_key": "greenhouse:iterativehealth", "location": "New Albany, IN", "lat": null, "lng": null, "first_published": "2026-07-09T12:04:03-04:00"}
{"url": "https://job-boards.greenhouse.io/iterativehealth/jobs/4695759006", "company_key": "greenhouse:iterativehealth", "location": "Tyler, Texas", "lat": null, "lng": null, "first_published": "2026-07-09T14:20:22-04:00"}
{"url": "https://job-boards.greenhouse.io/iterativehealth/jobs/4695753006", "company_key": "greenhouse:iterativehealth", "location": "Orlando, FL", "lat": 28.5421218, "lng": -81.379045, "first_published": "2026-07-09T12:06:37-04:00"}
{"url": "https://aurora.tech/jobs/8618752002?gh_jid=8618752002", "company_key": "greenhouse:aurorainnovation", "location": "Mountain View, California", "lat": null, "lng": null, "first_published": "2026-07-09T18:34:26-04:00"}
{"url": "https://aurora.tech/jobs/8618756002?gh_jid=8618756002", "company_key": "greenhouse:aurorainnovation", "location": "Dallas, Texas", "lat": 32.7762719, "lng": -96.7968559, "first_published": "2026-07-09T11:12:23-04:00"}
{"url": "https://aurora.tech/jobs/8627479002?gh_jid=8627479002", "company_key": "greenhouse:aurorainnovation", "location": "Pittsburgh, Pennsylvania", "lat": null, "lng": null, "first_published": "2026-07-09T18:30:47-04:00"}
{"url": "https://motional.com/open-positions/?gh_jid=7799671003#/7799671003", "company_key": "greenhouse:motional", "location": "Boston, Massachusetts, United States", "lat": 42.3588336, "lng": -71.0578303, "first_published": "2026-07-09T10:10:05-04:00"}
{"url": "https://motional.com/open-positions/?gh_jid=7799677003#/7799677003", "company_key": "greenhouse:motional", "location": "Pittsburgh, Pennsylvania, United States", "lat": 40.4406968, "lng": -80.0025666, "first_published": "2026-07-09T10:10:03-04:00"}
{"url": "https://motional.com/open-positions/?gh_jid=7799673003#/7799673003", "company_key": "greenhouse:motional", "location": "Las Vegas, Nevada, United States", "lat": null, "lng": null, "first_published": "2026-07-09T10:10:04-04:00"}
{"url": "https://motional.com/open-positions/?gh_jid=7799653003#/7799653003", "company_key": "greenhouse:motional", "location": "Remote U.S.", "lat": null, "lng": null, "first_published": "2026-07-09T10:10:01-04:00"}
{"url": "https://motional.com/open-positions/?gh_jid=7798656003#/7798656003", "company_key": "greenhouse:motional", "location": "Singapore, Central, Singapore", "lat": null, "lng": null, "first_published": "2026-07-09T22:18:30-04:00"}
{"url": "https://boards.greenhouse.io/spacex/jobs/8621989002?gh_jid=8621989002", "company_key": "greenhouse:spacex", "location": "Bastrop, TX", "lat": 30.0541116, "lng": -97.3887764, "first_published": "2026-07-09T18:09:05-04:00"}
{"url": "https://boards.greenhouse.io/spacex/jobs/8625626002?gh_jid=8625626002", "company_key": "greenhouse:spacex", "location": "Hawthorne, CA", "lat": 33.9128272, "lng": -118.3426122, "first_published": "2026-07-09T12:16:14-04:00"}
{"url": "https://boards.greenhouse.io/spacex/jobs/8626500002?gh_jid=8626500002", "company_key": "greenhouse:spacex", "location": "Hawthorne, CA", "lat": 33.9128272, "lng": -118.3426122, "first_published": "2026-07-09T13:07:06-04:00"}
{"url": "https://boards.greenhouse.io/spacex/jobs/8626535002?gh_jid=8626535002", "company_key": "greenhouse:spacex", "location": "Bastrop, TX", "lat": 30.0541116, "lng": -97.3887764, "first_published": "2026-07-09T13:07:07-04:00"}
{"url": "https://boards.greenhouse.io/spacex/jobs/8627507002?gh_jid=8627507002", "company_key": "greenhouse:spacex", "location": "Starbase, TX", "lat": 25.9914611, "lng": -97.1829783, "first_published": "2026-07-09T18:28:16-04:00"}
{"url": "https://boards.greenhouse.io/spacex/jobs/8627510002?gh_jid=8627510002", "company_key": "greenhouse:spacex", "location": "Starbase, TX", "lat": 25.9914611, "lng": -97.1829783, "first_published": "2026-07-09T18:30:03-04:00"}
{"url": "https://boards.greenhouse.io/spacex/jobs/8624836002?gh_jid=8624836002", "company_key": "greenhouse:spacex", "location": "Bastrop, TX", "lat": 30.0541116, "lng": -97.3887764, "first_published": "2026-07-09T14:31:18-04:00"}
{"url": "https://boards.greenhouse.io/spacex/jobs/8625576002?gh_jid=8625576002", "company_key": "greenhouse:spacex", "location": "Hawthorne, CA", "lat": 33.9128272, "lng": -118.3426122, "first_published": "2026-07-08T20:49:56-04:00"}
{"url": "https://boards.greenhouse.io/spacex/jobs/8625574002?gh_jid=8625574002", "company_key": "greenhouse:spacex", "location": "Hawthorne, CA", "lat": 33.9128272, "lng": -118.3426122, "first_published": "2026-07-08T20:49:57-04:00"}
{"url": "https://boards.greenhouse.io/spacex/jobs/8617116002?gh_jid=8617116002", "company_key": "greenhouse:spacex", "location": "Cape Canaveral, FL", "lat": 28.4513556, "lng": -80.5283059, "first_published": "2026-07-08T18:56:24-04:00"}
{"url": "https://boards.greenhouse.io/spacex/jobs/8627520002?gh_jid=8627520002", "company_key": "greenhouse:spacex", "location": "Bastrop, TX", "lat": 30.0541116, "lng": -97.3887764, "first_published": "2026-07-09T18:55:04-04:00"}
{"url": "https://boards.greenhouse.io/spacex/jobs/8627533002?gh_jid=8627533002", "company_key": "greenhouse:spacex", "location": "Cape Canaveral, FL", "lat": 28.4513556, "lng": -80.5283059, "first_published": "2026-07-09T20:17:50-04:00"}
{"url": "https://boards.greenhouse.io/spacex/jobs/8627069002?gh_jid=8627069002", "company_key": "greenhouse:spacex", "location": "Memphis, TN", "lat": 35.146026, "lng": -90.0517786, "first_published": "2026-07-09T18:24:51-04:00"}
{"url": "https://boards.greenhouse.io/spacex/jobs/8626590002?gh_jid=8626590002", "company_key": "greenhouse:spacex", "location": "Hawthorne, CA", "lat": 33.9128272, "lng": -118.3426122, "first_published": "2026-07-09T12:03:30-04:00"}
{"url": "https://boards.greenhouse.io/spacex/jobs/8626648002?gh_jid=8626648002", "company_key": "greenhouse:spacex", "location": "Starbase, TX", "lat": 25.9914611, "lng": -97.1829783, "first_published": "2026-07-09T12:41:52-04:00"}
{"url": "https://boards.greenhouse.io/spacex/jobs/8626679002?gh_jid=8626679002", "company_key": "greenhouse:spacex", "location": "Hawthorne, CA", "lat": 33.9128272, "lng": -118.3426122, "first_published": "2026-07-09T14:33:24-04:00"}
{"url": "https://boards.greenhouse.io/spacex/jobs/8627410002?gh_jid=8627410002", "company_key": "greenhouse:spacex", "location": "Hawthorne, CA", "lat": 33.9128272, "lng": -118.3426122, "first_published": "2026-07-09T17:14:36-04:00"}
{"url": "https://boards.greenhouse.io/spacex/jobs/8627222002?gh_jid=8627222002", "company_key": "greenhouse:spacex", "location": "Starbase, TX", "lat": 25.9914611, "lng": -97.1829783, "first_published": "2026-07-09T17:14:35-04:00"}
{"url": "https://boards.greenhouse.io/spacex/jobs/8626973002?gh_jid=8626973002", "company_key": "greenhouse:spacex", "location": "Canandaigua, NY ", "lat": null, "lng": null, "first_published": "2026-07-09T14:28:22-04:00"}
{"url": "https://boards.greenhouse.io/spacex/jobs/8627025002?gh_jid=8627025002", "company_key": "greenhouse:spacex", "location": "Hawthorne, CA", "lat": 33.9128272, "lng": -118.3426122, "first_published": "2026-07-09T14:50:00-04:00"}
{"url": "https://boards.greenhouse.io/spacex/jobs/8624122002?gh_jid=8624122002", "company_key": "greenhouse:spacex", "location": "Canandaigua, NY ", "lat": null, "lng": null, "first_published": "2026-07-09T11:12:23-04:00"}
{"url": "https://boards.greenhouse.io/spacex/jobs/8624835002?gh_jid=8624835002", "company_key": "greenhouse:spacex", "location": "Bastrop, TX", "lat": 30.0541116, "lng": -97.3887764, "first_published": "2026-07-09T14:31:19-04:00"}
{"url": "https://boards.greenhouse.io/spacex/jobs/8621675002?gh_jid=8621675002", "company_key": "greenhouse:spacex", "location": "Hawthorne, CA", "lat": 33.9128272, "lng": -118.3426122, "first_published": "2026-07-09T15:03:39-04:00"}
{"url": "https://boards.greenhouse.io/spacex/jobs/8623403002?gh_jid=8623403002", "company_key": "greenhouse:spacex", "location": "Woodinville, WA", "lat": null, "lng": null, "first_published": "2026-07-09T16:16:27-04:00"}
{"url": "https://boards.greenhouse.io/spacex/jobs/8624695002?gh_jid=8624695002", "company_key": "greenhouse:spacex", "location": "Redmond, WA", "lat": 47.6694141, "lng": -122.1238767, "first_published": "2026-07-09T14:32:48-04:00"}
{"url": "https://boards.greenhouse.io/spacex/jobs/8624593002?gh_jid=8624593002", "company_key": "greenhouse:spacex", "location": "Redmond, WA", "lat": 47.6694141, "lng": -122.1238767, "first_published": "2026-07-09T11:07:34-04:00"}
{"url": "https://boards.greenhouse.io/spacex/jobs/8624708002?gh_jid=8624708002", "company_key": "greenhouse:spacex", "location": "Redmond, WA", "lat": 47.6694141, "lng": -122.1238767, "first_published": "2026-07-09T14:32:01-04:00"}
{"url": "https://boards.greenhouse.io/spacex/jobs/8624866002?gh_jid=8624866002", "company_key": "greenhouse:spacex", "location": "Bastrop, TX", "lat": 30.0541116, "lng": -97.3887764, "first_published": "2026-07-09T14:30:22-04:00"}
{"url": "https://boards.greenhouse.io/spacex/jobs/8625580002?gh_jid=8625580002", "company_key": "greenhouse:spacex", "location": "Hawthorne, CA", "lat": 33.9128272, "lng": -118.3426122, "first_published": "2026-07-08T20:51:24-04:00"}
{"url": "https://boards.greenhouse.io/spacex/jobs/8627595002?gh_jid=8627595002", "company_key": "greenhouse:spacex", "location": "Starbase, TX", "lat": 25.9914611, "lng": -97.1829783, "first_published": "2026-07-09T20:23:38-04:00"}
{"url": "https://boards.greenhouse.io/spacex/jobs/8627593002?gh_jid=8627593002", "company_key": "greenhouse:spacex", "location": "Hawthorne, CA", "lat": 33.9128272, "lng": -118.3426122, "first_published": "2026-07-09T20:23:37-04:00"}
{"url": "https://boards.greenhouse.io/spacex/jobs/8625568002?gh_jid=8625568002", "company_key": "greenhouse:spacex", "location": "Austin, TX", "lat": 30.2711286, "lng": -97.7436995, "first_published": "2026-07-09T11:49:18-04:00"}
{"url": "https://boards.greenhouse.io/spacex/jobs/8626661002?gh_jid=8626661002", "company_key": "greenhouse:spacex", "location": "Hawthorne, CA", "lat": 33.9128272, "lng": -118.3426122, "first_published": "2026-07-09T14:58:18-04:00"}
{"url": "https://boards.greenhouse.io/spacex/jobs/8627630002?gh_jid=8627630002", "company_key": "greenhouse:spacex", "location": "Redmond, WA", "lat": 47.6694141, "lng": -122.1238767, "first_published": "2026-07-09T22:32:09-04:00"}
{"url": "https://boards.greenhouse.io/spacex/jobs/8627633002?gh_jid=8627633002", "company_key": "greenhouse:spacex", "location": "Bastrop, TX", "lat": 30.0541116, "lng": -97.3887764, "first_published": "2026-07-09T22:32:10-04:00"}
{"url": "https://boards.greenhouse.io/spacex/jobs/8627634002?gh_jid=8627634002", "company_key": "greenhouse:spacex", "location": "Starbase, TX", "lat": 25.9914611, "lng": -97.1829783, "first_published": "2026-07-09T22:32:11-04:00"}
{"url": "https://boards.greenhouse.io/spacex/jobs/8624707002?gh_jid=8624707002", "company_key": "greenhouse:spacex", "location": "Redmond, WA", "lat": 47.6694141, "lng": -122.1238767, "first_published": "2026-07-09T14:32:02-04:00"}
{"url": "https://boards.greenhouse.io/spacex/jobs/8624867002?gh_jid=8624867002", "company_key": "greenhouse:spacex", "location": "Bastrop, TX", "lat": 30.0541116, "lng": -97.3887764, "first_published": "2026-07-09T14:30:23-04:00"}
{"url": "https://boards.greenhouse.io/spacex/jobs/8627586002?gh_jid=8627586002", "company_key": "greenhouse:spacex", "location": "Bastrop, TX", "lat": 30.0541116, "lng": -97.3887764, "first_published": "2026-07-09T19:56:27-04:00"}
{"url": "https://boards.greenhouse.io/spacex/jobs/8621590002?gh_jid=8621590002", "company_key": "greenhouse:spacex", "location": "Hawthorne, CA", "lat": 33.9128272, "lng": -118.3426122, "first_published": "2026-07-09T15:02:58-04:00"}
{"url": "https://job-boards.greenhouse.io/dataiku/jobs/6111252004", "company_key": "greenhouse:dataiku", "location": "Singapore", "lat": 1.357107, "lng": 103.8194992, "first_published": "2026-07-09T03:23:32-04:00"}
{"url": "https://job-boards.greenhouse.io/dataiku/jobs/6112332004", "company_key": "greenhouse:dataiku", "location": "United States, Remote", "lat": 43.0059455, "lng": -123.8925908, "first_published": "2026-07-09T11:28:56-04:00"}
{"url": "https://job-boards.greenhouse.io/misfitsmarket/jobs/7734558003", "company_key": "greenhouse:misfitsmarket", "location": "Walnut CA", "lat": null, "lng": null, "first_published": "2026-07-09T13:27:22-04:00"}
{"url": "https://job-boards.greenhouse.io/newsela/jobs/8044185", "company_key": "greenhouse:newsela", "location": "Remote - US", "lat": 43.0059455, "lng": -123.8925908, "first_published": "2026-07-09T11:48:50-04:00"}
{"url": "https://boards.greenhouse.io/braze/jobs/8052484?gh_jid=8052484", "company_key": "greenhouse:braze", "location": "Chicago", "lat": 41.8755616, "lng": -87.6244212, "first_published": "2026-07-09T11:01:20-04:00"}
{"url": "https://boards.greenhouse.io/braze/jobs/8052481?gh_jid=8052481", "company_key": "greenhouse:braze", "location": "San Francisco", "lat": 37.7879363, "lng": -122.4075201, "first_published": "2026-07-09T11:01:19-04:00"}
{"url": "https://boards.greenhouse.io/braze/jobs/8052239?gh_jid=8052239", "company_key": "greenhouse:braze", "location": "New York City", "lat": 40.7127281, "lng": -74.0060152, "first_published": "2026-07-09T11:01:18-04:00"}
{"url": "https://boards.greenhouse.io/braze/jobs/8052486?gh_jid=8052486", "company_key": "greenhouse:braze", "location": "Austin", "lat": 30.2711286, "lng": -97.7436995, "first_published": "2026-07-09T11:01:53-04:00"}
{"url": "https://boards.greenhouse.io/braze/jobs/8053653?gh_jid=8053653", "company_key": "greenhouse:braze", "location": "Chicago", "lat": 41.8755616, "lng": -87.6244212, "first_published": "2026-07-09T11:55:43-04:00"}
{"url": "https://boards.greenhouse.io/braze/jobs/8026806?gh_jid=8026806", "company_key": "greenhouse:braze", "location": "New York City", "lat": 40.7127281, "lng": -74.0060152, "first_published": "2026-07-09T11:55:43-04:00"}
{"url": "https://boards.greenhouse.io/braze/jobs/8053655?gh_jid=8053655", "company_key": "greenhouse:braze", "location": "Austin", "lat": 30.2711286, "lng": -97.7436995, "first_published": "2026-07-09T11:55:45-04:00"}
{"url": "https://job-boards.greenhouse.io/checkr/jobs/8051911", "company_key": "greenhouse:checkr", "location": "San Francisco, California, United States", "lat": 37.7879363, "lng": -122.4075201, "first_published": "2026-07-09T11:41:54-04:00"}
{"url": "https://job-boards.greenhouse.io/checkr/jobs/8053499", "company_key": "greenhouse:checkr", "location": "Nashville, Tennessee, United States", "lat": null, "lng": null, "first_published": "2026-07-09T10:48:11-04:00"}
{"url": "https://job-boards.greenhouse.io/checkr/jobs/8047574", "company_key": "greenhouse:checkr", "location": "San Francisco, California, United States", "lat": 37.7879363, "lng": -122.4075201, "first_published": "2026-07-09T16:59:10-04:00"}
{"url": "https://job-boards.greenhouse.io/smartsheet/jobs/8054647", "company_key": "greenhouse:smartsheet", "location": "Chicago, IL, USA", "lat": null, "lng": null, "first_published": "2026-07-09T19:12:36-04:00"}
{"url": "https://job-boards.greenhouse.io/smartsheet/jobs/8054608", "company_key": "greenhouse:smartsheet", "location": "San Francisco, CA, USA", "lat": 37.7879363, "lng": -122.4075201, "first_published": "2026-07-09T18:32:21-04:00"}
{"url": "https://www.five9.com/about/careers/job-detail?gh_jid=6112743004", "company_key": "greenhouse:five9", "location": "Porto, Portugal (Hybrid)", "lat": null, "lng": null, "first_published": "2026-07-09T13:39:40-04:00"}
{"url": "https://job-boards.greenhouse.io/appian/jobs/8053218", "company_key": "greenhouse:appian", "location": "McLean, Virginia", "lat": null, "lng": null, "first_published": "2026-07-09T08:36:58-04:00"}
{"url": "https://job-boards.greenhouse.io/appian/jobs/8048247", "company_key": "greenhouse:appian", "location": "London, United Kingdom", "lat": 51.5074456, "lng": -0.1277653, "first_published": "2026-07-09T05:04:13-04:00"}
{"url": "https://job-boards.greenhouse.io/appian/jobs/8035179", "company_key": "greenhouse:appian", "location": "Chennai, India", "lat": null, "lng": null, "first_published": "2026-07-09T11:39:04-04:00"}
{"url": "https://job-boards.greenhouse.io/appian/jobs/8053224", "company_key": "greenhouse:appian", "location": "McLean, Virginia", "lat": null, "lng": null, "first_published": "2026-07-09T08:36:52-04:00"}
{"url": "https://job-boards.greenhouse.io/appian/jobs/8053214", "company_key": "greenhouse:appian", "location": "McLean, Virginia", "lat": null, "lng": null, "first_published": "2026-07-09T08:36:44-04:00"}
{"url": "https://www.jamf.com/about/careers/jobs/?gh_jid=6110775004&gh_jid=6110775004", "company_key": "greenhouse:jamf", "location": "Minneapolis, MN", "lat": null, "lng": null, "first_published": "2026-07-09T16:42:03-04:00"}
{"url": "https://www.jamf.com/about/careers/jobs/?gh_jid=6112320004&gh_jid=6112320004", "company_key": "greenhouse:jamf", "location": "London, United Kingdom", "lat": 51.5074456, "lng": -0.1277653, "first_published": "2026-07-09T04:16:59-04:00"}
{"url": "https://www.jamf.com/about/careers/jobs/?gh_jid=6112315004&gh_jid=6112315004", "company_key": "greenhouse:jamf", "location": "Amsterdam, Netherlands", "lat": null, "lng": null, "first_published": "2026-07-09T04:07:56-04:00"}
{"url": "https://www.jamf.com/about/careers/jobs/?gh_jid=6111338004&gh_jid=6111338004", "company_key": "greenhouse:jamf", "location": "Tokyo, Japan", "lat": 35.6768601, "lng": 139.7638947, "first_published": "2026-07-08T23:22:03-04:00"}
{"url": "https://www.jamf.com/about/careers/jobs/?gh_jid=6112523004&gh_jid=6112523004", "company_key": "greenhouse:jamf", "location": "Minneapolis, MN", "lat": null, "lng": null, "first_published": "2026-07-09T10:38:01-04:00"}
{"url": "https://job-boards.greenhouse.io/yext/jobs/8040055", "company_key": "greenhouse:yext", "location": "New York, NY", "lat": 40.7127281, "lng": -74.0060152, "first_published": "2026-07-09T09:23:47-04:00"}
{"url": "https://www.taboola.com/careers/job/8030531?gh_jid=8030531", "company_key": "greenhouse:taboola", "location": "Tel Aviv, Israel", "lat": null, "lng": null, "first_published": "2026-07-09T10:08:14-04:00"}
{"url": "https://www.taboola.com/careers/job/8035268?gh_jid=8035268", "company_key": "greenhouse:taboola", "location": "Tel Aviv, Israel", "lat": null, "lng": null, "first_published": "2026-07-09T09:48:53-04:00"}
{"url": "https://www.taboola.com/careers/job/8035266?gh_jid=8035266", "company_key": "greenhouse:taboola", "location": "Tel Aviv, Israel", "lat": null, "lng": null, "first_published": "2026-07-09T06:40:28-04:00"}
{"url": "https://www.taboola.com/careers/job/8053067?gh_jid=8053067", "company_key": "greenhouse:taboola", "location": "Bangkok, Thailand", "lat": 13.7524938, "lng": 100.4935089, "first_published": "2026-07-09T08:01:21-04:00"}
{"url": "https://job-boards.greenhouse.io/thenewyorktimes/jobs/4713547005", "company_key": "greenhouse:thenewyorktimes", "location": "New York, NY", "lat": 40.7127281, "lng": -74.0060152, "first_published": "2026-07-09T16:55:12-04:00"}
{"url": "https://job-boards.greenhouse.io/thenewyorktimes/jobs/4706958005", "company_key": "greenhouse:thenewyorktimes", "location": "London, United Kingdom", "lat": 51.5074456, "lng": -0.1277653, "first_published": "2026-07-09T08:11:15-04:00"}
{"url": "https://job-boards.greenhouse.io/orchard/jobs/8626624002", "company_key": "greenhouse:orchard", "location": "Austin, Texas, United States", "lat": 30.2711286, "lng": -97.7436995, "first_published": "2026-07-09T12:18:48-04:00"}
{"url": "https://job-boards.greenhouse.io/arcadiacareers/jobs/8625542002", "company_key": "greenhouse:arcadiacareers", "location": "United States", "lat": 39.7837304, "lng": -100.445882, "first_published": "2026-07-08T19:10:47-04:00"}
{"url": "https://boards.greenhouse.io/redwoodmaterials/jobs/6103948004?gh_jid=6103948004", "company_key": "greenhouse:redwoodmaterials", "location": "Carson City, NV", "lat": null, "lng": null, "first_published": "2026-07-08T21:02:11-04:00"}
{"url": "https://boards.greenhouse.io/redwoodmaterials/jobs/6003203004?gh_jid=6003203004", "company_key": "greenhouse:redwoodmaterials", "location": "San Francisco, California, United States", "lat": 37.7879363, "lng": -122.4075201, "first_published": "2026-07-09T13:04:12-04:00"}
{"url": "https://job-boards.greenhouse.io/flexport/jobs/8052720", "company_key": "greenhouse:flexport", "location": "Toronto, Ontario, Canada", "lat": 43.6534817, "lng": -79.3839347, "first_published": "2026-07-08T19:32:03-04:00"}
{"url": "https://job-boards.greenhouse.io/flexport/jobs/8052691", "company_key": "greenhouse:flexport", "location": "Atlanta Warehouse; Chicago Warehouse; Dallas Warehouse; New York City, New York, United States; Phillipsburg Warehouse; San Bernardino Warehouse", "lat": null, "lng": null, "first_published": "2026-07-08T19:24:54-04:00"}
{"url": "https://job-boards.greenhouse.io/flexport/jobs/8044163", "company_key": "greenhouse:flexport", "location": "San Francisco, California, United States", "lat": 37.7879363, "lng": -122.4075201, "first_published": "2026-07-09T19:07:13-04:00"}
{"url": "https://job-boards.greenhouse.io/flexport/jobs/8054644", "company_key": "greenhouse:flexport", "location": "New York City, New York, United States", "lat": null, "lng": null, "first_published": "2026-07-09T19:07:14-04:00"}
{"url": "https://job-boards.greenhouse.io/flexport/jobs/8054645", "company_key": "greenhouse:flexport", "location": "Chicago, Illinois, United States", "lat": 41.8755616, "lng": -87.6244212, "first_published": "2026-07-09T19:07:15-04:00"}
{"url": "https://job-boards.greenhouse.io/flexport/jobs/8050458", "company_key": "greenhouse:flexport", "location": "Amsterdam, Netherlands", "lat": null, "lng": null, "first_published": "2026-07-09T08:27:32-04:00"}
{"url": "https://job-boards.greenhouse.io/2k/jobs/7800060003", "company_key": "greenhouse:2k", "location": "San Mateo, California, United States", "lat": null, "lng": null, "first_published": "2026-07-09T13:38:39-04:00"}
{"url": "https://job-boards.greenhouse.io/2k/jobs/7792882003", "company_key": "greenhouse:2k", "location": "Montr\u00e9al, Quebec, Canada; Quebec, Canada", "lat": null, "lng": null, "first_published": "2026-07-09T11:57:51-04:00"}
