{"url": "https://job-boards.greenhouse.io/anthropic/jobs/5305402008", "company_key": "greenhouse:anthropic", "location": "San Francisco, CA", "lat": 37.7879363, "lng": -122.4075201, "first_published": "2026-07-19T10:56:36-04:00", "observed_at": "2026-07-19T16:21:27.255848+00:00"}
{"url": "https://job-boards.greenhouse.io/discord/jobs/8637648002", "company_key": "greenhouse:discord", "location": "San Francisco Bay Area", "lat": 37.7884969, "lng": -122.3558473, "first_published": "2026-07-17T18:04:42-04:00", "observed_at": "2026-07-19T16:21:27.255848+00:00"}
{"url": "https://job-boards.greenhouse.io/twilio/jobs/8067270", "company_key": "greenhouse:twilio", "location": "Remote - US", "lat": 43.0059455, "lng": -123.8925908, "first_published": "2026-07-17T13:46:15-04:00", "observed_at": "2026-07-19T16:21:27.255848+00:00"}
{"url": "https://job-boards.greenhouse.io/twilio/jobs/8065040", "company_key": "greenhouse:twilio", "location": "Remote - US", "lat": 43.0059455, "lng": -123.8925908, "first_published": "2026-07-17T18:35:00-04:00", "observed_at": "2026-07-19T16:21:27.255848+00:00"}
{"url": "https://job-boards.greenhouse.io/twilio/jobs/8056276", "company_key": "greenhouse:twilio", "location": "Remote - US", "lat": 43.0059455, "lng": -123.8925908, "first_published": "2026-07-17T15:17:32-04:00", "observed_at": "2026-07-19T16:21:27.255848+00:00"}
{"url": "https://www.okta.com/company/careers/opportunity/8070149?gh_jid=8070149", "company_key": "greenhouse:okta", "location": "Bellevue, Washington; Chicago, Illinois; San Francisco, California; Washington, DC", "lat": null, "lng": null, "first_published": "2026-07-17T15:45:33-04:00", "observed_at": "2026-07-19T16:21:27.255848+00:00"}
{"url": "https://www.okta.com/company/careers/opportunity/7784503?gh_jid=7784503", "company_key": "greenhouse:okta", "location": "Bellevue, Washington; Chicago, Illinois; San Francisco, California; Washington, DC", "lat": null, "lng": null, "first_published": "2026-07-17T16:07:40-04:00", "observed_at": "2026-07-19T16:21:27.255848+00:00"}
{"url": "https://www.okta.com/company/careers/opportunity/8073062?gh_jid=8073062", "company_key": "greenhouse:okta", "location": "San Francisco, California", "lat": 37.7879363, "lng": -122.4075201, "first_published": "2026-07-17T17:05:30-04:00", "observed_at": "2026-07-19T16:21:27.255848+00:00"}
{"url": "https://www.coinbase.com/careers/positions/8070574?gh_jid=8070574", "company_key": "greenhouse:coinbase", "location": "Remote - USA", "lat": 43.0059455, "lng": -123.8925908, "first_published": "2026-07-17T15:15:55-04:00", "observed_at": "2026-07-19T16:21:27.255848+00:00"}
{"url": "https://boards.greenhouse.io/embed/job_app?for=gemini&token=8069411&gh_jid=8069411", "company_key": "greenhouse:gemini", "location": "New York, New York; Miami, Florida; Remote (USA)", "lat": null, "lng": null, "first_published": "2026-07-17T16:24:20-04:00", "observed_at": "2026-07-19T16:21:27.255848+00:00"}
{"url": "https://boards.greenhouse.io/spacex/jobs/8632322002?gh_jid=8632322002", "company_key": "greenhouse:spacex", "location": "Palo Alto, CA", "lat": 37.4443293, "lng": -122.1598465, "first_published": "2026-07-17T13:44:23-04:00", "observed_at": "2026-07-19T16:21:27.255848+00:00"}
{"url": "https://job-boards.greenhouse.io/calendly/jobs/8639244002", "company_key": "greenhouse:calendly", "location": "Remote - US", "lat": 43.0059455, "lng": -123.8925908, "first_published": "2026-07-17T16:27:28-04:00", "observed_at": "2026-07-19T16:21:27.255848+00:00"}
{"url": "https://www.agero.com/available-jobs?gh_jid=8635639002", "company_key": "greenhouse:agero", "location": "Remote", "lat": 43.0059455, "lng": -123.8925908, "first_published": "2026-07-17T15:15:13-04:00", "observed_at": "2026-07-19T16:21:27.255848+00:00"}
{"url": "https://boards.greenhouse.io/neuralink/jobs/7808355003?gh_jid=7808355003", "company_key": "greenhouse:neuralink", "location": "Austin, Texas, United States; South San Francisco, California, United States", "lat": null, "lng": null, "first_published": "2026-07-17T14:43:05-04:00", "observed_at": "2026-07-19T16:21:27.255848+00:00"}
{"url": "https://job-boards.greenhouse.io/prove/jobs/6118819004", "company_key": "greenhouse:prove", "location": "United States (Remote)", "lat": 43.0059455, "lng": -123.8925908, "first_published": "2026-07-17T15:38:13-04:00", "observed_at": "2026-07-19T16:21:27.255848+00:00"}
{"url": "https://job-boards.greenhouse.io/cascadeloans/jobs/7808412003", "company_key": "greenhouse:cascadeloans", "location": "Remote, USA", "lat": 43.0059455, "lng": -123.8925908, "first_published": "2026-07-17T15:41:01-04:00", "observed_at": "2026-07-19T16:21:27.255848+00:00"}
{"url": "https://job-boards.greenhouse.io/chainguard/jobs/4697551006", "company_key": "greenhouse:chainguard", "location": "United States - Remote", "lat": 43.0059455, "lng": -123.8925908, "first_published": "2026-07-17T16:39:50-04:00", "observed_at": "2026-07-19T16:21:27.255848+00:00"}
{"url": "https://job-boards.greenhouse.io/chaosindustries/jobs/5189919007", "company_key": "greenhouse:chaosindustries", "location": "San Francisco, California, United States", "lat": 37.7879363, "lng": -122.4075201, "first_published": "2026-07-17T15:04:10-04:00", "observed_at": "2026-07-19T16:21:27.255848+00:00"}
{"url": "https://job-boards.greenhouse.io/chaosindustries/jobs/5189947007", "company_key": "greenhouse:chaosindustries", "location": "San Francisco, California, United States", "lat": 37.7879363, "lng": -122.4075201, "first_published": "2026-07-17T15:11:18-04:00", "observed_at": "2026-07-19T16:21:27.255848+00:00"}
{"url": "https://job-boards.greenhouse.io/chaosindustries/jobs/5189923007", "company_key": "greenhouse:chaosindustries", "location": "San Francisco, California, United States", "lat": 37.7879363, "lng": -122.4075201, "first_published": "2026-07-17T15:04:49-04:00", "observed_at": "2026-07-19T16:21:27.255848+00:00"}
{"url": "https://job-boards.greenhouse.io/chaosindustries/jobs/5189955007", "company_key": "greenhouse:chaosindustries", "location": "San Francisco, California, United States", "lat": 37.7879363, "lng": -122.4075201, "first_published": "2026-07-17T15:15:46-04:00", "observed_at": "2026-07-19T16:21:27.255848+00:00"}
{"url": "https://job-boards.greenhouse.io/gruns/jobs/5363457008", "company_key": "greenhouse:gruns", "location": "Remote", "lat": 43.0059455, "lng": -123.8925908, "first_published": "2026-07-17T19:10:08-04:00", "observed_at": "2026-07-19T16:21:27.255848+00:00"}
{"url": "https://www.healthesystems.com/unassigned/careers-list?gh_jid=7808400003", "company_key": "greenhouse:healthesystems", "location": "Remote-Work From Home", "lat": null, "lng": null, "first_published": "2026-07-17T15:09:02-04:00", "observed_at": "2026-07-19T16:21:27.255848+00:00"}
{"url": "https://job-boards.greenhouse.io/kodiak/jobs/4312761009", "company_key": "greenhouse:kodiak", "location": "Mountain View, CA", "lat": 37.3893889, "lng": -122.0832101, "first_published": "2026-07-17T15:27:41-04:00", "observed_at": "2026-07-19T16:21:27.255848+00:00"}
{"url": "https://job-boards.greenhouse.io/mrbeastyoutube/jobs/6119092004", "company_key": "greenhouse:mrbeastyoutube", "location": "Primary: Bay Area (San Francisco/Peninsula)", "lat": null, "lng": null, "first_published": "2026-07-17T16:35:16-04:00", "observed_at": "2026-07-19T16:21:27.255848+00:00"}
{"url": "https://job-boards.greenhouse.io/mrbeastyoutube/jobs/6119136004", "company_key": "greenhouse:mrbeastyoutube", "location": "Primary: Bay Area (San Francisco/Peninsula)", "lat": null, "lng": null, "first_published": "2026-07-17T16:44:43-04:00", "observed_at": "2026-07-19T16:21:27.255848+00:00"}
{"url": "https://job-boards.greenhouse.io/pingidentity/jobs/8635227002", "company_key": "greenhouse:pingidentity", "location": "USA - Remote", "lat": 43.0059455, "lng": -123.8925908, "first_published": "2026-07-17T16:43:23-04:00", "observed_at": "2026-07-19T16:21:27.255848+00:00"}
{"url": "https://job-boards.greenhouse.io/pingidentity/jobs/8636117002", "company_key": "greenhouse:pingidentity", "location": "USA - Remote", "lat": 43.0059455, "lng": -123.8925908, "first_published": "2026-07-17T13:54:38-04:00", "observed_at": "2026-07-19T16:21:27.255848+00:00"}
{"url": "https://job-boards.greenhouse.io/pingidentity/jobs/8636122002", "company_key": "greenhouse:pingidentity", "location": "USA - Remote", "lat": 43.0059455, "lng": -123.8925908, "first_published": "2026-07-17T13:53:28-04:00", "observed_at": "2026-07-19T16:21:27.255848+00:00"}
{"url": "https://careers.roblox.com/jobs/8056362?gh_jid=8056362", "company_key": "greenhouse:roblox", "location": "San Mateo, CA, United States", "lat": 37.496904, "lng": -122.3330573, "first_published": "2026-07-17T17:19:45-04:00", "observed_at": "2026-07-19T16:21:27.255848+00:00"}
{"url": "https://job-boards.greenhouse.io/shapercapital/jobs/5179553007", "company_key": "greenhouse:shapercapital", "location": "Remote ", "lat": 43.0059455, "lng": -123.8925908, "first_published": "2026-07-17T14:46:49-04:00", "observed_at": "2026-07-19T16:21:27.255848+00:00"}
{"url": "https://job-boards.greenhouse.io/venncity/jobs/4716429005", "company_key": "greenhouse:venncity", "location": "Remote U.S.", "lat": 43.0059455, "lng": -123.8925908, "first_published": "2026-07-17T17:13:18-04:00", "observed_at": "2026-07-19T16:21:27.255848+00:00"}
{"url": "https://boards.greenhouse.io/andurilindustries/jobs/5189877007?gh_jid=5189877007", "company_key": "greenhouse:andurilindustries", "location": "Lexington, Massachusetts, United States", "lat": 42.4473175, "lng": -71.2245003, "first_published": "2026-07-17T14:49:47-04:00", "observed_at": "2026-07-19T16:21:27.255848+00:00"}
{"url": "https://boards.greenhouse.io/andurilindustries/jobs/5189885007?gh_jid=5189885007", "company_key": "greenhouse:andurilindustries", "location": "Lexington, Massachusetts, United States", "lat": 42.4473175, "lng": -71.2245003, "first_published": "2026-07-17T14:52:02-04:00", "observed_at": "2026-07-19T16:21:27.255848+00:00"}
{"url": "https://boards.greenhouse.io/andurilindustries/jobs/5189879007?gh_jid=5189879007", "company_key": "greenhouse:andurilindustries", "location": "Lexington, Massachusetts, United States", "lat": 42.4473175, "lng": -71.2245003, "first_published": "2026-07-17T14:50:00-04:00", "observed_at": "2026-07-19T16:21:27.255848+00:00"}
{"url": "https://boards.greenhouse.io/andurilindustries/jobs/5189882007?gh_jid=5189882007", "company_key": "greenhouse:andurilindustries", "location": "Lexington, Massachusetts, United States", "lat": 42.4473175, "lng": -71.2245003, "first_published": "2026-07-17T14:52:00-04:00", "observed_at": "2026-07-19T16:21:27.255848+00:00"}
{"url": "https://boards.greenhouse.io/andurilindustries/jobs/5189880007?gh_jid=5189880007", "company_key": "greenhouse:andurilindustries", "location": "Lexington, Massachusetts, United States", "lat": 42.4473175, "lng": -71.2245003, "first_published": "2026-07-17T14:50:00-04:00", "observed_at": "2026-07-19T16:21:27.255848+00:00"}
{"url": "https://boards.greenhouse.io/andurilindustries/jobs/5182752007?gh_jid=5182752007", "company_key": "greenhouse:andurilindustries", "location": "Costa Mesa, California, United States", "lat": 33.6633386, "lng": -117.903317, "first_published": "2026-07-17T17:56:43-04:00", "observed_at": "2026-07-19T16:21:27.255848+00:00"}
{"url": "https://boards.greenhouse.io/andurilindustries/jobs/5189896007?gh_jid=5189896007", "company_key": "greenhouse:andurilindustries", "location": "Boulder, Colorado, United States", "lat": 40.0149856, "lng": -105.270545, "first_published": "2026-07-17T14:56:02-04:00", "observed_at": "2026-07-19T16:21:27.255848+00:00"}
{"url": "https://careers.airbnb.com/positions/8070678?gh_jid=8070678", "company_key": "greenhouse:airbnb", "location": "United States", "lat": 39.7837304, "lng": -100.445882, "first_published": "2026-07-17T18:28:54-04:00", "observed_at": "2026-07-19T16:21:27.255848+00:00"}
{"url": "https://boards.greenhouse.io/spacex/jobs/8639573002?gh_jid=8639573002", "company_key": "greenhouse:spacex", "location": "Starbase, TX", "lat": 25.9914611, "lng": -97.1829783, "first_published": "2026-07-17T22:26:35-04:00", "observed_at": "2026-07-19T16:21:27.255848+00:00"}
{"url": "https://boards.greenhouse.io/spacex/jobs/8637712002?gh_jid=8637712002", "company_key": "greenhouse:spacex", "location": "Redmond, WA", "lat": 47.6694141, "lng": -122.1238767, "first_published": "2026-07-19T02:31:00-04:00", "observed_at": "2026-07-19T16:21:27.255848+00:00"}
{"url": "https://boards.greenhouse.io/spacex/jobs/8637713002?gh_jid=8637713002", "company_key": "greenhouse:spacex", "location": "Redmond, WA", "lat": 47.6694141, "lng": -122.1238767, "first_published": "2026-07-19T02:31:02-04:00", "observed_at": "2026-07-19T16:21:27.255848+00:00"}
{"url": "https://boards.greenhouse.io/spacex/jobs/8637755002?gh_jid=8637755002", "company_key": "greenhouse:spacex", "location": "Redmond, WA", "lat": 47.6694141, "lng": -122.1238767, "first_published": "2026-07-19T02:31:03-04:00", "observed_at": "2026-07-19T16:21:27.255848+00:00"}
{"url": "https://job-boards.greenhouse.io/2k/jobs/7807539003", "company_key": "greenhouse:2k", "location": "Austin, Texas, United States", "lat": 30.2711286, "lng": -97.7436995, "first_published": "2026-07-17T13:48:26-04:00", "observed_at": "2026-07-19T16:21:27.255848+00:00"}
{"url": "https://www.storable.com/about-us/culture/careers/?gh_jid=6116871004", "company_key": "greenhouse:storable", "location": "United States", "lat": 39.7837304, "lng": -100.445882, "first_published": "2026-07-17T19:08:57-04:00", "observed_at": "2026-07-19T16:21:27.255848+00:00"}
{"url": "https://job-boards.greenhouse.io/8451/jobs/8638989002", "company_key": "greenhouse:8451", "location": "Cincinnati, OH; Chicago, IL", "lat": null, "lng": null, "first_published": "2026-07-17T14:19:04-04:00", "observed_at": "2026-07-19T16:21:27.255848+00:00"}
{"url": "https://job-boards.greenhouse.io/constantcontact/jobs/8069231", "company_key": "greenhouse:constantcontact", "location": "Waltham, MA", "lat": 42.3762385, "lng": -71.2355644, "first_published": "2026-07-17T14:53:50-04:00", "observed_at": "2026-07-19T16:21:27.255848+00:00"}
{"url": "https://job-boards.greenhouse.io/gardacp/jobs/6119018004", "company_key": "greenhouse:gardacp", "location": "New York, New York, United States", "lat": 40.7127281, "lng": -74.0060152, "first_published": "2026-07-17T15:07:56-04:00", "observed_at": "2026-07-19T16:21:27.255848+00:00"}
{"url": "https://job-boards.greenhouse.io/iconcareers/jobs/6119090004", "company_key": "greenhouse:iconcareers", "location": "Austin, Texas, United States", "lat": 30.2711286, "lng": -97.7436995, "first_published": "2026-07-17T16:01:13-04:00", "observed_at": "2026-07-19T16:21:27.255848+00:00"}
{"url": "https://job-boards.greenhouse.io/itero-group/jobs/5363017008", "company_key": "greenhouse:itero-group", "location": "Boston, Chicago or New York City", "lat": null, "lng": null, "first_published": "2026-07-17T13:38:12-04:00", "observed_at": "2026-07-19T16:21:27.255848+00:00"}
{"url": "https://job-boards.greenhouse.io/lightfeatheriollc/jobs/5363318008", "company_key": "greenhouse:lightfeatheriollc", "location": "Washington, DC", "lat": 38.8950982, "lng": -77.0363849, "first_published": "2026-07-17T17:07:13-04:00", "observed_at": "2026-07-19T16:21:27.255848+00:00"}
{"url": "https://job-boards.greenhouse.io/lightfeatheriollc/jobs/5363319008", "company_key": "greenhouse:lightfeatheriollc", "location": "Washington, DC", "lat": 38.8950982, "lng": -77.0363849, "first_published": "2026-07-17T17:07:22-04:00", "observed_at": "2026-07-19T16:21:27.255848+00:00"}
{"url": "https://job-boards.greenhouse.io/lightfeatheriollc/jobs/5363324008", "company_key": "greenhouse:lightfeatheriollc", "location": "Washington, DC", "lat": 38.8950982, "lng": -77.0363849, "first_published": "2026-07-17T17:10:35-04:00", "observed_at": "2026-07-19T16:21:27.255848+00:00"}
{"url": "https://job-boards.greenhouse.io/lightfeatheriollc/jobs/5363325008", "company_key": "greenhouse:lightfeatheriollc", "location": "Washington, DC", "lat": 38.8950982, "lng": -77.0363849, "first_published": "2026-07-17T17:10:47-04:00", "observed_at": "2026-07-19T16:21:27.255848+00:00"}
{"url": "https://job-boards.greenhouse.io/lightfeatheriollc/jobs/5363326008", "company_key": "greenhouse:lightfeatheriollc", "location": "Washington, DC", "lat": 38.8950982, "lng": -77.0363849, "first_published": "2026-07-17T17:11:05-04:00", "observed_at": "2026-07-19T16:21:27.255848+00:00"}
{"url": "https://job-boards.greenhouse.io/lightfeatheriollc/jobs/5363320008", "company_key": "greenhouse:lightfeatheriollc", "location": "Washington, DC", "lat": 38.8950982, "lng": -77.0363849, "first_published": "2026-07-17T17:07:36-04:00", "observed_at": "2026-07-19T16:21:27.255848+00:00"}
{"url": "https://job-boards.greenhouse.io/lightfeatheriollc/jobs/5363321008", "company_key": "greenhouse:lightfeatheriollc", "location": "Washington, DC", "lat": 38.8950982, "lng": -77.0363849, "first_published": "2026-07-17T17:07:39-04:00", "observed_at": "2026-07-19T16:21:27.255848+00:00"}
{"url": "https://job-boards.greenhouse.io/lightfeatheriollc/jobs/5363327008", "company_key": "greenhouse:lightfeatheriollc", "location": "Washington, DC", "lat": 38.8950982, "lng": -77.0363849, "first_published": "2026-07-17T17:11:42-04:00", "observed_at": "2026-07-19T16:21:27.255848+00:00"}
{"url": "https://job-boards.greenhouse.io/onxmaps/jobs/4697415006", "company_key": "greenhouse:onxmaps", "location": "Bozeman, Montana, United States", "lat": 45.6794293, "lng": -111.044047, "first_published": "2026-07-17T13:48:59-04:00", "observed_at": "2026-07-19T16:21:27.255848+00:00"}
{"url": "https://orca.security/about/careers/6117749004?gh_jid=6117749004", "company_key": "greenhouse:orcasecurity", "location": "United States", "lat": 39.7837304, "lng": -100.445882, "first_published": "2026-07-17T14:01:15-04:00", "observed_at": "2026-07-19T16:21:27.255848+00:00"}
{"url": "https://boards.greenhouse.io/rdccareers/jobs/7801389003?gh_jid=7801389003", "company_key": "greenhouse:rdccareers", "location": "Austin, Texas, United States", "lat": 30.2711286, "lng": -97.7436995, "first_published": "2026-07-17T16:23:35-04:00", "observed_at": "2026-07-19T16:21:27.255848+00:00"}
{"url": "https://boards.greenhouse.io/relativity/jobs/8637519002?gh_jid=8637519002", "company_key": "greenhouse:relativity", "location": "Long Beach, California", "lat": 33.7690164, "lng": -118.191604, "first_published": "2026-07-17T17:09:51-04:00", "observed_at": "2026-07-19T16:21:27.255848+00:00"}
{"url": "https://job-boards.greenhouse.io/anthropic/jobs/5361472008", "company_key": "greenhouse:anthropic", "location": "San Francisco, CA | New York City, NY | Seattle, WA", "lat": null, "lng": null, "first_published": "2026-07-17T19:33:41-04:00", "observed_at": "2026-07-19T16:21:27.255848+00:00"}
{"url": "https://job-boards.greenhouse.io/anthropic/jobs/5163060008", "company_key": "greenhouse:anthropic", "location": "San Francisco, CA", "lat": 37.7879363, "lng": -122.4075201, "first_published": "2026-07-17T22:33:36-04:00", "observed_at": "2026-07-19T16:21:27.255848+00:00"}
{"url": "https://job-boards.greenhouse.io/xai/jobs/5190139007", "company_key": "greenhouse:xai", "location": "Austin, TX; Memphis, TN; Palo Alto, CA; Seattle, WA", "lat": null, "lng": null, "first_published": "2026-07-17T18:22:06-04:00", "observed_at": "2026-07-19T16:21:27.255848+00:00"}
{"url": "https://boards.greenhouse.io/andurilindustries/jobs/5178802007?gh_jid=5178802007", "company_key": "greenhouse:andurilindustries", "location": "Costa Mesa, California, United States", "lat": 33.6633386, "lng": -117.903317, "first_published": "2026-07-17T16:55:20-04:00", "observed_at": "2026-07-19T16:21:27.255848+00:00"}
{"url": "https://boards.greenhouse.io/andurilindustries/jobs/4955431007?gh_jid=4955431007", "company_key": "greenhouse:andurilindustries", "location": "Costa Mesa, California, United States", "lat": 33.6633386, "lng": -117.903317, "first_published": "2026-07-17T15:50:42-04:00", "observed_at": "2026-07-19T16:21:27.255848+00:00"}
{"url": "https://boards.greenhouse.io/andurilindustries/jobs/5190193007?gh_jid=5190193007", "company_key": "greenhouse:andurilindustries", "location": "Lexington, Massachusetts, United States", "lat": 42.4473175, "lng": -71.2245003, "first_published": "2026-07-17T16:18:14-04:00", "observed_at": "2026-07-19T16:21:27.255848+00:00"}
{"url": "https://boards.greenhouse.io/andurilindustries/jobs/5190195007?gh_jid=5190195007", "company_key": "greenhouse:andurilindustries", "location": "Lexington, Massachusetts, United States", "lat": 42.4473175, "lng": -71.2245003, "first_published": "2026-07-17T16:19:11-04:00", "observed_at": "2026-07-19T16:21:27.255848+00:00"}
{"url": "https://boards.greenhouse.io/andurilindustries/jobs/5189848007?gh_jid=5189848007", "company_key": "greenhouse:andurilindustries", "location": "Lexington, Massachusetts, United States", "lat": 42.4473175, "lng": -71.2245003, "first_published": "2026-07-17T14:37:45-04:00", "observed_at": "2026-07-19T16:21:27.255848+00:00"}
{"url": "https://boards.greenhouse.io/andurilindustries/jobs/5160760007?gh_jid=5160760007", "company_key": "greenhouse:andurilindustries", "location": "Seattle, Washington, United States", "lat": 47.6038321, "lng": -122.330062, "first_published": "2026-07-17T18:05:36-04:00", "observed_at": "2026-07-19T16:21:27.255848+00:00"}
{"url": "https://boards.greenhouse.io/andurilindustries/jobs/5144350007?gh_jid=5144350007", "company_key": "greenhouse:andurilindustries", "location": "Quincy, Massachusetts, United States", "lat": 42.2509914, "lng": -71.0037374, "first_published": "2026-07-17T18:00:58-04:00", "observed_at": "2026-07-19T16:21:27.255848+00:00"}
{"url": "https://boards.greenhouse.io/andurilindustries/jobs/5189845007?gh_jid=5189845007", "company_key": "greenhouse:andurilindustries", "location": "Lexington, Massachusetts, United States", "lat": 42.4473175, "lng": -71.2245003, "first_published": "2026-07-17T14:37:26-04:00", "observed_at": "2026-07-19T16:21:27.255848+00:00"}
{"url": "https://boards.greenhouse.io/andurilindustries/jobs/5190190007?gh_jid=5190190007", "company_key": "greenhouse:andurilindustries", "location": "Lexington, Massachusetts, United States", "lat": 42.4473175, "lng": -71.2245003, "first_published": "2026-07-17T16:17:26-04:00", "observed_at": "2026-07-19T16:21:27.255848+00:00"}
{"url": "https://boards.greenhouse.io/andurilindustries/jobs/5189854007?gh_jid=5189854007", "company_key": "greenhouse:andurilindustries", "location": "Lexington, Massachusetts, United States", "lat": 42.4473175, "lng": -71.2245003, "first_published": "2026-07-17T14:40:48-04:00", "observed_at": "2026-07-19T16:21:27.255848+00:00"}
{"url": "https://boards.greenhouse.io/andurilindustries/jobs/5189844007?gh_jid=5189844007", "company_key": "greenhouse:andurilindustries", "location": "Lexington, Massachusetts, United States", "lat": 42.4473175, "lng": -71.2245003, "first_published": "2026-07-17T14:36:58-04:00", "observed_at": "2026-07-19T16:21:27.255848+00:00"}
{"url": "https://boards.greenhouse.io/andurilindustries/jobs/5190170007?gh_jid=5190170007", "company_key": "greenhouse:andurilindustries", "location": "Morrisville, North Carolina, United States", "lat": 35.824341, "lng": -78.8300321, "first_published": "2026-07-17T16:10:36-04:00", "observed_at": "2026-07-19T16:21:27.255848+00:00"}
{"url": "https://boards.greenhouse.io/andurilindustries/jobs/5188358007?gh_jid=5188358007", "company_key": "greenhouse:andurilindustries", "location": "Costa Mesa, California, United States", "lat": 33.6633386, "lng": -117.903317, "first_published": "2026-07-17T17:28:19-04:00", "observed_at": "2026-07-19T16:21:27.255848+00:00"}
{"url": "https://boards.greenhouse.io/andurilindustries/jobs/5189388007?gh_jid=5189388007", "company_key": "greenhouse:andurilindustries", "location": "Costa Mesa, California, United States", "lat": 33.6633386, "lng": -117.903317, "first_published": "2026-07-17T14:48:15-04:00", "observed_at": "2026-07-19T16:21:27.255848+00:00"}
{"url": "https://boards.greenhouse.io/andurilindustries/jobs/5172215007?gh_jid=5172215007", "company_key": "greenhouse:andurilindustries", "location": "Costa Mesa, California, United States", "lat": 33.6633386, "lng": -117.903317, "first_published": "2026-07-17T19:21:50-04:00", "observed_at": "2026-07-19T16:21:27.255848+00:00"}
{"url": "https://boards.greenhouse.io/andurilindustries/jobs/5189891007?gh_jid=5189891007", "company_key": "greenhouse:andurilindustries", "location": "Lexington, Massachusetts, United States", "lat": 42.4473175, "lng": -71.2245003, "first_published": "2026-07-17T14:54:54-04:00", "observed_at": "2026-07-19T16:21:27.255848+00:00"}
{"url": "https://boards.greenhouse.io/andurilindustries/jobs/5189898007?gh_jid=5189898007", "company_key": "greenhouse:andurilindustries", "location": "Waltham, Massachusetts, United States", "lat": 42.3762385, "lng": -71.2355644, "first_published": "2026-07-17T14:57:04-04:00", "observed_at": "2026-07-19T16:21:27.255848+00:00"}
{"url": "https://boards.greenhouse.io/andurilindustries/jobs/5189900007?gh_jid=5189900007", "company_key": "greenhouse:andurilindustries", "location": "Waltham, Massachusetts, United States", "lat": 42.3762385, "lng": -71.2355644, "first_published": "2026-07-17T14:57:29-04:00", "observed_at": "2026-07-19T16:21:27.255848+00:00"}
{"url": "https://boards.greenhouse.io/andurilindustries/jobs/5181564007?gh_jid=5181564007", "company_key": "greenhouse:andurilindustries", "location": "Costa Mesa, California, United States", "lat": 33.6633386, "lng": -117.903317, "first_published": "2026-07-17T18:12:45-04:00", "observed_at": "2026-07-19T16:21:27.255848+00:00"}
{"url": "https://boards.greenhouse.io/andurilindustries/jobs/5189857007?gh_jid=5189857007", "company_key": "greenhouse:andurilindustries", "location": "Lexington, Massachusetts, United States", "lat": 42.4473175, "lng": -71.2245003, "first_published": "2026-07-17T14:40:55-04:00", "observed_at": "2026-07-19T16:21:27.255848+00:00"}
{"url": "https://job-boards.greenhouse.io/vardaspace/jobs/7808731003", "company_key": "greenhouse:vardaspace", "location": "El Segundo, California, United States", "lat": 33.917028, "lng": -118.4156337, "first_published": "2026-07-17T21:09:37-04:00", "observed_at": "2026-07-19T16:21:27.255848+00:00"}
{"url": "https://job-boards.greenhouse.io/vardaspace/jobs/7808495003", "company_key": "greenhouse:vardaspace", "location": "El Segundo, California, United States", "lat": 33.917028, "lng": -118.4156337, "first_published": "2026-07-17T18:11:37-04:00", "observed_at": "2026-07-19T16:21:27.255848+00:00"}
{"url": "https://careers.airbnb.com/positions/7862110?gh_jid=7862110", "company_key": "greenhouse:airbnb", "location": "Canada", "lat": 61.0666922, "lng": -107.991707, "first_published": "2026-07-17T18:27:07-04:00", "observed_at": "2026-07-19T16:21:27.255848+00:00"}
{"url": "https://careers.airbnb.com/positions/7862109?gh_jid=7862109", "company_key": "greenhouse:airbnb", "location": "Canada", "lat": 61.0666922, "lng": -107.991707, "first_published": "2026-07-17T18:27:10-04:00", "observed_at": "2026-07-19T16:21:27.255848+00:00"}
{"url": "https://databricks.com/company/careers/open-positions/job?gh_jid=8639477002", "company_key": "greenhouse:databricks", "location": "Bellevue, Washington", "lat": 47.6144219, "lng": -122.192337, "first_published": "2026-07-17T18:05:41-04:00", "observed_at": "2026-07-19T16:21:27.255848+00:00"}
{"url": "https://job-boards.greenhouse.io/discord/jobs/8637188002", "company_key": "greenhouse:discord", "location": "San Francisco Bay Area ", "lat": 37.7884969, "lng": -122.3558473, "first_published": "2026-07-17T18:04:35-04:00", "observed_at": "2026-07-19T16:21:27.255848+00:00"}
{"url": "https://app.careerpuck.com/job-board/lyft/job/8639265002?gh_jid=8639265002", "company_key": "greenhouse:lyft", "location": "Nashville, TN", "lat": 36.1622767, "lng": -86.7742984, "first_published": "2026-07-17T16:58:32-04:00", "observed_at": "2026-07-19T16:21:27.255848+00:00"}
{"url": "https://app.careerpuck.com/job-board/lyft/job/8639202002?gh_jid=8639202002", "company_key": "greenhouse:lyft", "location": "San Francisco, CA", "lat": 37.7879363, "lng": -122.4075201, "first_published": "2026-07-17T16:58:31-04:00", "observed_at": "2026-07-19T16:21:27.255848+00:00"}
{"url": "https://www.pinterestcareers.com/jobs/?gh_jid=8016741", "company_key": "greenhouse:pinterest", "location": "Amsterdam, NL", "lat": 52.3730796, "lng": 4.8924534, "first_published": "2026-07-17T15:17:10-04:00", "observed_at": "2026-07-19T16:21:27.255848+00:00"}
{"url": "https://www.pinterestcareers.com/jobs/?gh_jid=7678180", "company_key": "greenhouse:pinterest", "location": "New York, NY, US", "lat": 40.7127281, "lng": -74.0060152, "first_published": "2026-07-17T13:53:47-04:00", "observed_at": "2026-07-19T16:21:27.255848+00:00"}
{"url": "https://www.weareroku.com/jobs/8070230?gh_jid=8070230", "company_key": "greenhouse:roku", "location": "San Jose, California", "lat": 37.3361663, "lng": -121.890591, "first_published": "2026-07-17T15:29:51-04:00", "observed_at": "2026-07-19T16:21:27.255848+00:00"}
{"url": "https://job-boards.greenhouse.io/twilio/jobs/8056278", "company_key": "greenhouse:twilio", "location": "Remote - US", "lat": 43.0059455, "lng": -123.8925908, "first_published": "2026-07-17T13:28:30-04:00", "observed_at": "2026-07-19T16:21:27.255848+00:00"}
{"url": "https://job-boards.greenhouse.io/twilio/jobs/8073683", "company_key": "greenhouse:twilio", "location": "Remote - Ireland", "lat": null, "lng": null, "first_published": "2026-07-19T09:41:26-04:00", "observed_at": "2026-07-19T16:21:27.255848+00:00"}
{"url": "https://job-boards.greenhouse.io/twilio/jobs/8067440", "company_key": "greenhouse:twilio", "location": "Remote - US", "lat": 43.0059455, "lng": -123.8925908, "first_published": "2026-07-17T17:23:06-04:00", "observed_at": "2026-07-19T16:21:27.255848+00:00"}
{"url": "https://job-boards.greenhouse.io/twilio/jobs/7942214", "company_key": "greenhouse:twilio", "location": "Remote - US", "lat": 43.0059455, "lng": -123.8925908, "first_published": "2026-07-17T17:05:22-04:00", "observed_at": "2026-07-19T16:21:27.255848+00:00"}
{"url": "https://boards.greenhouse.io/cloudflare/jobs/8068479?gh_jid=8068479", "company_key": "greenhouse:cloudflare", "location": "In-Office", "lat": 42.6471352, "lng": 23.3932542, "first_published": "2026-07-17T18:39:28-04:00", "observed_at": "2026-07-19T16:21:27.255848+00:00"}
{"url": "https://boards.greenhouse.io/cloudflare/jobs/8067630?gh_jid=8067630", "company_key": "greenhouse:cloudflare", "location": "Distributed", "lat": 39.9046749, "lng": -105.6323565, "first_published": "2026-07-17T15:18:51-04:00", "observed_at": "2026-07-19T16:21:27.255848+00:00"}
{"url": "https://jobs.elastic.co/jobs?gh_jid=8068023&gh_jid=8068023", "company_key": "greenhouse:elastic", "location": "United States", "lat": 39.7837304, "lng": -100.445882, "first_published": "2026-07-17T14:37:04-04:00", "observed_at": "2026-07-19T16:21:27.255848+00:00"}
{"url": "https://www.mongodb.com/careers/job/?gh_jid=8017410", "company_key": "greenhouse:mongodb", "location": "Tysons; United States; Virginia", "lat": null, "lng": null, "first_published": "2026-07-17T18:05:06-04:00", "observed_at": "2026-07-19T16:21:27.255848+00:00"}
{"url": "https://www.mongodb.com/careers/job/?gh_jid=8054311", "company_key": "greenhouse:mongodb", "location": "Brazil; S\u00e3o Paulo", "lat": -23.5506507, "lng": -46.6333824, "first_published": "2026-07-17T17:16:29-04:00", "observed_at": "2026-07-19T16:21:27.255848+00:00"}
{"url": "https://www.mongodb.com/careers/job/?gh_jid=8044218", "company_key": "greenhouse:mongodb", "location": "Austin", "lat": 30.2711286, "lng": -97.7436995, "first_published": "2026-07-17T13:57:17-04:00", "observed_at": "2026-07-19T16:21:27.255848+00:00"}
{"url": "https://www.mongodb.com/careers/job/?gh_jid=8069479", "company_key": "greenhouse:mongodb", "location": "San Francisco", "lat": 37.7879363, "lng": -122.4075201, "first_published": "2026-07-17T16:33:53-04:00", "observed_at": "2026-07-19T16:21:27.255848+00:00"}
{"url": "https://www.mongodb.com/careers/job/?gh_jid=8072861", "company_key": "greenhouse:mongodb", "location": "United States", "lat": 39.7837304, "lng": -100.445882, "first_published": "2026-07-17T18:52:28-04:00", "observed_at": "2026-07-19T16:21:27.255848+00:00"}
{"url": "https://www.samsara.com/company/careers/roles/8073243?gh_jid=8073243", "company_key": "greenhouse:samsara", "location": "Remote - Mexico", "lat": 21.0507051, "lng": -86.8804285, "first_published": "2026-07-17T18:43:35-04:00", "observed_at": "2026-07-19T16:21:27.255848+00:00"}
{"url": "https://www.samsara.com/company/careers/roles/8073242?gh_jid=8073242", "company_key": "greenhouse:samsara", "location": "Remote - Mexico", "lat": 21.0507051, "lng": -86.8804285, "first_published": "2026-07-17T18:43:34-04:00", "observed_at": "2026-07-19T16:21:27.255848+00:00"}
{"url": "https://www.samsara.com/company/careers/roles/8073244?gh_jid=8073244", "company_key": "greenhouse:samsara", "location": "Remote - Mexico", "lat": 21.0507051, "lng": -86.8804285, "first_published": "2026-07-17T18:43:36-04:00", "observed_at": "2026-07-19T16:21:27.255848+00:00"}
{"url": "https://www.samsara.com/company/careers/roles/8073236?gh_jid=8073236", "company_key": "greenhouse:samsara", "location": "Remote - Mexico", "lat": 21.0507051, "lng": -86.8804285, "first_published": "2026-07-17T18:42:31-04:00", "observed_at": "2026-07-19T16:21:27.255848+00:00"}
{"url": "https://www.samsara.com/company/careers/roles/8073240?gh_jid=8073240", "company_key": "greenhouse:samsara", "location": "Remote - Mexico", "lat": 21.0507051, "lng": -86.8804285, "first_published": "2026-07-17T18:42:32-04:00", "observed_at": "2026-07-19T16:21:27.255848+00:00"}
{"url": "https://www.samsara.com/company/careers/roles/8073241?gh_jid=8073241", "company_key": "greenhouse:samsara", "location": "Remote - Mexico", "lat": 21.0507051, "lng": -86.8804285, "first_published": "2026-07-17T18:42:32-04:00", "observed_at": "2026-07-19T16:21:27.255848+00:00"}
{"url": "https://www.samsara.com/company/careers/roles/8073247?gh_jid=8073247", "company_key": "greenhouse:samsara", "location": "Remote - Mexico", "lat": 21.0507051, "lng": -86.8804285, "first_published": "2026-07-17T18:44:39-04:00", "observed_at": "2026-07-19T16:21:27.255848+00:00"}
{"url": "https://www.samsara.com/company/careers/roles/8073245?gh_jid=8073245", "company_key": "greenhouse:samsara", "location": "Remote - Mexico", "lat": 21.0507051, "lng": -86.8804285, "first_published": "2026-07-17T18:44:37-04:00", "observed_at": "2026-07-19T16:21:27.255848+00:00"}
{"url": "https://www.samsara.com/company/careers/roles/8073246?gh_jid=8073246", "company_key": "greenhouse:samsara", "location": "Remote - Mexico", "lat": 21.0507051, "lng": -86.8804285, "first_published": "2026-07-17T18:44:38-04:00", "observed_at": "2026-07-19T16:21:27.255848+00:00"}
{"url": "https://www.samsara.com/company/careers/roles/8067829?gh_jid=8067829", "company_key": "greenhouse:samsara", "location": "London - UK2", "lat": null, "lng": null, "first_published": "2026-07-17T16:01:05-04:00", "observed_at": "2026-07-19T16:21:27.255848+00:00"}
{"url": "https://www.okta.com/company/careers/opportunity/8068504?gh_jid=8068504", "company_key": "greenhouse:okta", "location": "San Francisco, California", "lat": 37.7879363, "lng": -122.4075201, "first_published": "2026-07-17T15:05:04-04:00", "observed_at": "2026-07-19T16:21:27.255848+00:00"}
{"url": "https://www.okta.com/company/careers/opportunity/8072528?gh_jid=8072528", "company_key": "greenhouse:okta", "location": "Toronto, Ontario, Canada", "lat": 43.6534817, "lng": -79.3839347, "first_published": "2026-07-17T14:08:11-04:00", "observed_at": "2026-07-19T16:21:27.255848+00:00"}
{"url": "https://www.okta.com/company/careers/opportunity/8066241?gh_jid=8066241", "company_key": "greenhouse:okta", "location": "Bellevue, Washington", "lat": 47.6144219, "lng": -122.192337, "first_published": "2026-07-17T13:55:08-04:00", "observed_at": "2026-07-19T16:21:27.255848+00:00"}
{"url": "https://www.okta.com/company/careers/opportunity/8072490?gh_jid=8072490", "company_key": "greenhouse:okta", "location": "Toronto, Ontario, Canada", "lat": 43.6534817, "lng": -79.3839347, "first_published": "2026-07-17T14:46:59-04:00", "observed_at": "2026-07-19T16:21:27.255848+00:00"}
{"url": "https://job-boards.greenhouse.io/pagerduty/jobs/6119060004", "company_key": "greenhouse:pagerduty", "location": "San Francisco", "lat": 37.7879363, "lng": -122.4075201, "first_published": "2026-07-17T15:28:05-04:00", "observed_at": "2026-07-19T16:21:27.255848+00:00"}
{"url": "https://job-boards.greenhouse.io/pagerduty/jobs/6111206004", "company_key": "greenhouse:pagerduty", "location": "Remote (USA - Los Angeles, CA)", "lat": null, "lng": null, "first_published": "2026-07-17T18:42:50-04:00", "observed_at": "2026-07-19T16:21:27.255848+00:00"}
{"url": "https://job-boards.greenhouse.io/grafanalabs/jobs/6119054004", "company_key": "greenhouse:grafanalabs", "location": "United States (Remote)", "lat": 43.0059455, "lng": -123.8925908, "first_published": "2026-07-17T15:14:30-04:00", "observed_at": "2026-07-19T16:21:27.255848+00:00"}
{"url": "https://job-boards.greenhouse.io/clickhouse/jobs/6118983004", "company_key": "greenhouse:clickhouse", "location": "United States", "lat": 39.7837304, "lng": -100.445882, "first_published": "2026-07-17T14:09:33-04:00", "observed_at": "2026-07-19T16:21:27.255848+00:00"}
{"url": "https://job-boards.greenhouse.io/newrelic/jobs/5288300008", "company_key": "greenhouse:newrelic", "location": "San Francisco, California, USA", "lat": 37.7879363, "lng": -122.4075201, "first_published": "2026-07-17T17:07:29-04:00", "observed_at": "2026-07-19T16:21:27.255848+00:00"}
{"url": "https://careers.datadoghq.com/detail/8059723/?gh_jid=8059723", "company_key": "greenhouse:datadog", "location": "New York, New York, USA", "lat": 40.7127281, "lng": -74.0060152, "first_published": "2026-07-17T16:02:54-04:00", "observed_at": "2026-07-19T16:21:27.255848+00:00"}
{"url": "https://job-boards.greenhouse.io/launchdarkly/jobs/7808587003", "company_key": "greenhouse:launchdarkly", "location": "Remote - US", "lat": 43.0059455, "lng": -123.8925908, "first_published": "2026-07-17T17:33:32-04:00", "observed_at": "2026-07-19T16:21:27.255848+00:00"}
{"url": "https://www.coinbase.com/careers/positions/8069671?gh_jid=8069671", "company_key": "greenhouse:coinbase", "location": "Remote - USA", "lat": 43.0059455, "lng": -123.8925908, "first_published": "2026-07-17T15:07:44-04:00", "observed_at": "2026-07-19T16:21:27.255848+00:00"}
{"url": "https://job-boards.greenhouse.io/affirm/jobs/7807367003", "company_key": "greenhouse:affirm", "location": "Remote US", "lat": 43.0059455, "lng": -123.8925908, "first_published": "2026-07-17T15:41:32-04:00", "observed_at": "2026-07-19T16:21:27.255848+00:00"}
{"url": "https://job-boards.greenhouse.io/affirm/jobs/7807363003", "company_key": "greenhouse:affirm", "location": "Remote US", "lat": 43.0059455, "lng": -123.8925908, "first_published": "2026-07-17T13:36:36-04:00", "observed_at": "2026-07-19T16:21:27.255848+00:00"}
{"url": "https://job-boards.greenhouse.io/carta/jobs/7808434003", "company_key": "greenhouse:carta", "location": "New York, NY", "lat": 40.7127281, "lng": -74.0060152, "first_published": "2026-07-17T16:11:49-04:00", "observed_at": "2026-07-19T16:21:27.255848+00:00"}
{"url": "https://job-boards.greenhouse.io/carta/jobs/7808166003", "company_key": "greenhouse:carta", "location": "San Francisco, CA", "lat": 37.7879363, "lng": -122.4075201, "first_published": "2026-07-17T16:11:49-04:00", "observed_at": "2026-07-19T16:21:27.255848+00:00"}
{"url": "https://job-boards.greenhouse.io/carta/jobs/7807188003", "company_key": "greenhouse:carta", "location": "London, England, United Kingdom", "lat": 51.5074456, "lng": -0.1277653, "first_published": "2026-07-17T19:04:19-04:00", "observed_at": "2026-07-19T16:21:27.255848+00:00"}
{"url": "https://job-boards.greenhouse.io/marqeta/jobs/8035649", "company_key": "greenhouse:marqeta", "location": "Remote, USA", "lat": 43.0059455, "lng": -123.8925908, "first_published": "2026-07-17T17:59:09-04:00", "observed_at": "2026-07-19T16:21:27.255848+00:00"}
{"url": "https://sofi.com/careers/job/7800572003?gh_jid=7800572003", "company_key": "greenhouse:sofi", "location": "United States", "lat": 39.7837304, "lng": -100.445882, "first_published": "2026-07-17T14:05:09-04:00", "observed_at": "2026-07-19T16:21:27.255848+00:00"}
{"url": "https://sofi.com/careers/job/7808266003?gh_jid=7808266003", "company_key": "greenhouse:sofi", "location": "United States", "lat": 39.7837304, "lng": -100.445882, "first_published": "2026-07-17T13:56:02-04:00", "observed_at": "2026-07-19T16:21:27.255848+00:00"}
{"url": "https://sofi.com/careers/job/7809098003?gh_jid=7809098003", "company_key": "greenhouse:sofi", "location": "United States", "lat": 39.7837304, "lng": -100.445882, "first_published": "2026-07-18T23:54:57-04:00", "observed_at": "2026-07-19T16:21:27.255848+00:00"}
{"url": "https://sofi.com/careers/job/7808559003?gh_jid=7808559003", "company_key": "greenhouse:sofi", "location": "NY - New York City; CA - San Francisco", "lat": null, "lng": null, "first_published": "2026-07-17T17:13:21-04:00", "observed_at": "2026-07-19T16:21:27.255848+00:00"}
{"url": "https://boards.greenhouse.io/embed/job_app?for=gemini&token=8072662&gh_jid=8072662", "company_key": "greenhouse:gemini", "location": "Singapore, Singapore", "lat": 1.2899175, "lng": 103.8519072, "first_published": "2026-07-17T16:25:49-04:00", "observed_at": "2026-07-19T16:21:27.255848+00:00"}
{"url": "https://boards.greenhouse.io/chime/jobs/8606606002?gh_jid=8606606002", "company_key": "greenhouse:chime", "location": "San Francisco, CA, USA", "lat": 37.7879363, "lng": -122.4075201, "first_published": "2026-07-19T11:35:47-04:00", "observed_at": "2026-07-19T16:21:27.255848+00:00"}
{"url": "https://abnormal.ai/careers/jobs/7801760003?gh_jid=7801760003", "company_key": "greenhouse:abnormalsecurity", "location": "Remote - USA", "lat": 43.0059455, "lng": -123.8925908, "first_published": "2026-07-17T14:10:55-04:00", "observed_at": "2026-07-19T16:21:27.255848+00:00"}
{"url": "https://abnormal.ai/careers/jobs/7808086003?gh_jid=7808086003", "company_key": "greenhouse:abnormalsecurity", "location": "Remote - USA", "lat": 43.0059455, "lng": -123.8925908, "first_published": "2026-07-17T13:36:29-04:00", "observed_at": "2026-07-19T16:21:27.255848+00:00"}
{"url": "https://job-boards.greenhouse.io/huntress/jobs/7808516003", "company_key": "greenhouse:huntress", "location": "United States of America", "lat": 39.7837304, "lng": -100.445882, "first_published": "2026-07-17T16:19:56-04:00", "observed_at": "2026-07-19T16:21:27.255848+00:00"}
{"url": "https://job-boards.greenhouse.io/synack/jobs/8069228", "company_key": "greenhouse:synack", "location": "Remote in the US", "lat": null, "lng": null, "first_published": "2026-07-17T14:00:01-04:00", "observed_at": "2026-07-19T16:21:27.255848+00:00"}
{"url": "https://job-boards.greenhouse.io/synack/jobs/8069252", "company_key": "greenhouse:synack", "location": "Remote in the US ", "lat": null, "lng": null, "first_published": "2026-07-17T16:30:27-04:00", "observed_at": "2026-07-19T16:21:27.255848+00:00"}
{"url": "https://www.coalitioninc.com/job-posting?gh_jid=4716435005", "company_key": "greenhouse:coalition", "location": "Any location, Canada", "lat": null, "lng": null, "first_published": "2026-07-17T17:33:37-04:00", "observed_at": "2026-07-19T16:21:27.255848+00:00"}
{"url": "https://www.coalitioninc.com/job-posting?gh_jid=4716434005", "company_key": "greenhouse:coalition", "location": "Any location, United States", "lat": null, "lng": null, "first_published": "2026-07-17T17:33:36-04:00", "observed_at": "2026-07-19T16:21:27.255848+00:00"}
{"url": "http://www.onemedical.com/careers/all-departments/8073078?gh_jid=8073078", "company_key": "greenhouse:onemedical", "location": "San Francisco, CA", "lat": 37.7879363, "lng": -122.4075201, "first_published": "2026-07-17T16:59:22-04:00", "observed_at": "2026-07-19T16:21:27.255848+00:00"}
{"url": "http://www.onemedical.com/careers/all-departments/8073099?gh_jid=8073099", "company_key": "greenhouse:onemedical", "location": "San Mateo, CA", "lat": 37.496904, "lng": -122.3330573, "first_published": "2026-07-17T17:05:19-04:00", "observed_at": "2026-07-19T16:21:27.255848+00:00"}
{"url": "http://www.onemedical.com/careers/all-departments/8072685?gh_jid=8072685", "company_key": "greenhouse:onemedical", "location": "Bethesda, MD", "lat": 38.9812726, "lng": -77.1233587, "first_published": "2026-07-17T14:31:18-04:00", "observed_at": "2026-07-19T16:21:27.255848+00:00"}
{"url": "http://www.onemedical.com/careers/all-departments/8072687?gh_jid=8072687", "company_key": "greenhouse:onemedical", "location": "Washington, DC", "lat": 38.8950982, "lng": -77.0363849, "first_published": "2026-07-17T14:33:10-04:00", "observed_at": "2026-07-19T16:21:27.255848+00:00"}
{"url": "http://www.onemedical.com/careers/all-departments/8072261?gh_jid=8072261", "company_key": "greenhouse:onemedical", "location": "Berkeley, CA", "lat": 37.8708393, "lng": -122.272863, "first_published": "2026-07-17T13:38:10-04:00", "observed_at": "2026-07-19T16:21:27.255848+00:00"}
{"url": "http://www.onemedical.com/careers/all-departments/8072594?gh_jid=8072594", "company_key": "greenhouse:onemedical", "location": "Durham, NC", "lat": 35.996653, "lng": -78.9018053, "first_published": "2026-07-17T14:04:51-04:00", "observed_at": "2026-07-19T16:21:27.255848+00:00"}
{"url": "http://www.onemedical.com/careers/all-departments/8072649?gh_jid=8072649", "company_key": "greenhouse:onemedical", "location": "Durham, NC", "lat": 35.996653, "lng": -78.9018053, "first_published": "2026-07-17T14:25:48-04:00", "observed_at": "2026-07-19T16:21:27.255848+00:00"}
{"url": "http://www.onemedical.com/careers/all-departments/8072459?gh_jid=8072459", "company_key": "greenhouse:onemedical", "location": "Washington, DC", "lat": 38.8950982, "lng": -77.0363849, "first_published": "2026-07-17T13:41:54-04:00", "observed_at": "2026-07-19T16:21:27.255848+00:00"}
{"url": "http://www.onemedical.com/careers/all-departments/8072694?gh_jid=8072694", "company_key": "greenhouse:onemedical", "location": "Washington, DC", "lat": 38.8950982, "lng": -77.0363849, "first_published": "2026-07-17T14:35:08-04:00", "observed_at": "2026-07-19T16:21:27.255848+00:00"}
{"url": "http://www.onemedical.com/careers/all-departments/8072697?gh_jid=8072697", "company_key": "greenhouse:onemedical", "location": "Washington, DC", "lat": 38.8950982, "lng": -77.0363849, "first_published": "2026-07-17T14:35:57-04:00", "observed_at": "2026-07-19T16:21:27.255848+00:00"}
{"url": "http://www.onemedical.com/careers/all-departments/8072679?gh_jid=8072679", "company_key": "greenhouse:onemedical", "location": "Silver Spring, MD", "lat": 38.9997621, "lng": -77.0240371, "first_published": "2026-07-17T14:28:56-04:00", "observed_at": "2026-07-19T16:21:27.255848+00:00"}
{"url": "http://www.onemedical.com/careers/all-departments/8072849?gh_jid=8072849", "company_key": "greenhouse:onemedical", "location": "Shoreline, WA", "lat": 47.7564667, "lng": -122.3437497, "first_published": "2026-07-17T15:37:29-04:00", "observed_at": "2026-07-19T16:21:27.255848+00:00"}
{"url": "https://job-boards.greenhouse.io/natera/jobs/6110263004", "company_key": "greenhouse:natera", "location": "Pleasanton, CA", "lat": 37.6624312, "lng": -121.8746789, "first_published": "2026-07-17T19:07:41-04:00", "observed_at": "2026-07-19T16:21:27.255848+00:00"}
{"url": "https://job-boards.greenhouse.io/natera/jobs/6030736004", "company_key": "greenhouse:natera", "location": "San Carlos, CA", "lat": 37.504936, "lng": -122.261823, "first_published": "2026-07-17T13:53:51-04:00", "observed_at": "2026-07-19T16:21:27.255848+00:00"}
{"url": "https://job-boards.greenhouse.io/billiontoone/jobs/4716459005", "company_key": "greenhouse:billiontoone", "location": "Oklahoma City", "lat": 35.4729886, "lng": -97.5170536, "first_published": "2026-07-17T19:10:58-04:00", "observed_at": "2026-07-19T16:21:27.255848+00:00"}
{"url": "https://aurora.tech/jobs/8624950002?gh_jid=8624950002", "company_key": "greenhouse:aurorainnovation", "location": "Mountain View, California", "lat": 37.3893889, "lng": -122.0832101, "first_published": "2026-07-17T16:30:47-04:00", "observed_at": "2026-07-19T16:21:27.255848+00:00"}
{"url": "https://boards.greenhouse.io/spacex/jobs/8639275002?gh_jid=8639275002", "company_key": "greenhouse:spacex", "location": "Hawthorne, CA", "lat": 33.9128272, "lng": -118.3426122, "first_published": "2026-07-17T18:27:26-04:00", "observed_at": "2026-07-19T16:21:27.255848+00:00"}
{"url": "https://boards.greenhouse.io/spacex/jobs/8638979002?gh_jid=8638979002", "company_key": "greenhouse:spacex", "location": "Bastrop, TX", "lat": 30.0541116, "lng": -97.3887764, "first_published": "2026-07-17T20:28:10-04:00", "observed_at": "2026-07-19T16:21:27.255848+00:00"}
{"url": "https://boards.greenhouse.io/spacex/jobs/8639247002?gh_jid=8639247002", "company_key": "greenhouse:spacex", "location": "Bastrop, TX", "lat": 30.0541116, "lng": -97.3887764, "first_published": "2026-07-17T16:32:50-04:00", "observed_at": "2026-07-19T16:21:27.255848+00:00"}
{"url": "https://boards.greenhouse.io/spacex/jobs/8639268002?gh_jid=8639268002", "company_key": "greenhouse:spacex", "location": "Bastrop, TX", "lat": 30.0541116, "lng": -97.3887764, "first_published": "2026-07-17T16:41:52-04:00", "observed_at": "2026-07-19T16:21:27.255848+00:00"}
{"url": "https://boards.greenhouse.io/spacex/jobs/8639546002?gh_jid=8639546002", "company_key": "greenhouse:spacex", "location": "Hawthorne, CA", "lat": 33.9128272, "lng": -118.3426122, "first_published": "2026-07-17T20:17:51-04:00", "observed_at": "2026-07-19T16:21:27.255848+00:00"}
{"url": "https://boards.greenhouse.io/spacex/jobs/8639251002?gh_jid=8639251002", "company_key": "greenhouse:spacex", "location": "Hawthorne, CA", "lat": 33.9128272, "lng": -118.3426122, "first_published": "2026-07-17T18:27:40-04:00", "observed_at": "2026-07-19T16:21:27.255848+00:00"}
{"url": "https://boards.greenhouse.io/spacex/jobs/8637756002?gh_jid=8637756002", "company_key": "greenhouse:spacex", "location": "Redmond, WA", "lat": 47.6694141, "lng": -122.1238767, "first_published": "2026-07-19T02:31:02-04:00", "observed_at": "2026-07-19T16:21:27.255848+00:00"}
{"url": "https://boards.greenhouse.io/spacex/jobs/8639095002?gh_jid=8639095002", "company_key": "greenhouse:spacex", "location": "Bastrop, TX", "lat": 30.0541116, "lng": -97.3887764, "first_published": "2026-07-17T16:24:23-04:00", "observed_at": "2026-07-19T16:21:27.255848+00:00"}
{"url": "https://boards.greenhouse.io/spacex/jobs/8639120002?gh_jid=8639120002", "company_key": "greenhouse:spacex", "location": "Redmond, WA", "lat": 47.6694141, "lng": -122.1238767, "first_published": "2026-07-17T16:24:24-04:00", "observed_at": "2026-07-19T16:21:27.255848+00:00"}
{"url": "https://boards.greenhouse.io/spacex/jobs/8639293002?gh_jid=8639293002", "company_key": "greenhouse:spacex", "location": "Bastrop, TX", "lat": 30.0541116, "lng": -97.3887764, "first_published": "2026-07-17T16:50:44-04:00", "observed_at": "2026-07-19T16:21:27.255848+00:00"}
{"url": "https://boards.greenhouse.io/spacex/jobs/8639326002?gh_jid=8639326002", "company_key": "greenhouse:spacex", "location": "Bastrop, TX", "lat": 30.0541116, "lng": -97.3887764, "first_published": "2026-07-17T16:56:47-04:00", "observed_at": "2026-07-19T16:21:27.255848+00:00"}
{"url": "https://boards.greenhouse.io/spacex/jobs/8639395002?gh_jid=8639395002", "company_key": "greenhouse:spacex", "location": "Hawthorne, CA", "lat": 33.9128272, "lng": -118.3426122, "first_published": "2026-07-17T17:26:32-04:00", "observed_at": "2026-07-19T16:21:27.255848+00:00"}
{"url": "https://boards.greenhouse.io/spacex/jobs/8639544002?gh_jid=8639544002", "company_key": "greenhouse:spacex", "location": "Bastrop, TX", "lat": 30.0541116, "lng": -97.3887764, "first_published": "2026-07-17T20:22:15-04:00", "observed_at": "2026-07-19T16:21:27.255848+00:00"}
{"url": "https://boards.greenhouse.io/spacex/jobs/8639279002?gh_jid=8639279002", "company_key": "greenhouse:spacex", "location": "Starbase, TX", "lat": 25.9914611, "lng": -97.1829783, "first_published": "2026-07-19T00:35:48-04:00", "observed_at": "2026-07-19T16:21:27.255848+00:00"}
{"url": "https://boards.greenhouse.io/spacex/jobs/8636229002?gh_jid=8636229002", "company_key": "greenhouse:spacex", "location": "Starbase, TX", "lat": 25.9914611, "lng": -97.1829783, "first_published": "2026-07-19T00:28:32-04:00", "observed_at": "2026-07-19T16:21:27.255848+00:00"}
{"url": "https://boards.greenhouse.io/spacex/jobs/8639384002?gh_jid=8639384002", "company_key": "greenhouse:spacex", "location": "Hawthorne, CA", "lat": 33.9128272, "lng": -118.3426122, "first_published": "2026-07-17T17:26:30-04:00", "observed_at": "2026-07-19T16:21:27.255848+00:00"}
{"url": "https://boards.greenhouse.io/spacex/jobs/8638571002?gh_jid=8638571002", "company_key": "greenhouse:spacex", "location": "Hawthorne, CA", "lat": 33.9128272, "lng": -118.3426122, "first_published": "2026-07-17T18:50:05-04:00", "observed_at": "2026-07-19T16:21:27.255848+00:00"}
{"url": "https://boards.greenhouse.io/spacex/jobs/8639190002?gh_jid=8639190002", "company_key": "greenhouse:spacex", "location": "Hawthorne, CA", "lat": 33.9128272, "lng": -118.3426122, "first_published": "2026-07-17T16:09:10-04:00", "observed_at": "2026-07-19T16:21:27.255848+00:00"}
{"url": "https://job-boards.greenhouse.io/hightouch/jobs/6092042004", "company_key": "greenhouse:hightouch", "location": "EMEA", "lat": -2.3917722, "lng": 121.5230074, "first_published": "2026-07-17T14:30:09-04:00", "observed_at": "2026-07-19T16:21:27.255848+00:00"}
{"url": "https://job-boards.greenhouse.io/datagrail/jobs/7807686003", "company_key": "greenhouse:datagrail", "location": "Remote - United States", "lat": 43.0059455, "lng": -123.8925908, "first_published": "2026-07-17T13:55:55-04:00", "observed_at": "2026-07-19T16:21:27.255848+00:00"}
{"url": "https://job-boards.greenhouse.io/misfitsmarket/jobs/6612969003", "company_key": "greenhouse:misfitsmarket", "location": "Walnut, CA", "lat": 34.0203253, "lng": -117.8659441, "first_published": "2026-07-17T14:21:07-04:00", "observed_at": "2026-07-19T16:21:27.255848+00:00"}
{"url": "https://www.clever.com/about/careers?gh_jid=8067162", "company_key": "greenhouse:clever", "location": "San Francisco, CA, OR Anywhere in the Continental U.S.", "lat": null, "lng": null, "first_published": "2026-07-17T17:17:16-04:00", "observed_at": "2026-07-19T16:21:27.255848+00:00"}
{"url": "https://job-boards.greenhouse.io/degreed/jobs/6110943004", "company_key": "greenhouse:degreed", "location": "US Based | Remote", "lat": null, "lng": null, "first_published": "2026-07-17T14:12:04-04:00", "observed_at": "2026-07-19T16:21:27.255848+00:00"}
{"url": "https://boards.greenhouse.io/braze/jobs/8072853?gh_jid=8072853", "company_key": "greenhouse:braze", "location": "San Francisco", "lat": 37.7879363, "lng": -122.4075201, "first_published": "2026-07-17T15:50:08-04:00", "observed_at": "2026-07-19T16:21:27.255848+00:00"}
{"url": "https://boards.greenhouse.io/braze/jobs/8051169?gh_jid=8051169", "company_key": "greenhouse:braze", "location": "New York City", "lat": 40.7127281, "lng": -74.0060152, "first_published": "2026-07-17T15:50:05-04:00", "observed_at": "2026-07-19T16:21:27.255848+00:00"}
{"url": "https://boards.greenhouse.io/braze/jobs/8072850?gh_jid=8072850", "company_key": "greenhouse:braze", "location": "Chicago", "lat": 41.8755616, "lng": -87.6244212, "first_published": "2026-07-17T15:50:06-04:00", "observed_at": "2026-07-19T16:21:27.255848+00:00"}
{"url": "https://boards.greenhouse.io/braze/jobs/8072852?gh_jid=8072852", "company_key": "greenhouse:braze", "location": "Austin", "lat": 30.2711286, "lng": -97.7436995, "first_published": "2026-07-17T15:50:07-04:00", "observed_at": "2026-07-19T16:21:27.255848+00:00"}
{"url": "https://job-boards.greenhouse.io/checkr/jobs/8070568", "company_key": "greenhouse:checkr", "location": "Denver, Colorado, United States; San Francisco, California, United States", "lat": null, "lng": null, "first_published": "2026-07-17T13:55:08-04:00", "observed_at": "2026-07-19T16:21:27.255848+00:00"}
{"url": "https://job-boards.greenhouse.io/tanium/jobs/8068527", "company_key": "greenhouse:tanium", "location": "Addison, TX (Hybrid); Bellevue, WA (Hybrid); Durham, NC (Hybrid); Emeryville, CA (Hybrid)", "lat": null, "lng": null, "first_published": "2026-07-17T15:07:10-04:00", "observed_at": "2026-07-19T16:21:27.255848+00:00"}
{"url": "https://job-boards.greenhouse.io/thenewyorktimes/jobs/4716343005", "company_key": "greenhouse:thenewyorktimes", "location": "New York, NY", "lat": 40.7127281, "lng": -74.0060152, "first_published": "2026-07-17T16:11:40-04:00", "observed_at": "2026-07-19T16:21:27.255848+00:00"}
{"url": "https://job-boards.greenhouse.io/thenewyorktimes/jobs/4712954005", "company_key": "greenhouse:thenewyorktimes", "location": "New York, NY", "lat": 40.7127281, "lng": -74.0060152, "first_published": "2026-07-17T15:48:54-04:00", "observed_at": "2026-07-19T16:21:27.255848+00:00"}
{"url": "https://job-boards.greenhouse.io/thenewyorktimes/jobs/4716441005", "company_key": "greenhouse:thenewyorktimes", "location": "Norfolk, VA", "lat": 36.8493695, "lng": -76.2899539, "first_published": "2026-07-17T18:04:50-04:00", "observed_at": "2026-07-19T16:21:27.255848+00:00"}
{"url": "https://job-boards.greenhouse.io/thenewyorktimes/jobs/4716363005", "company_key": "greenhouse:thenewyorktimes", "location": "New York, NY", "lat": 40.7127281, "lng": -74.0060152, "first_published": "2026-07-17T16:11:55-04:00", "observed_at": "2026-07-19T16:21:27.255848+00:00"}
{"url": "https://job-boards.greenhouse.io/thenewyorktimes/jobs/4716367005", "company_key": "greenhouse:thenewyorktimes", "location": "New York, NY", "lat": 40.7127281, "lng": -74.0060152, "first_published": "2026-07-17T15:55:30-04:00", "observed_at": "2026-07-19T16:21:27.255848+00:00"}
{"url": "https://job-boards.greenhouse.io/thenewyorktimes/jobs/4702508005", "company_key": "greenhouse:thenewyorktimes", "location": "New York, NY", "lat": 40.7127281, "lng": -74.0060152, "first_published": "2026-07-17T15:34:12-04:00", "observed_at": "2026-07-19T16:21:27.255848+00:00"}
{"url": "https://eh2.com/careers?gh_jid=4716048005", "company_key": "greenhouse:eh2", "location": "Devens, Massachusetts, United States", "lat": 42.5389512, "lng": -71.6094356, "first_published": "2026-07-17T14:07:00-04:00", "observed_at": "2026-07-19T16:21:27.255848+00:00"}
{"url": "https://job-boards.greenhouse.io/2k/jobs/7807537003", "company_key": "greenhouse:2k", "location": "Austin, Texas, United States", "lat": 30.2711286, "lng": -97.7436995, "first_published": "2026-07-17T13:34:11-04:00", "observed_at": "2026-07-19T16:21:27.255848+00:00"}
{"url": "https://job-boards.greenhouse.io/adyen/jobs/7649505", "company_key": "greenhouse:adyen", "location": "Chicago; San Francisco", "lat": 37.7095557, "lng": -122.4327817, "first_published": "2026-07-17T16:06:01-04:00", "observed_at": "2026-07-19T16:21:27.255848+00:00"}
{"url": "https://job-boards.greenhouse.io/adyen/jobs/7938450", "company_key": "greenhouse:adyen", "location": "New York", "lat": 40.7127281, "lng": -74.0060152, "first_published": "2026-07-17T15:41:37-04:00", "observed_at": "2026-07-19T16:21:27.255848+00:00"}
{"url": "https://job-boards.greenhouse.io/afresh/jobs/6119139004", "company_key": "greenhouse:afresh", "location": "Remote - United States", "lat": 43.0059455, "lng": -123.8925908, "first_published": "2026-07-17T16:46:51-04:00", "observed_at": "2026-07-19T16:21:27.255848+00:00"}
{"url": "https://job-boards.greenhouse.io/anaplan/jobs/8548037002", "company_key": "greenhouse:anaplan", "location": "Gurugram", "lat": 28.4646148, "lng": 77.0299194, "first_published": "2026-07-18T05:31:15-04:00", "observed_at": "2026-07-19T16:21:27.255848+00:00"}
{"url": "https://www.playlist.com/careers/opportunities/4698144006?gh_jid=4698144006", "company_key": "greenhouse:classpass", "location": "United States", "lat": 39.7837304, "lng": -100.445882, "first_published": "2026-07-17T18:07:03-04:00", "observed_at": "2026-07-19T16:21:27.255848+00:00"}
{"url": "https://job-boards.greenhouse.io/coast/jobs/6119202004", "company_key": "greenhouse:coast", "location": "New York, NY", "lat": 40.7127281, "lng": -74.0060152, "first_published": "2026-07-17T19:05:04-04:00", "observed_at": "2026-07-19T16:21:27.255848+00:00"}
{"url": "https://www.fanduel.careers/open-positions?gh_jid=8072761", "company_key": "greenhouse:fanduel", "location": "New York City", "lat": 40.7127281, "lng": -74.0060152, "first_published": "2026-07-17T15:02:49-04:00", "observed_at": "2026-07-19T16:21:27.255848+00:00"}
{"url": "https://www.fanduel.careers/open-positions?gh_jid=8072742", "company_key": "greenhouse:fanduel", "location": "New Jersey, United States", "lat": 40.0757384, "lng": -74.4041622, "first_published": "2026-07-17T15:40:17-04:00", "observed_at": "2026-07-19T16:21:27.255848+00:00"}
{"url": "https://job-boards.greenhouse.io/fictiv/jobs/8639999002", "company_key": "greenhouse:fictiv", "location": "Remote - USA", "lat": 43.0059455, "lng": -123.8925908, "first_published": "2026-07-18T18:52:54-04:00", "observed_at": "2026-07-19T16:21:27.255848+00:00"}
{"url": "https://job-boards.greenhouse.io/fictiv/jobs/8640000002", "company_key": "greenhouse:fictiv", "location": "Bengaluru, India Office", "lat": 12.9756383, "lng": 77.6040599, "first_published": "2026-07-18T23:20:33-04:00", "observed_at": "2026-07-19T16:21:27.255848+00:00"}
{"url": "https://job-boards.greenhouse.io/fictiv/jobs/8625672002", "company_key": "greenhouse:fictiv", "location": "Monterrey, Mexico", "lat": 25.6802019, "lng": -100.315258, "first_published": "2026-07-17T16:42:30-04:00", "observed_at": "2026-07-19T16:21:27.255848+00:00"}
{"url": "https://job-boards.greenhouse.io/fictiv/jobs/8640050002", "company_key": "greenhouse:fictiv", "location": "Remote - USA", "lat": 43.0059455, "lng": -123.8925908, "first_published": "2026-07-19T00:13:56-04:00", "observed_at": "2026-07-19T16:21:27.255848+00:00"}
{"url": "https://job-boards.greenhouse.io/fictiv/jobs/8640052002", "company_key": "greenhouse:fictiv", "location": "Oakland, CA Office", "lat": 37.7929742, "lng": -122.2756943, "first_published": "2026-07-19T00:46:29-04:00", "observed_at": "2026-07-19T16:21:27.255848+00:00"}
{"url": "https://job-boards.greenhouse.io/fictiv/jobs/8640053002", "company_key": "greenhouse:fictiv", "location": "Oakland, CA Office", "lat": 37.7929742, "lng": -122.2756943, "first_published": "2026-07-19T01:25:28-04:00", "observed_at": "2026-07-19T16:21:27.255848+00:00"}
{"url": "https://job-boards.greenhouse.io/fictiv/jobs/8640054002", "company_key": "greenhouse:fictiv", "location": "Oakland, CA Office", "lat": 37.7929742, "lng": -122.2756943, "first_published": "2026-07-19T02:01:25-04:00", "observed_at": "2026-07-19T16:21:27.255848+00:00"}
{"url": "https://careers.formlabs.com/job/8073636/apply/?gh_jid=8073636", "company_key": "greenhouse:formlabs", "location": "Perrysburg, OH", "lat": 41.5571178, "lng": -83.6279321, "first_published": "2026-07-18T09:03:20-04:00", "observed_at": "2026-07-19T16:21:27.255848+00:00"}
{"url": "https://careers.formlabs.com/job/8072867/apply/?gh_jid=8072867", "company_key": "greenhouse:formlabs", "location": "Boston, MA", "lat": 42.3588336, "lng": -71.0578303, "first_published": "2026-07-17T15:43:10-04:00", "observed_at": "2026-07-19T16:21:27.255848+00:00"}
{"url": "https://careers.formlabs.com/job/8072868/apply/?gh_jid=8072868", "company_key": "greenhouse:formlabs", "location": "Somerville, MA", "lat": 42.3875968, "lng": -71.0994968, "first_published": "2026-07-17T15:43:11-04:00", "observed_at": "2026-07-19T16:21:27.255848+00:00"}
{"url": "https://careers.formlabs.com/job/8072875/apply/?gh_jid=8072875", "company_key": "greenhouse:formlabs", "location": "Boston, MA", "lat": 42.3588336, "lng": -71.0578303, "first_published": "2026-07-17T15:48:32-04:00", "observed_at": "2026-07-19T16:21:27.255848+00:00"}
{"url": "https://careers.formlabs.com/job/8072873/apply/?gh_jid=8072873", "company_key": "greenhouse:formlabs", "location": "Somerville, MA", "lat": 42.3875968, "lng": -71.0994968, "first_published": "2026-07-17T15:48:31-04:00", "observed_at": "2026-07-19T16:21:27.255848+00:00"}
{"url": "https://careers.formlabs.com/job/8072877/apply/?gh_jid=8072877", "company_key": "greenhouse:formlabs", "location": "Boston, MA", "lat": 42.3588336, "lng": -71.0578303, "first_published": "2026-07-17T15:48:34-04:00", "observed_at": "2026-07-19T16:21:27.255848+00:00"}
{"url": "https://careers.formlabs.com/job/8072876/apply/?gh_jid=8072876", "company_key": "greenhouse:formlabs", "location": "Somerville, MA", "lat": 42.3875968, "lng": -71.0994968, "first_published": "2026-07-17T15:48:33-04:00", "observed_at": "2026-07-19T16:21:27.255848+00:00"}
{"url": "https://careers.formlabs.com/job/8072856/apply/?gh_jid=8072856", "company_key": "greenhouse:formlabs", "location": "Boston, MA", "lat": 42.3588336, "lng": -71.0578303, "first_published": "2026-07-17T15:39:34-04:00", "observed_at": "2026-07-19T16:21:27.255848+00:00"}
{"url": "https://careers.formlabs.com/job/8072855/apply/?gh_jid=8072855", "company_key": "greenhouse:formlabs", "location": "Somerville, MA", "lat": 42.3875968, "lng": -71.0994968, "first_published": "2026-07-17T15:39:33-04:00", "observed_at": "2026-07-19T16:21:27.255848+00:00"}
{"url": "https://careers.formlabs.com/job/8072864/apply/?gh_jid=8072864", "company_key": "greenhouse:formlabs", "location": "Boston, MA", "lat": 42.3588336, "lng": -71.0578303, "first_published": "2026-07-17T15:40:29-04:00", "observed_at": "2026-07-19T16:21:27.255848+00:00"}
{"url": "https://careers.formlabs.com/job/8072860/apply/?gh_jid=8072860", "company_key": "greenhouse:formlabs", "location": "Somerville, MA", "lat": 42.3875968, "lng": -71.0994968, "first_published": "2026-07-17T15:40:28-04:00", "observed_at": "2026-07-19T16:21:27.255848+00:00"}
{"url": "https://careers.formlabs.com/job/8072847/apply/?gh_jid=8072847", "company_key": "greenhouse:formlabs", "location": "Boston, MA", "lat": 42.3588336, "lng": -71.0578303, "first_published": "2026-07-17T15:37:58-04:00", "observed_at": "2026-07-19T16:21:27.255848+00:00"}
{"url": "https://careers.formlabs.com/job/8072846/apply/?gh_jid=8072846", "company_key": "greenhouse:formlabs", "location": "Somerville, MA", "lat": 42.3875968, "lng": -71.0994968, "first_published": "2026-07-17T15:37:57-04:00", "observed_at": "2026-07-19T16:21:27.255848+00:00"}
{"url": "https://careers.formlabs.com/job/8072791/apply/?gh_jid=8072791", "company_key": "greenhouse:formlabs", "location": "Milwaukee, Wisconsin", "lat": 43.0386475, "lng": -87.9090751, "first_published": "2026-07-17T15:07:24-04:00", "observed_at": "2026-07-19T16:21:27.255848+00:00"}
{"url": "https://careers.formlabs.com/job/8072870/apply/?gh_jid=8072870", "company_key": "greenhouse:formlabs", "location": "Boston, MA", "lat": 42.3588336, "lng": -71.0578303, "first_published": "2026-07-17T15:43:13-04:00", "observed_at": "2026-07-19T16:21:27.255848+00:00"}
{"url": "https://careers.formlabs.com/job/8072869/apply/?gh_jid=8072869", "company_key": "greenhouse:formlabs", "location": "Somerville, MA", "lat": 42.3875968, "lng": -71.0994968, "first_published": "2026-07-17T15:43:12-04:00", "observed_at": "2026-07-19T16:21:27.255848+00:00"}
{"url": "https://careers.formlabs.com/job/8072882/apply/?gh_jid=8072882", "company_key": "greenhouse:formlabs", "location": "Boston, MA", "lat": 42.3588336, "lng": -71.0578303, "first_published": "2026-07-17T15:48:35-04:00", "observed_at": "2026-07-19T16:21:27.255848+00:00"}
{"url": "https://careers.formlabs.com/job/8072879/apply/?gh_jid=8072879", "company_key": "greenhouse:formlabs", "location": "Somerville, MA", "lat": 42.3875968, "lng": -71.0994968, "first_published": "2026-07-17T15:48:34-04:00", "observed_at": "2026-07-19T16:21:27.255848+00:00"}
{"url": "https://careers.formlabs.com/job/8072865/apply/?gh_jid=8072865", "company_key": "greenhouse:formlabs", "location": "Somerville, MA", "lat": 42.3875968, "lng": -71.0994968, "first_published": "2026-07-17T15:41:31-04:00", "observed_at": "2026-07-19T16:21:27.255848+00:00"}
{"url": "https://careers.formlabs.com/job/8072866/apply/?gh_jid=8072866", "company_key": "greenhouse:formlabs", "location": "Boston, MA", "lat": 42.3588336, "lng": -71.0578303, "first_published": "2026-07-17T15:41:32-04:00", "observed_at": "2026-07-19T16:21:27.255848+00:00"}
{"url": "https://careers.formlabs.com/job/8072851/apply/?gh_jid=8072851", "company_key": "greenhouse:formlabs", "location": "Boston, MA", "lat": 42.3588336, "lng": -71.0578303, "first_published": "2026-07-17T15:38:00-04:00", "observed_at": "2026-07-19T16:21:27.255848+00:00"}
{"url": "https://careers.formlabs.com/job/8072848/apply/?gh_jid=8072848", "company_key": "greenhouse:formlabs", "location": "Somerville, MA", "lat": 42.3875968, "lng": -71.0994968, "first_published": "2026-07-17T15:37:59-04:00", "observed_at": "2026-07-19T16:21:27.255848+00:00"}
{"url": "https://careers.formlabs.com/job/8072884/apply/?gh_jid=8072884", "company_key": "greenhouse:formlabs", "location": "Somerville, MA", "lat": 42.3875968, "lng": -71.0994968, "first_published": "2026-07-17T15:48:38-04:00", "observed_at": "2026-07-19T16:21:27.255848+00:00"}
{"url": "https://careers.formlabs.com/job/8072883/apply/?gh_jid=8072883", "company_key": "greenhouse:formlabs", "location": "Boston, MA", "lat": 42.3588336, "lng": -71.0578303, "first_published": "2026-07-17T15:48:37-04:00", "observed_at": "2026-07-19T16:21:27.255848+00:00"}
{"url": "https://careers.formlabs.com/job/8072891/apply/?gh_jid=8072891", "company_key": "greenhouse:formlabs", "location": "Boston, MA", "lat": 42.3588336, "lng": -71.0578303, "first_published": "2026-07-17T15:48:38-04:00", "observed_at": "2026-07-19T16:21:27.255848+00:00"}
{"url": "https://careers.formlabs.com/job/8072906/apply/?gh_jid=8072906", "company_key": "greenhouse:formlabs", "location": "Somerville, MA", "lat": 42.3875968, "lng": -71.0994968, "first_published": "2026-07-17T15:48:40-04:00", "observed_at": "2026-07-19T16:21:27.255848+00:00"}
{"url": "https://job-boards.greenhouse.io/glance/jobs/7657117", "company_key": "greenhouse:glance", "location": "Bangalore", "lat": 12.9767936, "lng": 77.590082, "first_published": "2026-07-18T08:45:20-04:00", "observed_at": "2026-07-19T16:21:27.255848+00:00"}
{"url": "https://job-boards.greenhouse.io/glance/jobs/8054886", "company_key": "greenhouse:glance", "location": "Bangalore", "lat": 12.9767936, "lng": 77.590082, "first_published": "2026-07-18T08:49:02-04:00", "observed_at": "2026-07-19T16:21:27.255848+00:00"}
{"url": "https://careers.godaddy/jobs?gh_jid=7796113003", "company_key": "greenhouse:godaddy", "location": "United States", "lat": 39.7837304, "lng": -100.445882, "first_published": "2026-07-17T16:15:21-04:00", "observed_at": "2026-07-19T16:21:27.255848+00:00"}
{"url": "https://careers.godaddy/jobs?gh_jid=7786998003", "company_key": "greenhouse:godaddy", "location": "Canada", "lat": 61.0666922, "lng": -107.991707, "first_published": "2026-07-17T18:08:15-04:00", "observed_at": "2026-07-19T16:21:27.255848+00:00"}
{"url": "https://www.golden-careers.com/jobs/4715871005?gh_jid=4715871005", "company_key": "greenhouse:goldenhippo", "location": "Remote", "lat": 43.0059455, "lng": -123.8925908, "first_published": "2026-07-17T17:18:08-04:00", "observed_at": "2026-07-19T16:21:27.255848+00:00"}
{"url": "https://careers.hellofresh.com/global/en/job/8072086?gh_jid=8072086", "company_key": "greenhouse:hellofresh", "location": "Aurora, IL, United States", "lat": 41.7571701, "lng": -88.3147539, "first_published": "2026-07-17T14:03:49-04:00", "observed_at": "2026-07-19T16:21:27.255848+00:00"}
{"url": "https://careers.hellofresh.com/global/en/job/8068254?gh_jid=8068254", "company_key": "greenhouse:hellofresh", "location": "Mississauga, Ontario, Canada", "lat": 43.5884727, "lng": -79.643658, "first_published": "2026-07-17T15:31:48-04:00", "observed_at": "2026-07-19T16:21:27.255848+00:00"}
{"url": "https://www.jumptrading.com/hr/job?gh_jid=8042596", "company_key": "greenhouse:jumptrading", "location": "New York", "lat": 40.7127281, "lng": -74.0060152, "first_published": "2026-07-18T13:13:55-04:00", "observed_at": "2026-07-19T16:21:27.255848+00:00"}
{"url": "https://www.klaviyo.com/careers/jobs/7802701003?gh_jid=7802701003", "company_key": "greenhouse:klaviyo", "location": "Boston, MA", "lat": 42.3588336, "lng": -71.0578303, "first_published": "2026-07-17T17:05:58-04:00", "observed_at": "2026-07-19T16:21:27.255848+00:00"}
{"url": "https://job-boards.greenhouse.io/knowbe4/jobs/8639054002", "company_key": "greenhouse:knowbe4", "location": "S\u00e3o Paulo, Brazil", "lat": -23.5506507, "lng": -46.6333824, "first_published": "2026-07-17T15:05:36-04:00", "observed_at": "2026-07-19T16:21:27.255848+00:00"}
{"url": "https://job-boards.greenhouse.io/knowbe4/jobs/8639089002", "company_key": "greenhouse:knowbe4", "location": "S\u00e3o Paulo, Brazil", "lat": -23.5506507, "lng": -46.6333824, "first_published": "2026-07-17T15:17:39-04:00", "observed_at": "2026-07-19T16:21:27.255848+00:00"}
{"url": "https://app.careerpuck.com/job-board/modernanimal/job/6101109004?gh_jid=6101109004", "company_key": "greenhouse:modernanimal", "location": "Los Feliz ", "lat": 34.1076561, "lng": -118.2875062, "first_published": "2026-07-17T20:48:15-04:00", "observed_at": "2026-07-19T16:21:27.255848+00:00"}
{"url": "https://boards.greenhouse.io/neuralink/jobs/7808639003?gh_jid=7808639003", "company_key": "greenhouse:neuralink", "location": "Austin, Texas, United States", "lat": 30.2711286, "lng": -97.7436995, "first_published": "2026-07-17T18:10:09-04:00", "observed_at": "2026-07-19T16:21:27.255848+00:00"}
{"url": "https://boards.greenhouse.io/neuralink/jobs/7808233003?gh_jid=7808233003", "company_key": "greenhouse:neuralink", "location": "South San Francisco, California, United States", "lat": 37.6535403, "lng": -122.4168664, "first_published": "2026-07-17T13:35:13-04:00", "observed_at": "2026-07-19T16:21:27.255848+00:00"}
{"url": "https://www.optiver.com/join-us/jobs/8598834002/?gh_jid=8598834002", "company_key": "greenhouse:optiverus", "location": "Amsterdam, North Holland, Netherlands", "lat": 52.3730796, "lng": 4.8924534, "first_published": "2026-07-17T15:54:19-04:00", "observed_at": "2026-07-19T16:21:27.255848+00:00"}
{"url": "https://www.qualtrics.com/careers/us/en/job/8070160?gh_jid=8070160", "company_key": "greenhouse:qualtrics", "location": "Provo, Utah, United States", "lat": 40.2337289, "lng": -111.6587085, "first_published": "2026-07-17T15:36:25-04:00", "observed_at": "2026-07-19T16:21:27.255848+00:00"}
{"url": "https://www.redventures.com/careers/positions/open?gh_jid=8067350", "company_key": "greenhouse:redventures", "location": "United States", "lat": 39.7837304, "lng": -100.445882, "first_published": "2026-07-17T17:43:38-04:00", "observed_at": "2026-07-19T16:21:27.255848+00:00"}
{"url": "https://job-boards.greenhouse.io/relaypro/jobs/8038837", "company_key": "greenhouse:relaypro", "location": "Raleigh, NC", "lat": 35.7803977, "lng": -78.6390989, "first_published": "2026-07-17T17:44:26-04:00", "observed_at": "2026-07-19T16:21:27.255848+00:00"}
{"url": "https://job-boards.greenhouse.io/rhombuspower/jobs/7808664003", "company_key": "greenhouse:rhombuspower", "location": "New Delhi, Delhi, India", "lat": 28.6138954, "lng": 77.2090057, "first_published": "2026-07-17T18:34:31-04:00", "observed_at": "2026-07-19T16:21:27.255848+00:00"}
{"url": "https://job-boards.greenhouse.io/rvohealth/jobs/4716424005", "company_key": "greenhouse:rvohealth", "location": "Denver, Colorado, United States", "lat": 39.7392364, "lng": -104.984862, "first_published": "2026-07-17T17:02:39-04:00", "observed_at": "2026-07-19T16:21:27.255848+00:00"}
{"url": "https://job-boards.greenhouse.io/rvohealth/jobs/4715839005", "company_key": "greenhouse:rvohealth", "location": "Charlotte, North Carolina, United States", "lat": 35.2272086, "lng": -80.8430827, "first_published": "2026-07-17T17:02:38-04:00", "observed_at": "2026-07-19T16:21:27.255848+00:00"}
{"url": "https://job-boards.greenhouse.io/sezzle/jobs/7808235003", "company_key": "greenhouse:sezzle", "location": "Bogota, Colombia", "lat": 4.6533817, "lng": -74.0836331, "first_published": "2026-07-17T14:17:01-04:00", "observed_at": "2026-07-19T16:21:27.255848+00:00"}
{"url": "https://job-boards.greenhouse.io/tecovas/jobs/8638897002", "company_key": "greenhouse:tecovas", "location": "Palm Beach, FL", "lat": 26.6279798, "lng": -80.4494174, "first_published": "2026-07-17T14:16:14-04:00", "observed_at": "2026-07-19T16:21:27.255848+00:00"}
{"url": "https://job-boards.greenhouse.io/tecovas/jobs/8638898002", "company_key": "greenhouse:tecovas", "location": "Miami, FL", "lat": 25.7741566, "lng": -80.1935973, "first_published": "2026-07-17T14:17:13-04:00", "observed_at": "2026-07-19T16:21:27.255848+00:00"}
{"url": "https://job-boards.greenhouse.io/tecovas/jobs/8639192002", "company_key": "greenhouse:tecovas", "location": "Atlanta, GA", "lat": 33.7544657, "lng": -84.3898151, "first_published": "2026-07-17T16:12:38-04:00", "observed_at": "2026-07-19T16:21:27.255848+00:00"}
{"url": "https://tifin.com/careers/apply/?gh_jid=6118982004", "company_key": "greenhouse:tifin", "location": "Boulder, CO ", "lat": 40.0149856, "lng": -105.270545, "first_published": "2026-07-17T14:36:17-04:00", "observed_at": "2026-07-19T16:21:27.255848+00:00"}
{"url": "https://job-boards.greenhouse.io/truveta/jobs/6119047004", "company_key": "greenhouse:truveta", "location": "Seattle, WA", "lat": 47.6038321, "lng": -122.330062, "first_published": "2026-07-17T16:04:05-04:00", "observed_at": "2026-07-19T16:21:27.255848+00:00"}
{"url": "https://job-boards.greenhouse.io/truveta/jobs/6119133004", "company_key": "greenhouse:truveta", "location": "Seattle, WA", "lat": 47.6038321, "lng": -122.330062, "first_published": "2026-07-17T17:38:16-04:00", "observed_at": "2026-07-19T16:21:27.255848+00:00"}
{"url": "https://job-boards.greenhouse.io/twitch/jobs/8639346002", "company_key": "greenhouse:twitch", "location": "San Francisco, CA", "lat": 37.7879363, "lng": -122.4075201, "first_published": "2026-07-17T18:14:54-04:00", "observed_at": "2026-07-19T16:21:27.255848+00:00"}
{"url": "https://job-boards.greenhouse.io/twitch/jobs/8639416002", "company_key": "greenhouse:twitch", "location": "Irvine, CA", "lat": 33.6856969, "lng": -117.825981, "first_published": "2026-07-17T18:14:55-04:00", "observed_at": "2026-07-19T16:21:27.255848+00:00"}
{"url": "https://job-boards.greenhouse.io/twitch/jobs/8639417002", "company_key": "greenhouse:twitch", "location": "Seattle, WA", "lat": 47.6038321, "lng": -122.330062, "first_published": "2026-07-17T18:14:56-04:00", "observed_at": "2026-07-19T16:21:27.255848+00:00"}
{"url": "https://job-boards.greenhouse.io/ziprecruiter/jobs/8072236", "company_key": "greenhouse:ziprecruiter", "location": "Remote", "lat": 43.0059455, "lng": -123.8925908, "first_published": "2026-07-17T16:28:38-04:00", "observed_at": "2026-07-19T16:21:27.255848+00:00"}
{"url": "https://job-boards.greenhouse.io/curaleaf/jobs/8639058002", "company_key": "greenhouse:curaleaf", "location": "Mt. Dora, FL", "lat": 28.8004955, "lng": -81.6446961, "first_published": "2026-07-17T15:00:37-04:00", "observed_at": "2026-07-19T16:21:27.255848+00:00"}
{"url": "https://job-boards.greenhouse.io/curaleaf/jobs/8605906002", "company_key": "greenhouse:curaleaf", "location": "Fargo, ND", "lat": 46.877229, "lng": -96.789821, "first_published": "2026-07-17T14:27:35-04:00", "observed_at": "2026-07-19T16:21:27.255848+00:00"}
{"url": "https://job-boards.greenhouse.io/curaleaf/jobs/8639187002", "company_key": "greenhouse:curaleaf", "location": "6835 Okeechobee Blvd West Palm Beach, FL", "lat": 26.7057738, "lng": -80.0594636, "first_published": "2026-07-17T16:14:58-04:00", "observed_at": "2026-07-19T16:21:27.255848+00:00"}
{"url": "https://job-boards.greenhouse.io/curaleaf/jobs/8639360002", "company_key": "greenhouse:curaleaf", "location": "6361 103rd St Jacksonville, FL", "lat": 30.2476992, "lng": -81.7821263, "first_published": "2026-07-17T17:11:21-04:00", "observed_at": "2026-07-19T16:21:27.255848+00:00"}
{"url": "https://job-boards.greenhouse.io/curaleaf/jobs/8639163002", "company_key": "greenhouse:curaleaf", "location": "1994 Kings Hwy Port Charlotte, FL", "lat": 27.0048195, "lng": -82.0547605, "first_published": "2026-07-17T16:00:29-04:00", "observed_at": "2026-07-19T16:21:27.255848+00:00"}
{"url": "https://job-boards.greenhouse.io/curaleaf/jobs/8614752002", "company_key": "greenhouse:curaleaf", "location": "5133 Lincoln Hwy Greensburg, PA", "lat": 40.2981982, "lng": -79.5591413, "first_published": "2026-07-17T16:50:56-04:00", "observed_at": "2026-07-19T16:21:27.255848+00:00"}
{"url": "https://job-boards.greenhouse.io/stackline/jobs/4716387005", "company_key": "greenhouse:stackline", "location": "London", "lat": 51.5074456, "lng": -0.1277653, "first_published": "2026-07-17T16:00:50-04:00", "observed_at": "2026-07-19T16:21:27.255848+00:00"}
{"url": "https://job-boards.greenhouse.io/3cloud/jobs/8639580002?gh_jid=8639580002", "company_key": "greenhouse:3cloud", "location": "Remote - Philippines", "lat": 6.284961, "lng": 124.3024639, "first_published": "2026-07-17T23:19:25-04:00", "observed_at": "2026-07-19T16:21:27.255848+00:00"}
{"url": "https://job-boards.greenhouse.io/3cloud/jobs/8639568002?gh_jid=8639568002", "company_key": "greenhouse:3cloud", "location": "Remote - Philippines", "lat": 6.284961, "lng": 124.3024639, "first_published": "2026-07-17T21:48:44-04:00", "observed_at": "2026-07-19T16:21:27.255848+00:00"}
{"url": "https://job-boards.greenhouse.io/3cloud/jobs/8639571002?gh_jid=8639571002", "company_key": "greenhouse:3cloud", "location": "Remote - Philippines", "lat": 6.284961, "lng": 124.3024639, "first_published": "2026-07-17T22:03:44-04:00", "observed_at": "2026-07-19T16:21:27.255848+00:00"}
{"url": "https://job-boards.greenhouse.io/8thlightrebuild/jobs/7808594003", "company_key": "greenhouse:8thlightrebuild", "location": "Chicago, Illinois, United States", "lat": 41.8755616, "lng": -87.6244212, "first_published": "2026-07-17T17:38:47-04:00", "observed_at": "2026-07-19T16:21:27.255848+00:00"}
{"url": "https://boards.greenhouse.io/abacusinsights/jobs/8638941002?gh_jid=8638941002", "company_key": "greenhouse:abacusinsights", "location": "Remote - US", "lat": 43.0059455, "lng": -123.8925908, "first_published": "2026-07-17T14:01:51-04:00", "observed_at": "2026-07-19T16:21:27.255848+00:00"}
{"url": "https://www.abclegal.com/job-openings/job?id=7808485003&gh_jid=7808485003", "company_key": "greenhouse:abclegalservices", "location": "Antioch, CA", "lat": 38.0093296, "lng": -121.8106925, "first_published": "2026-07-17T15:49:49-04:00", "observed_at": "2026-07-19T16:21:27.255848+00:00"}
{"url": "https://www.abclegal.com/job-openings/job?id=7808488003&gh_jid=7808488003", "company_key": "greenhouse:abclegalservices", "location": "Stockton, CA", "lat": 37.9577016, "lng": -121.290779, "first_published": "2026-07-17T15:51:19-04:00", "observed_at": "2026-07-19T16:21:27.255848+00:00"}
{"url": "https://www.abclegal.com/job-openings/job?id=7808490003&gh_jid=7808490003", "company_key": "greenhouse:abclegalservices", "location": "Hayward, CA", "lat": 37.6688205, "lng": -122.080796, "first_published": "2026-07-17T15:51:20-04:00", "observed_at": "2026-07-19T16:21:27.255848+00:00"}
{"url": "https://job-boards.greenhouse.io/abilitypath/jobs/5176768007", "company_key": "greenhouse:abilitypath", "location": "Burlingame, CA, Redwood City, CA, Palo Alto, CA", "lat": null, "lng": null, "first_published": "2026-07-17T16:24:00-04:00", "observed_at": "2026-07-19T16:21:27.255848+00:00"}
{"url": "https://job-boards.greenhouse.io/abinbev/jobs/8638875002", "company_key": "greenhouse:abinbev", "location": "Campinas, Brazil", "lat": -22.9056391, "lng": -47.059564, "first_published": "2026-07-17T13:27:38-04:00", "observed_at": "2026-07-19T16:21:27.255848+00:00"}
{"url": "https://job-boards.greenhouse.io/accela/jobs/8073191", "company_key": "greenhouse:accela", "location": "Remote Based - US", "lat": null, "lng": null, "first_published": "2026-07-17T19:05:38-04:00", "observed_at": "2026-07-19T16:21:27.255848+00:00"}
{"url": "https://job-boards.greenhouse.io/accelerationpartners/jobs/8070063", "company_key": "greenhouse:accelerationpartners", "location": "Boston, Massachusetts; New York City, New York; Philadelphia, Pennsylvania; Atlanta, Georgia; Chicago, Illinois; Denver, Colorado; Los Angeles, California; ", "lat": null, "lng": null, "first_published": "2026-07-17T14:22:36-04:00", "observed_at": "2026-07-19T16:21:27.255848+00:00"}
{"url": "https://job-boards.greenhouse.io/accelerationpartners/jobs/8070061", "company_key": "greenhouse:accelerationpartners", "location": "Austin, Texas; Dallas, Texas; Houston, Texas; Orlando, Florida; Tampa, Florida; Miami, Florida; Atlanta, Georgia", "lat": null, "lng": null, "first_published": "2026-07-17T14:22:35-04:00", "observed_at": "2026-07-19T16:21:27.255848+00:00"}
{"url": "https://job-boards.greenhouse.io/accelschools/jobs/7808407003", "company_key": "greenhouse:accelschools", "location": "Strongsville Academy", "lat": 41.2963328, "lng": -81.8429703, "first_published": "2026-07-17T15:11:44-04:00", "observed_at": "2026-07-19T16:21:27.255848+00:00"}
{"url": "https://job-boards.greenhouse.io/accelschools/jobs/7808411003", "company_key": "greenhouse:accelschools", "location": "Barber Preparatory Academy", "lat": null, "lng": null, "first_published": "2026-07-17T15:14:42-04:00", "observed_at": "2026-07-19T16:21:27.255848+00:00"}
{"url": "https://job-boards.greenhouse.io/accelschools/jobs/7808416003", "company_key": "greenhouse:accelschools", "location": "Barber Preparatory Academy", "lat": null, "lng": null, "first_published": "2026-07-17T15:15:34-04:00", "observed_at": "2026-07-19T16:21:27.255848+00:00"}
{"url": "https://job-boards.greenhouse.io/accelschools/jobs/7808455003", "company_key": "greenhouse:accelschools", "location": "Montgomery Preparatory Academy", "lat": 32.3297139, "lng": -86.2469393, "first_published": "2026-07-17T15:38:55-04:00", "observed_at": "2026-07-19T16:21:27.255848+00:00"}
{"url": "https://job-boards.greenhouse.io/accelschools/jobs/7808473003", "company_key": "greenhouse:accelschools", "location": "Inkster", "lat": 42.2942045, "lng": -83.3099303, "first_published": "2026-07-17T15:46:27-04:00", "observed_at": "2026-07-19T16:21:27.255848+00:00"}
{"url": "https://job-boards.greenhouse.io/accelschools/jobs/7808462003", "company_key": "greenhouse:accelschools", "location": "Eastern Panhandle Preparatory Academy", "lat": null, "lng": null, "first_published": "2026-07-17T15:43:09-04:00", "observed_at": "2026-07-19T16:21:27.255848+00:00"}
{"url": "https://job-boards.greenhouse.io/accelschools/jobs/7808466003", "company_key": "greenhouse:accelschools", "location": "Mount Auburn Preparatory Academy", "lat": 39.120473, "lng": -84.5067809, "first_published": "2026-07-17T15:44:43-04:00", "observed_at": "2026-07-19T16:21:27.255848+00:00"}
{"url": "https://job-boards.greenhouse.io/accelschools/jobs/7808443003", "company_key": "greenhouse:accelschools", "location": "Riverside Academy", "lat": 41.2858677, "lng": -72.9290455, "first_published": "2026-07-17T15:29:16-04:00", "observed_at": "2026-07-19T16:21:27.255848+00:00"}
{"url": "https://job-boards.greenhouse.io/accelschools/jobs/7808435003", "company_key": "greenhouse:accelschools", "location": "Northside Preparatory Academy", "lat": null, "lng": null, "first_published": "2026-07-17T15:24:17-04:00", "observed_at": "2026-07-19T16:21:27.255848+00:00"}
{"url": "https://job-boards.greenhouse.io/accelschools/jobs/7808417003", "company_key": "greenhouse:accelschools", "location": "Barber Preparatory Academy", "lat": null, "lng": null, "first_published": "2026-07-17T15:16:16-04:00", "observed_at": "2026-07-19T16:21:27.255848+00:00"}
{"url": "https://job-boards.greenhouse.io/accelschools/jobs/7808401003", "company_key": "greenhouse:accelschools", "location": "Solon Academy", "lat": 41.7969197, "lng": -91.487886, "first_published": "2026-07-17T15:09:54-04:00", "observed_at": "2026-07-19T16:21:27.255848+00:00"}
{"url": "https://job-boards.greenhouse.io/accelschools/jobs/7808409003", "company_key": "greenhouse:accelschools", "location": "Parma Academy", "lat": 26.7950062, "lng": 82.211943, "first_published": "2026-07-17T15:13:28-04:00", "observed_at": "2026-07-19T16:21:27.255848+00:00"}
{"url": "https://job-boards.greenhouse.io/accelschools/jobs/7808444003", "company_key": "greenhouse:accelschools", "location": "Riverside Academy", "lat": 41.2858677, "lng": -72.9290455, "first_published": "2026-07-17T15:29:57-04:00", "observed_at": "2026-07-19T16:21:27.255848+00:00"}
{"url": "https://job-boards.greenhouse.io/accelschools/jobs/7808456003", "company_key": "greenhouse:accelschools", "location": "Montgomery Preparatory Academy", "lat": 32.3297139, "lng": -86.2469393, "first_published": "2026-07-17T15:39:43-04:00", "observed_at": "2026-07-19T16:21:27.255848+00:00"}
{"url": "https://job-boards.greenhouse.io/accelschools/jobs/7808418003", "company_key": "greenhouse:accelschools", "location": "Barber Preparatory Academy", "lat": null, "lng": null, "first_published": "2026-07-17T15:17:00-04:00", "observed_at": "2026-07-19T16:21:27.255848+00:00"}
{"url": "https://job-boards.greenhouse.io/accelschools/jobs/7808486003", "company_key": "greenhouse:accelschools", "location": "Inkster Preparatory Academy", "lat": 42.3069172, "lng": -83.3096225, "first_published": "2026-07-17T15:48:51-04:00", "observed_at": "2026-07-19T16:21:27.255848+00:00"}
{"url": "https://job-boards.greenhouse.io/accelschools/jobs/7808459003", "company_key": "greenhouse:accelschools", "location": "Montgomery Preparatory Academy", "lat": 32.3297139, "lng": -86.2469393, "first_published": "2026-07-17T15:41:35-04:00", "observed_at": "2026-07-19T16:21:27.255848+00:00"}
{"url": "https://job-boards.greenhouse.io/accelschools/jobs/7808436003", "company_key": "greenhouse:accelschools", "location": "Northside Preparatory Academy", "lat": null, "lng": null, "first_published": "2026-07-17T15:24:59-04:00", "observed_at": "2026-07-19T16:21:27.255848+00:00"}
{"url": "https://job-boards.greenhouse.io/accelschools/jobs/7808405003", "company_key": "greenhouse:accelschools", "location": "Solon Academy", "lat": 41.7969197, "lng": -91.487886, "first_published": "2026-07-17T15:10:38-04:00", "observed_at": "2026-07-19T16:21:27.255848+00:00"}
{"url": "https://job-boards.greenhouse.io/accelschools/jobs/7808445003", "company_key": "greenhouse:accelschools", "location": "Riverside Academy", "lat": 41.2858677, "lng": -72.9290455, "first_published": "2026-07-17T15:30:43-04:00", "observed_at": "2026-07-19T16:21:27.255848+00:00"}
{"url": "https://job-boards.greenhouse.io/accelschools/jobs/7808467003", "company_key": "greenhouse:accelschools", "location": "Mount Auburn Preparatory Academy", "lat": 39.120473, "lng": -84.5067809, "first_published": "2026-07-17T15:45:30-04:00", "observed_at": "2026-07-19T16:21:27.255848+00:00"}
{"url": "https://job-boards.greenhouse.io/accelschools/jobs/7808454003", "company_key": "greenhouse:accelschools", "location": "Fairfield Preparatory Academy", "lat": 38.2653656, "lng": -122.0513395, "first_published": "2026-07-17T15:37:50-04:00", "observed_at": "2026-07-19T16:21:27.255848+00:00"}
{"url": "https://job-boards.greenhouse.io/accelschools/jobs/7808457003", "company_key": "greenhouse:accelschools", "location": "Montgomery Preparatory Academy", "lat": 32.3297139, "lng": -86.2469393, "first_published": "2026-07-17T15:40:19-04:00", "observed_at": "2026-07-19T16:21:27.255848+00:00"}
{"url": "https://job-boards.greenhouse.io/accelschools/jobs/7808437003", "company_key": "greenhouse:accelschools", "location": "Northside Preparatory Academy", "lat": null, "lng": null, "first_published": "2026-07-17T15:25:40-04:00", "observed_at": "2026-07-19T16:21:27.255848+00:00"}
{"url": "https://job-boards.greenhouse.io/accelschools/jobs/7808451003", "company_key": "greenhouse:accelschools", "location": "North Bend STEM Academy", "lat": null, "lng": null, "first_published": "2026-07-17T15:36:01-04:00", "observed_at": "2026-07-19T16:21:27.255848+00:00"}
{"url": "https://job-boards.greenhouse.io/accelschools/jobs/7808396003", "company_key": "greenhouse:accelschools", "location": "Clarksburg Classical Academy", "lat": null, "lng": null, "first_published": "2026-07-17T15:08:01-04:00", "observed_at": "2026-07-19T16:21:27.255848+00:00"}
{"url": "https://job-boards.greenhouse.io/accelschools/jobs/7808422003", "company_key": "greenhouse:accelschools", "location": "Barber Preparatory Academy", "lat": null, "lng": null, "first_published": "2026-07-17T15:18:28-04:00", "observed_at": "2026-07-19T16:21:27.255848+00:00"}
{"url": "https://job-boards.greenhouse.io/accelschools/jobs/7808423003", "company_key": "greenhouse:accelschools", "location": "Barber Preparatory Academy", "lat": null, "lng": null, "first_published": "2026-07-17T15:19:08-04:00", "observed_at": "2026-07-19T16:21:27.255848+00:00"}
{"url": "https://job-boards.greenhouse.io/accelschools/jobs/7808424003", "company_key": "greenhouse:accelschools", "location": "Barber Preparatory Academy", "lat": null, "lng": null, "first_published": "2026-07-17T15:19:53-04:00", "observed_at": "2026-07-19T16:21:27.255848+00:00"}
{"url": "https://job-boards.greenhouse.io/accelschools/jobs/7808428003", "company_key": "greenhouse:accelschools", "location": "Barber Preparatory Academy", "lat": null, "lng": null, "first_published": "2026-07-17T15:20:33-04:00", "observed_at": "2026-07-19T16:21:27.255848+00:00"}
{"url": "https://job-boards.greenhouse.io/accelschools/jobs/7808481003", "company_key": "greenhouse:accelschools", "location": "Inkster", "lat": 42.2942045, "lng": -83.3099303, "first_published": "2026-07-17T15:47:36-04:00", "observed_at": "2026-07-19T16:21:27.255848+00:00"}
{"url": "https://job-boards.greenhouse.io/accelschools/jobs/7808463003", "company_key": "greenhouse:accelschools", "location": "Eastern Panhandle Preparatory Academy", "lat": null, "lng": null, "first_published": "2026-07-17T15:43:50-04:00", "observed_at": "2026-07-19T16:21:27.255848+00:00"}
{"url": "https://job-boards.greenhouse.io/accelschools/jobs/7808439003", "company_key": "greenhouse:accelschools", "location": "Northside Preparatory Academy", "lat": null, "lng": null, "first_published": "2026-07-17T15:27:32-04:00", "observed_at": "2026-07-19T16:21:27.255848+00:00"}
{"url": "https://job-boards.greenhouse.io/accelschools/jobs/7808458003", "company_key": "greenhouse:accelschools", "location": "Montgomery Preparatory Academy", "lat": 32.3297139, "lng": -86.2469393, "first_published": "2026-07-17T15:41:00-04:00", "observed_at": "2026-07-19T16:21:27.255848+00:00"}
{"url": "https://job-boards.greenhouse.io/accelschools/jobs/7808419003", "company_key": "greenhouse:accelschools", "location": "Barber Preparatory Academy", "lat": null, "lng": null, "first_published": "2026-07-17T15:17:40-04:00", "observed_at": "2026-07-19T16:21:27.255848+00:00"}
{"url": "https://job-boards.greenhouse.io/accelschools/jobs/7808452003", "company_key": "greenhouse:accelschools", "location": "North Bend STEM Academy", "lat": null, "lng": null, "first_published": "2026-07-17T15:36:44-04:00", "observed_at": "2026-07-19T16:21:27.255848+00:00"}
{"url": "https://job-boards.greenhouse.io/accelschools/jobs/7808429003", "company_key": "greenhouse:accelschools", "location": "Barber Preparatory Academy", "lat": null, "lng": null, "first_published": "2026-07-17T15:21:17-04:00", "observed_at": "2026-07-19T16:21:27.255848+00:00"}
{"url": "https://job-boards.greenhouse.io/accelschools/jobs/7808432003", "company_key": "greenhouse:accelschools", "location": "Barber Preparatory Academy", "lat": null, "lng": null, "first_published": "2026-07-17T15:21:57-04:00", "observed_at": "2026-07-19T16:21:27.255848+00:00"}
{"url": "https://job-boards.greenhouse.io/accelschools/jobs/7808399003", "company_key": "greenhouse:accelschools", "location": "Clarksburg Classical Academy", "lat": null, "lng": null, "first_published": "2026-07-17T15:08:52-04:00", "observed_at": "2026-07-19T16:21:27.255848+00:00"}
{"url": "https://job-boards.greenhouse.io/accelschools/jobs/7808482003", "company_key": "greenhouse:accelschools", "location": "Inkster Preparatory Academy", "lat": 42.3069172, "lng": -83.3096225, "first_published": "2026-07-17T15:48:14-04:00", "observed_at": "2026-07-19T16:21:27.255848+00:00"}
{"url": "https://job-boards.greenhouse.io/accelschools/jobs/7808446003", "company_key": "greenhouse:accelschools", "location": "Riverside Academy", "lat": 41.2858677, "lng": -72.9290455, "first_published": "2026-07-17T15:31:24-04:00", "observed_at": "2026-07-19T16:21:27.255848+00:00"}
{"url": "https://job-boards.greenhouse.io/accelschools/jobs/7808408003", "company_key": "greenhouse:accelschools", "location": "Strongsville Academy", "lat": 41.2963328, "lng": -81.8429703, "first_published": "2026-07-17T15:12:37-04:00", "observed_at": "2026-07-19T16:21:27.255848+00:00"}
{"url": "https://job-boards.greenhouse.io/accelschools/jobs/7808433003", "company_key": "greenhouse:accelschools", "location": "Barber Preparatory Academy", "lat": null, "lng": null, "first_published": "2026-07-17T15:22:39-04:00", "observed_at": "2026-07-19T16:21:27.255848+00:00"}
{"url": "https://job-boards.greenhouse.io/accelschools/jobs/7808438003", "company_key": "greenhouse:accelschools", "location": "Northside Preparatory Academy", "lat": null, "lng": null, "first_published": "2026-07-17T15:26:31-04:00", "observed_at": "2026-07-19T16:21:27.255848+00:00"}
{"url": "https://job-boards.greenhouse.io/accelschools/jobs/7808395003", "company_key": "greenhouse:accelschools", "location": "Remote (Pansophic Learning)", "lat": null, "lng": null, "first_published": "2026-07-17T15:12:07-04:00", "observed_at": "2026-07-19T16:21:27.255848+00:00"}
{"url": "https://job-boards.greenhouse.io/acquia/jobs/8068179", "company_key": "greenhouse:acquia", "location": "Remote-United-States", "lat": 43.0059455, "lng": -123.8925908, "first_published": "2026-07-17T16:06:46-04:00", "observed_at": "2026-07-19T16:21:27.255848+00:00"}
{"url": "https://boards.greenhouse.io/adicettherapeuticsinc/jobs/5189383007?gh_jid=5189383007", "company_key": "greenhouse:adicettherapeuticsinc", "location": "Redwood City, CA", "lat": 37.4863239, "lng": -122.232523, "first_published": "2026-07-17T20:27:40-04:00", "observed_at": "2026-07-19T16:21:27.255848+00:00"}
{"url": "https://job-boards.greenhouse.io/advancedtechnologyservices/jobs/4697969006", "company_key": "greenhouse:advancedtechnologyservices", "location": "United States- Fort Worth, Texas", "lat": 33.0371179, "lng": -97.281633, "first_published": "2026-07-17T14:47:38-04:00", "observed_at": "2026-07-19T16:21:27.255848+00:00"}
{"url": "https://job-boards.greenhouse.io/advancedtechnologyservices/jobs/4697971006", "company_key": "greenhouse:advancedtechnologyservices", "location": "United States- Fort Worth, Texas", "lat": 33.0371179, "lng": -97.281633, "first_published": "2026-07-17T14:48:21-04:00", "observed_at": "2026-07-19T16:21:27.255848+00:00"}
{"url": "https://job-boards.greenhouse.io/advancedtechnologyservices/jobs/4697973006", "company_key": "greenhouse:advancedtechnologyservices", "location": "United States- Fort Worth, Texas", "lat": 33.0371179, "lng": -97.281633, "first_published": "2026-07-17T14:48:54-04:00", "observed_at": "2026-07-19T16:21:27.255848+00:00"}
