{"url": "https://job-boards.greenhouse.io/anthropic/jobs/5305402008", "company_key": "greenhouse:anthropic", "location": "San Francisco, CA", "lat": 37.7879363, "lng": -122.4075201, "first_published": "2026-07-19T10:56:36-04:00", "observed_at": "2026-07-19T16:21:27.255848+00:00"}
{"url": "https://boards.greenhouse.io/spacex/jobs/8637712002?gh_jid=8637712002", "company_key": "greenhouse:spacex", "location": "Redmond, WA", "lat": 47.6694141, "lng": -122.1238767, "first_published": "2026-07-19T02:31:00-04:00", "observed_at": "2026-07-19T16:21:27.255848+00:00"}
{"url": "https://boards.greenhouse.io/spacex/jobs/8637713002?gh_jid=8637713002", "company_key": "greenhouse:spacex", "location": "Redmond, WA", "lat": 47.6694141, "lng": -122.1238767, "first_published": "2026-07-19T02:31:02-04:00", "observed_at": "2026-07-19T16:21:27.255848+00:00"}
{"url": "https://boards.greenhouse.io/spacex/jobs/8637755002?gh_jid=8637755002", "company_key": "greenhouse:spacex", "location": "Redmond, WA", "lat": 47.6694141, "lng": -122.1238767, "first_published": "2026-07-19T02:31:03-04:00", "observed_at": "2026-07-19T16:21:27.255848+00:00"}
{"url": "https://job-boards.greenhouse.io/twilio/jobs/8073683", "company_key": "greenhouse:twilio", "location": "Remote - Ireland", "lat": null, "lng": null, "first_published": "2026-07-19T09:41:26-04:00", "observed_at": "2026-07-19T16:21:27.255848+00:00"}
{"url": "https://sofi.com/careers/job/7809098003?gh_jid=7809098003", "company_key": "greenhouse:sofi", "location": "United States", "lat": 39.7837304, "lng": -100.445882, "first_published": "2026-07-18T23:54:57-04:00", "observed_at": "2026-07-19T16:21:27.255848+00:00"}
{"url": "https://boards.greenhouse.io/chime/jobs/8606606002?gh_jid=8606606002", "company_key": "greenhouse:chime", "location": "San Francisco, CA, USA", "lat": 37.7879363, "lng": -122.4075201, "first_published": "2026-07-19T11:35:47-04:00", "observed_at": "2026-07-19T16:21:27.255848+00:00"}
{"url": "https://boards.greenhouse.io/spacex/jobs/8637756002?gh_jid=8637756002", "company_key": "greenhouse:spacex", "location": "Redmond, WA", "lat": 47.6694141, "lng": -122.1238767, "first_published": "2026-07-19T02:31:02-04:00", "observed_at": "2026-07-19T16:21:27.255848+00:00"}
{"url": "https://boards.greenhouse.io/spacex/jobs/8639279002?gh_jid=8639279002", "company_key": "greenhouse:spacex", "location": "Starbase, TX", "lat": 25.9914611, "lng": -97.1829783, "first_published": "2026-07-19T00:35:48-04:00", "observed_at": "2026-07-19T16:21:27.255848+00:00"}
{"url": "https://boards.greenhouse.io/spacex/jobs/8636229002?gh_jid=8636229002", "company_key": "greenhouse:spacex", "location": "Starbase, TX", "lat": 25.9914611, "lng": -97.1829783, "first_published": "2026-07-19T00:28:32-04:00", "observed_at": "2026-07-19T16:21:27.255848+00:00"}
{"url": "https://job-boards.greenhouse.io/fictiv/jobs/8639999002", "company_key": "greenhouse:fictiv", "location": "Remote - USA", "lat": 43.0059455, "lng": -123.8925908, "first_published": "2026-07-18T18:52:54-04:00", "observed_at": "2026-07-19T16:21:27.255848+00:00"}
{"url": "https://job-boards.greenhouse.io/fictiv/jobs/8640000002", "company_key": "greenhouse:fictiv", "location": "Bengaluru, India Office", "lat": 12.9756383, "lng": 77.6040599, "first_published": "2026-07-18T23:20:33-04:00", "observed_at": "2026-07-19T16:21:27.255848+00:00"}
{"url": "https://job-boards.greenhouse.io/fictiv/jobs/8640050002", "company_key": "greenhouse:fictiv", "location": "Remote - USA", "lat": 43.0059455, "lng": -123.8925908, "first_published": "2026-07-19T00:13:56-04:00", "observed_at": "2026-07-19T16:21:27.255848+00:00"}
{"url": "https://job-boards.greenhouse.io/fictiv/jobs/8640052002", "company_key": "greenhouse:fictiv", "location": "Oakland, CA Office", "lat": 37.7929742, "lng": -122.2756943, "first_published": "2026-07-19T00:46:29-04:00", "observed_at": "2026-07-19T16:21:27.255848+00:00"}
{"url": "https://job-boards.greenhouse.io/fictiv/jobs/8640053002", "company_key": "greenhouse:fictiv", "location": "Oakland, CA Office", "lat": 37.7929742, "lng": -122.2756943, "first_published": "2026-07-19T01:25:28-04:00", "observed_at": "2026-07-19T16:21:27.255848+00:00"}
{"url": "https://job-boards.greenhouse.io/fictiv/jobs/8640054002", "company_key": "greenhouse:fictiv", "location": "Oakland, CA Office", "lat": 37.7929742, "lng": -122.2756943, "first_published": "2026-07-19T02:01:25-04:00", "observed_at": "2026-07-19T16:21:27.255848+00:00"}
{"url": "https://job-boards.greenhouse.io/airtrunk/jobs/7756968003", "company_key": "greenhouse:airtrunk", "location": "Roppongi, Tokyo", "lat": 35.6624568, "lng": 139.7334981, "first_published": "2026-07-19T03:22:22-04:00", "observed_at": "2026-07-19T16:21:27.255848+00:00"}
{"url": "https://careers.appsflyer.com/jobs/position/8640055002?gh_jid=8640055002", "company_key": "greenhouse:appsflyer", "location": "Herzliya", "lat": 32.1656255, "lng": 34.8469023, "first_published": "2026-07-19T04:31:45-04:00", "observed_at": "2026-07-19T16:21:27.255848+00:00"}
{"url": "https://www.catonetworks.com/careers/careers-post/4925572101?gh_jid=4925572101", "company_key": "greenhouse:catonetworks", "location": "Tel Aviv District, Israel", "lat": 32.0956658, "lng": 34.8062579, "first_published": "2026-07-19T04:49:55-04:00", "observed_at": "2026-07-19T16:21:27.255848+00:00"}
{"url": "https://eosits.com/company/careers/?gh_jid=8609529002", "company_key": "greenhouse:eositsolutions", "location": "San Francisco, California, United States", "lat": 37.7879363, "lng": -122.4075201, "first_published": "2026-07-18T20:54:49-04:00", "observed_at": "2026-07-19T16:21:27.255848+00:00"}
{"url": "https://boards.greenhouse.io/flagshippioneeringinc/jobs/8621787002?gh_jid=8621787002", "company_key": "greenhouse:flagshippioneeringinc", "location": "Cambridge, MA USA", "lat": 42.3656347, "lng": -71.1040018, "first_published": "2026-07-19T08:37:11-04:00", "observed_at": "2026-07-19T16:21:27.255848+00:00"}
{"url": "https://job-boards.greenhouse.io/greenthumbindustries/jobs/8067558", "company_key": "greenhouse:greenthumbindustries", "location": "Sparks, Nevada, United States", "lat": 39.5404679, "lng": -119.7487235, "first_published": "2026-07-18T21:02:07-04:00", "observed_at": "2026-07-19T16:21:27.255848+00:00"}
{"url": "https://job-boards.greenhouse.io/hala/jobs/5308510008", "company_key": "greenhouse:hala", "location": "Riyadh, Riyadh, Saudi Arabia", "lat": 24.638916, "lng": 46.7160104, "first_published": "2026-07-19T11:14:23-04:00", "observed_at": "2026-07-19T16:21:27.255848+00:00"}
{"url": "https://healthverity.com/careers/jobs/?gh_jid=5363757008", "company_key": "greenhouse:healthverity", "location": "Philadelphia, PA", "lat": 39.9527237, "lng": -75.1635262, "first_published": "2026-07-19T08:51:48-04:00", "observed_at": "2026-07-19T16:21:27.255848+00:00"}
{"url": "https://job-boards.greenhouse.io/intowngolfclub/jobs/5363766008", "company_key": "greenhouse:intowngolfclub", "location": "Nashville-Tn", "lat": 36.1622767, "lng": -86.7742984, "first_published": "2026-07-19T11:34:00-04:00", "observed_at": "2026-07-19T16:21:27.255848+00:00"}
{"url": "https://job-boards.eu.greenhouse.io/jdsports/jobs/4931634101", "company_key": "greenhouse:jdsports", "location": "Palermo, Palermo, Italy", "lat": 38.1112268, "lng": 13.3524434, "first_published": "2026-07-19T09:37:56-04:00", "observed_at": "2026-07-19T16:21:27.255848+00:00"}
{"url": "https://job-boards.eu.greenhouse.io/jdsports/jobs/4931631101", "company_key": "greenhouse:jdsports", "location": "Italy ", "lat": 42.6384261, "lng": 12.674297, "first_published": "2026-07-19T09:31:34-04:00", "observed_at": "2026-07-19T16:21:27.255848+00:00"}
{"url": "https://job-boards.greenhouse.io/liquidpersonnel/jobs/7806840003", "company_key": "greenhouse:liquidpersonnel", "location": "Liverpool", "lat": 53.3933411, "lng": -2.9166389, "first_published": "2026-07-19T04:57:38-04:00", "observed_at": "2026-07-19T16:21:27.255848+00:00"}
{"url": "https://job-boards.greenhouse.io/liquidpersonnel/jobs/7807940003", "company_key": "greenhouse:liquidpersonnel", "location": "Derby", "lat": 52.9142235, "lng": -1.4719885, "first_published": "2026-07-19T06:37:04-04:00", "observed_at": "2026-07-19T16:21:27.255848+00:00"}
{"url": "https://job-boards.greenhouse.io/liquidpersonnel/jobs/7806917003", "company_key": "greenhouse:liquidpersonnel", "location": "London", "lat": 51.5074456, "lng": -0.1277653, "first_published": "2026-07-19T05:22:42-04:00", "observed_at": "2026-07-19T16:21:27.255848+00:00"}
{"url": "https://job-boards.greenhouse.io/liquidpersonnel/jobs/7806964003", "company_key": "greenhouse:liquidpersonnel", "location": "Hounslow", "lat": 51.4686132, "lng": -0.3613471, "first_published": "2026-07-19T05:51:51-04:00", "observed_at": "2026-07-19T16:21:27.255848+00:00"}
{"url": "https://job-boards.greenhouse.io/liquidpersonnel/jobs/7807888003", "company_key": "greenhouse:liquidpersonnel", "location": "Barking and Dagenham", "lat": 51.5541171, "lng": 0.1505051, "first_published": "2026-07-19T06:13:15-04:00", "observed_at": "2026-07-19T16:21:27.255848+00:00"}
{"url": "https://job-boards.greenhouse.io/liquidpersonnel/jobs/7807901003", "company_key": "greenhouse:liquidpersonnel", "location": "Havering", "lat": 51.5579262, "lng": 0.2498128, "first_published": "2026-07-19T06:27:33-04:00", "observed_at": "2026-07-19T16:21:27.255848+00:00"}
{"url": "https://job-boards.greenhouse.io/liquidpersonnel/jobs/7807962003", "company_key": "greenhouse:liquidpersonnel", "location": "Richmond Upon Thames", "lat": 51.4405529, "lng": -0.3076394, "first_published": "2026-07-19T06:50:00-04:00", "observed_at": "2026-07-19T16:21:27.255848+00:00"}
{"url": "https://job-boards.greenhouse.io/liquidpersonnel/jobs/7808093003", "company_key": "greenhouse:liquidpersonnel", "location": "Trafford", "lat": 53.4189361, "lng": -2.3592972, "first_published": "2026-07-19T06:58:57-04:00", "observed_at": "2026-07-19T16:21:27.255848+00:00"}
{"url": "https://job-boards.greenhouse.io/mobentertainment/jobs/5187651007", "company_key": "greenhouse:mobentertainment", "location": "United States", "lat": 39.7837304, "lng": -100.445882, "first_published": "2026-07-19T01:55:36-04:00", "observed_at": "2026-07-19T16:21:27.255848+00:00"}
{"url": "https://job-boards.eu.greenhouse.io/moniepoint/jobs/4931500101", "company_key": "greenhouse:moniepoint", "location": "Abia, Nigeria", "lat": null, "lng": null, "first_published": "2026-07-18T21:18:19-04:00", "observed_at": "2026-07-19T16:21:27.255848+00:00"}
{"url": "https://job-boards.eu.greenhouse.io/moniepoint/jobs/4931501101", "company_key": "greenhouse:moniepoint", "location": "Enugu, Nigeria", "lat": null, "lng": null, "first_published": "2026-07-18T21:18:21-04:00", "observed_at": "2026-07-19T16:21:27.255848+00:00"}
{"url": "https://job-boards.eu.greenhouse.io/moniepoint/jobs/4931504101", "company_key": "greenhouse:moniepoint", "location": "Imo, Nigeria", "lat": null, "lng": null, "first_published": "2026-07-18T21:18:22-04:00", "observed_at": "2026-07-19T16:21:27.255848+00:00"}
{"url": "https://job-boards.eu.greenhouse.io/moniepoint/jobs/4931495101", "company_key": "greenhouse:moniepoint", "location": "Kano, Nigeria", "lat": null, "lng": null, "first_published": "2026-07-18T20:44:50-04:00", "observed_at": "2026-07-19T16:21:27.255848+00:00"}
{"url": "https://job-boards.eu.greenhouse.io/moniepoint/jobs/4931489101", "company_key": "greenhouse:moniepoint", "location": "Ogun, Nigeria", "lat": null, "lng": null, "first_published": "2026-07-18T20:03:13-04:00", "observed_at": "2026-07-19T16:21:27.255848+00:00"}
{"url": "https://job-boards.eu.greenhouse.io/moniepoint/jobs/4931517101", "company_key": "greenhouse:moniepoint", "location": "Lagos, Nigeria", "lat": 6.4550575, "lng": 3.3941795, "first_published": "2026-07-18T22:57:02-04:00", "observed_at": "2026-07-19T16:21:27.255848+00:00"}
{"url": "https://job-boards.greenhouse.io/morganmorganjobsapplynow/jobs/6119248004", "company_key": "greenhouse:morganmorganjobsapplynow", "location": "Los Angeles, California, United States", "lat": 34.0536909, "lng": -118.242766, "first_published": "2026-07-18T18:21:59-04:00", "observed_at": "2026-07-19T16:21:27.255848+00:00"}
{"url": "https://job-boards.greenhouse.io/morganmorganjobsapplynow/jobs/6119250004", "company_key": "greenhouse:morganmorganjobsapplynow", "location": "Irvine, California, United States", "lat": 33.6856969, "lng": -117.825981, "first_published": "2026-07-18T18:24:06-04:00", "observed_at": "2026-07-19T16:21:27.255848+00:00"}
{"url": "https://boards.eu.greenhouse.io/nice/jobs/4911286101?gh_jid=4911286101", "company_key": "greenhouse:nice", "location": "Israel - Raanana", "lat": 32.1860244, "lng": 34.8678359, "first_published": "2026-07-19T09:41:00-04:00", "observed_at": "2026-07-19T16:21:27.255848+00:00"}
{"url": "https://job-boards.greenhouse.io/oklo/jobs/6116834004", "company_key": "greenhouse:oklo", "location": "Santa Clara, CA or Remote", "lat": null, "lng": null, "first_published": "2026-07-19T00:10:04-04:00", "observed_at": "2026-07-19T16:21:27.255848+00:00"}
{"url": "https://job-boards.greenhouse.io/oklo/jobs/6116895004", "company_key": "greenhouse:oklo", "location": "Santa Clara, CA or Remote", "lat": null, "lng": null, "first_published": "2026-07-19T00:09:45-04:00", "observed_at": "2026-07-19T16:21:27.255848+00:00"}
{"url": "https://job-boards.greenhouse.io/oklo/jobs/6115189004", "company_key": "greenhouse:oklo", "location": "Santa Clara, CA or Remote", "lat": null, "lng": null, "first_published": "2026-07-19T00:10:46-04:00", "observed_at": "2026-07-19T16:21:27.255848+00:00"}
{"url": "https://job-boards.greenhouse.io/oklo/jobs/6115192004", "company_key": "greenhouse:oklo", "location": "Santa Clara, CA or Remote", "lat": null, "lng": null, "first_published": "2026-07-19T00:10:25-04:00", "observed_at": "2026-07-19T16:21:27.255848+00:00"}
{"url": "https://job-boards.greenhouse.io/oklo/jobs/6116761004", "company_key": "greenhouse:oklo", "location": "Santa Clara, CA or Remote", "lat": null, "lng": null, "first_published": "2026-07-19T00:09:16-04:00", "observed_at": "2026-07-19T16:21:27.255848+00:00"}
{"url": "https://job-boards.greenhouse.io/okx/jobs/7809112003", "company_key": "greenhouse:okx", "location": "Singapore, Singapore", "lat": 1.2899175, "lng": 103.8519072, "first_published": "2026-07-19T03:08:34-04:00", "observed_at": "2026-07-19T16:21:27.255848+00:00"}
{"url": "https://job-boards.eu.greenhouse.io/parloa/jobs/4931643101", "company_key": "greenhouse:parloa", "location": "Munich Office", "lat": null, "lng": null, "first_published": "2026-07-19T10:19:04-04:00", "observed_at": "2026-07-19T16:21:27.255848+00:00"}
{"url": "https://job-boards.greenhouse.io/reformation/jobs/8056737", "company_key": "greenhouse:reformation", "location": "Miami, Florida", "lat": null, "lng": null, "first_published": "2026-07-19T10:06:41-04:00", "observed_at": "2026-07-19T16:21:27.255848+00:00"}
{"url": "https://job-boards.greenhouse.io/reformation/jobs/8073685", "company_key": "greenhouse:reformation", "location": "Ponce", "lat": null, "lng": null, "first_published": "2026-07-19T11:25:49-04:00", "observed_at": "2026-07-19T16:21:27.255848+00:00"}
{"url": "https://job-boards.greenhouse.io/saltxc/jobs/5189836007", "company_key": "greenhouse:saltxc", "location": "Toronto, Canada", "lat": 43.6534817, "lng": -79.3839347, "first_published": "2026-07-19T10:19:58-04:00", "observed_at": "2026-07-19T16:21:27.255848+00:00"}
{"url": "https://job-boards.greenhouse.io/saltxc/jobs/5189803007", "company_key": "greenhouse:saltxc", "location": "Toronto, Canada", "lat": 43.6534817, "lng": -79.3839347, "first_published": "2026-07-19T10:20:17-04:00", "observed_at": "2026-07-19T16:21:27.255848+00:00"}
{"url": "https://job-boards.greenhouse.io/sharkninjaoperatingllc/jobs/4693320006", "company_key": "greenhouse:sharkninjaoperatingllc", "location": "London, United Kingdom", "lat": 51.5074456, "lng": -0.1277653, "first_published": "2026-07-19T06:24:07-04:00", "observed_at": "2026-07-19T16:21:27.255848+00:00"}
{"url": "https://job-boards.greenhouse.io/sharkninjaoperatingllc/jobs/4693228006", "company_key": "greenhouse:sharkninjaoperatingllc", "location": "EG - Cairo", "lat": null, "lng": null, "first_published": "2026-07-19T06:31:30-04:00", "observed_at": "2026-07-19T16:21:27.255848+00:00"}
{"url": "https://job-boards.greenhouse.io/sharkninjaoperatingllc/jobs/4693232006", "company_key": "greenhouse:sharkninjaoperatingllc", "location": "KE - Nairobi", "lat": null, "lng": null, "first_published": "2026-07-19T06:34:29-04:00", "observed_at": "2026-07-19T16:21:27.255848+00:00"}
{"url": "https://job-boards.greenhouse.io/sharkninjaoperatingllc/jobs/4693230006", "company_key": "greenhouse:sharkninjaoperatingllc", "location": "NG - Lagos", "lat": null, "lng": null, "first_published": "2026-07-19T06:37:26-04:00", "observed_at": "2026-07-19T16:21:27.255848+00:00"}
{"url": "https://job-boards.greenhouse.io/sharkninjaoperatingllc/jobs/4691579006", "company_key": "greenhouse:sharkninjaoperatingllc", "location": "London, United Kingdom", "lat": 51.5074456, "lng": -0.1277653, "first_published": "2026-07-19T06:50:28-04:00", "observed_at": "2026-07-19T16:21:27.255848+00:00"}
{"url": "https://job-boards.greenhouse.io/sharkninjaoperatingllc/jobs/4694008006", "company_key": "greenhouse:sharkninjaoperatingllc", "location": "London, United Kingdom", "lat": 51.5074456, "lng": -0.1277653, "first_published": "2026-07-19T06:45:03-04:00", "observed_at": "2026-07-19T16:21:27.255848+00:00"}
{"url": "https://job-boards.greenhouse.io/sharkninjaoperatingllc/jobs/4694306006", "company_key": "greenhouse:sharkninjaoperatingllc", "location": "London, United Kingdom", "lat": 51.5074456, "lng": -0.1277653, "first_published": "2026-07-19T06:48:04-04:00", "observed_at": "2026-07-19T16:21:27.255848+00:00"}
{"url": "https://www.sisense.com/about/careers/8073774?gh_jid=8073774", "company_key": "greenhouse:sisense", "location": "Tel Aviv-Yafo, Gush Dan, Israel", "lat": null, "lng": null, "first_published": "2026-07-19T05:35:27-04:00", "observed_at": "2026-07-19T16:21:27.255848+00:00"}
{"url": "https://job-boards.eu.greenhouse.io/sohohouseco/jobs/4926201101", "company_key": "greenhouse:sohohouseco", "location": "Soho Farmhouse - Chipping Norton, England, United Kingdom", "lat": null, "lng": null, "first_published": "2026-07-19T05:35:10-04:00", "observed_at": "2026-07-19T16:21:27.255848+00:00"}
{"url": "https://job-boards.eu.greenhouse.io/tamara/jobs/4911430101", "company_key": "greenhouse:tamara", "location": "Riyadh, Saudi Arabia", "lat": 24.638916, "lng": 46.7160104, "first_published": "2026-07-19T09:10:02-04:00", "observed_at": "2026-07-19T16:21:27.255848+00:00"}
{"url": "https://job-boards.greenhouse.io/torq/jobs/6119299004", "company_key": "greenhouse:torq", "location": "Israel ", "lat": null, "lng": null, "first_published": "2026-07-19T04:04:58-04:00", "observed_at": "2026-07-19T16:21:27.255848+00:00"}
{"url": "https://job-boards.eu.greenhouse.io/unframe/jobs/4931573101", "company_key": "greenhouse:unframe", "location": "Tel Aviv-Yafo, Tel Aviv District, Israel", "lat": 32.0852997, "lng": 34.7818064, "first_published": "2026-07-19T05:20:45-04:00", "observed_at": "2026-07-19T16:21:27.255848+00:00"}
{"url": "https://job-boards.eu.greenhouse.io/unframe/jobs/4931604101", "company_key": "greenhouse:unframe", "location": "New York, New York, United States", "lat": 40.7127281, "lng": -74.0060152, "first_published": "2026-07-19T08:00:29-04:00", "observed_at": "2026-07-19T16:21:27.255848+00:00"}
{"url": "https://job-boards.eu.greenhouse.io/unframe/jobs/4931576101", "company_key": "greenhouse:unframe", "location": "Tel Aviv-Yafo, Tel Aviv District, Israel", "lat": 32.0852997, "lng": 34.7818064, "first_published": "2026-07-19T05:29:58-04:00", "observed_at": "2026-07-19T16:21:27.255848+00:00"}
{"url": "https://job-boards.eu.greenhouse.io/unframe/jobs/4931577101", "company_key": "greenhouse:unframe", "location": "Tel Aviv-Yafo, Tel Aviv District, Israel", "lat": 32.0852997, "lng": 34.7818064, "first_published": "2026-07-19T05:30:28-04:00", "observed_at": "2026-07-19T16:21:27.255848+00:00"}
{"url": "https://job-boards.eu.greenhouse.io/unframe/jobs/4931585101", "company_key": "greenhouse:unframe", "location": "Tel Aviv-Yafo, Tel Aviv District, Israel", "lat": 32.0852997, "lng": 34.7818064, "first_published": "2026-07-19T06:07:57-04:00", "observed_at": "2026-07-19T16:21:27.255848+00:00"}
{"url": "https://job-boards.eu.greenhouse.io/unframe/jobs/4931578101", "company_key": "greenhouse:unframe", "location": "Tel Aviv-Yafo, Tel Aviv District, Israel", "lat": 32.0852997, "lng": 34.7818064, "first_published": "2026-07-19T05:31:01-04:00", "observed_at": "2026-07-19T16:21:27.255848+00:00"}
{"url": "https://job-boards.eu.greenhouse.io/unframe/jobs/4931603101", "company_key": "greenhouse:unframe", "location": "Tel Aviv-Yafo, Tel Aviv District, Israel", "lat": 32.0852997, "lng": 34.7818064, "first_published": "2026-07-19T07:51:35-04:00", "observed_at": "2026-07-19T16:21:27.255848+00:00"}
{"url": "https://job-boards.greenhouse.io/wolt/jobs/8013470", "company_key": "greenhouse:wolt", "location": "Ramat Gan, Israel", "lat": 32.0686867, "lng": 34.8246812, "first_published": "2026-07-19T07:51:18-04:00", "observed_at": "2026-07-19T16:21:27.255848+00:00"}
{"url": "https://job-boards.greenhouse.io/wolt/jobs/8068863", "company_key": "greenhouse:wolt", "location": "Ramat Gan, Israel", "lat": 32.0686867, "lng": 34.8246812, "first_published": "2026-07-19T04:12:31-04:00", "observed_at": "2026-07-19T16:21:27.255848+00:00"}
{"url": "https://job-boards.greenhouse.io/wolt/jobs/8073769", "company_key": "greenhouse:wolt", "location": "Tbilisi, Georgia", "lat": 41.6934591, "lng": 44.8014495, "first_published": "2026-07-19T07:33:20-04:00", "observed_at": "2026-07-19T16:21:27.255848+00:00"}
{"url": "https://job-boards.greenhouse.io/wppmedia/jobs/5352842008", "company_key": "greenhouse:wppmedia", "location": "Kuala Lumpur, Malaysia", "lat": 3.1516964, "lng": 101.6942371, "first_published": "2026-07-18T23:34:23-04:00", "observed_at": "2026-07-19T16:21:27.255848+00:00"}
{"url": "https://job-boards.greenhouse.io/wppmedia/jobs/5288471008", "company_key": "greenhouse:wppmedia", "location": "Kuala Lumpur, Malaysia", "lat": 3.1516964, "lng": 101.6942371, "first_published": "2026-07-19T06:17:26-04:00", "observed_at": "2026-07-19T16:21:27.255848+00:00"}
{"url": "https://job-boards.greenhouse.io/wppmedia/jobs/5288464008", "company_key": "greenhouse:wppmedia", "location": "Kuala Lumpur, Malaysia", "lat": 3.1516964, "lng": 101.6942371, "first_published": "2026-07-19T06:18:52-04:00", "observed_at": "2026-07-19T16:21:27.255848+00:00"}
{"url": "https://job-boards.greenhouse.io/wppmedia/jobs/5288173008", "company_key": "greenhouse:wppmedia", "location": "Kuala Lumpur, Malaysia", "lat": 3.1516964, "lng": 101.6942371, "first_published": "2026-07-19T06:26:31-04:00", "observed_at": "2026-07-19T16:21:27.255848+00:00"}
{"url": "https://jobs.lever.co/ciandt/22629425-63b3-480b-a02b-15bda9d9b477", "company_key": "lever:ciandt", "location": "Quezon City, Metro Manila", "lat": null, "lng": null, "first_published": "2026-07-19T10:28:09.146000+00:00", "observed_at": "2026-07-19T16:21:27.255848+00:00"}
{"url": "https://jobs.lever.co/eqbank/55ac3a56-80e7-49ad-9c88-30d391f070b0", "company_key": "lever:eqbank", "location": "Montreal", "lat": 45.5031824, "lng": -73.5698065, "first_published": "2026-07-18T23:21:46.435000+00:00", "observed_at": "2026-07-19T16:21:27.255848+00:00"}
{"url": "https://jobs.lever.co/eqbank/4c40bfb1-9384-43b5-8c3a-b57a81d39f66", "company_key": "lever:eqbank", "location": "Montreal", "lat": 45.5031824, "lng": -73.5698065, "first_published": "2026-07-18T22:49:54.246000+00:00", "observed_at": "2026-07-19T16:21:27.255848+00:00"}
{"url": "https://jobs.lever.co/paytmpayments/a548c281-1a20-4e27-ab58-77bfe271276f", "company_key": "lever:paytmpayments", "location": "Mumbai, Maharashtra", "lat": 19.054999, "lng": 72.8692035, "first_published": "2026-07-19T15:43:28.453000+00:00", "observed_at": "2026-07-19T16:21:27.255848+00:00"}
{"url": "https://jobs.lever.co/paytmpayments/4e083609-b12f-42d8-be9d-f46bcd8cb436", "company_key": "lever:paytmpayments", "location": "Noida, Uttar Pradesh", "lat": 28.5706333, "lng": 77.3272147, "first_published": "2026-07-19T15:41:23.569000+00:00", "observed_at": "2026-07-19T16:21:27.255848+00:00"}
{"url": "https://jobs.lever.co/safetyculture-2/9239e271-2758-4418-ba7b-00d72806c740", "company_key": "lever:safetyculture-2", "location": "Manila", "lat": 14.5904492, "lng": 120.9803621, "first_published": "2026-07-19T14:14:01.530000+00:00", "observed_at": "2026-07-19T16:21:27.255848+00:00"}
{"url": "https://jobs.lever.co/wpromote/16dbfc6c-2e50-4742-a1e1-f7ed9dd63765", "company_key": "lever:wpromote", "location": "Remote, United States", "lat": 43.0059455, "lng": -123.8925908, "first_published": "2026-07-18T23:16:10.747000+00:00", "observed_at": "2026-07-19T16:21:27.255848+00:00"}
{"url": "https://jobs.lever.co/wpromote/482ab269-e946-4b91-ae0d-ea49d681d60e", "company_key": "lever:wpromote", "location": "Remote, United States", "lat": 43.0059455, "lng": -123.8925908, "first_published": "2026-07-18T23:08:41.204000+00:00", "observed_at": "2026-07-19T16:21:27.255848+00:00"}
{"url": "https://jobs.ashbyhq.com/cursor/44264403-5674-40b7-8b8d-e60b0a86e9ec", "company_key": "ashby:cursor", "location": "Australia | Singapore | Japan", "lat": null, "lng": null, "first_published": "2026-07-19T00:03:56.556+00:00", "observed_at": "2026-07-19T16:21:27.255848+00:00"}
{"url": "https://jobs.ashbyhq.com/honey%20homes/d0f121cd-e7a6-443f-9955-4768de115cfe", "company_key": "ashby:honey homes", "location": "Dallas", "lat": 32.7762719, "lng": -96.7968559, "first_published": "2026-07-19T02:56:52.342+00:00", "observed_at": "2026-07-19T16:21:27.255848+00:00"}
{"url": "https://jobs.ashbyhq.com/legora/e640d4e2-0a66-47e3-9d5b-7515034a8f7f", "company_key": "ashby:legora", "location": "London", "lat": 51.5074456, "lng": -0.1277653, "first_published": "2026-07-19T13:09:16.591+00:00", "observed_at": "2026-07-19T16:21:27.255848+00:00"}
{"url": "https://jobs.ashbyhq.com/sarvam/6a5df2a7-5335-41b7-9b50-7f2f5de26d18", "company_key": "ashby:sarvam", "location": "Bengaluru", "lat": 12.9767936, "lng": 77.590082, "first_published": "2026-07-19T08:29:30.871+00:00", "observed_at": "2026-07-19T16:21:27.255848+00:00"}
{"url": "https://jobs.ashbyhq.com/vibe/85416450-409f-4d3a-b385-c4c42e8bad37", "company_key": "ashby:vibe", "location": "Paris", "lat": 48.8588897, "lng": 2.320041, "first_published": "2026-07-18T22:49:48.748+00:00", "observed_at": "2026-07-19T16:21:27.255848+00:00"}
{"url": "https://job-boards.greenhouse.io/apiiro/jobs/7809109003", "company_key": "greenhouse:apiiro", "location": "United States - Remote", "lat": 43.0059455, "lng": -123.8925908, "first_published": "2026-07-19T12:55:00-04:00", "observed_at": "2026-07-19T17:26:58.095690+00:00"}
{"url": "https://job-boards.greenhouse.io/lifespanmontessori/jobs/5190550007", "company_key": "greenhouse:lifespanmontessori", "location": "570 Research Dr., Athens, GA 30605", "lat": 33.9282275, "lng": -83.3438566, "first_published": "2026-07-19T13:13:18-04:00", "observed_at": "2026-07-19T17:26:58.095690+00:00"}
{"url": "https://job-boards.greenhouse.io/millcreekacademy/jobs/5190551007", "company_key": "greenhouse:millcreekacademy", "location": "1061 Old Peachtree Rd., Lawrenceville, GA 30043", "lat": null, "lng": null, "first_published": "2026-07-19T13:17:07-04:00", "observed_at": "2026-07-19T17:26:58.095690+00:00"}
{"url": "https://boards.greenhouse.io/veterinaryemergencygroupst/jobs/6119225004?gh_jid=6119225004", "company_key": "greenhouse:veterinaryemergencygroupst", "location": "Glendale, Arizona, United States", "lat": 33.5386858, "lng": -112.185994, "first_published": "2026-07-19T12:54:46-04:00", "observed_at": "2026-07-19T17:26:58.095690+00:00"}
{"url": "https://jobs.ashbyhq.com/fluidstack/80b2d06b-b654-46cf-9f9f-4194862e0dcf", "company_key": "ashby:fluidstack", "location": "San Francisco, CA | New York, NY | Austin, TX | Seattle, WA", "lat": null, "lng": null, "first_published": "2026-07-19T17:22:07.029+00:00", "observed_at": "2026-07-19T17:26:58.095690+00:00"}
{"url": "https://jobs.ashbyhq.com/harvey/968c54a0-6e1c-4524-b824-8081f4bf3ebb", "company_key": "ashby:harvey", "location": "Paris", "lat": 48.8588897, "lng": 2.320041, "first_published": "2026-07-19T16:37:18.989+00:00", "observed_at": "2026-07-19T17:26:58.095690+00:00"}
{"url": "https://job-boards.greenhouse.io/clara/jobs/5190560007", "company_key": "greenhouse:clara", "location": "Colombia", "lat": 4.099917, "lng": -72.9088133, "first_published": "2026-07-19T14:11:33-04:00", "observed_at": "2026-07-19T20:56:31.506354+00:00"}
{"url": "https://job-boards.greenhouse.io/clara/jobs/5190557007", "company_key": "greenhouse:clara", "location": "Mexico City, Mexico City, Mexico", "lat": 19.4326296, "lng": -99.1331785, "first_published": "2026-07-19T14:10:35-04:00", "observed_at": "2026-07-19T20:56:31.506354+00:00"}
{"url": "https://job-boards.greenhouse.io/clara/jobs/5190561007", "company_key": "greenhouse:clara", "location": "Mexico", "lat": 23.6585116, "lng": -102.0077097, "first_published": "2026-07-19T14:20:31-04:00", "observed_at": "2026-07-19T20:56:31.506354+00:00"}
{"url": "https://www.picarro.com/company/careers/job-openings/apply?gh_jid=5363774008", "company_key": "greenhouse:picarroinc", "location": "Santa Clara, CA", "lat": 37.2333253, "lng": -121.6846349, "first_published": "2026-07-19T14:45:21-04:00", "observed_at": "2026-07-19T20:56:31.506354+00:00"}
{"url": "https://www.picarro.com/company/careers/job-openings/apply?gh_jid=5363786008", "company_key": "greenhouse:picarroinc", "location": "Santa Clara, CA", "lat": 37.2333253, "lng": -121.6846349, "first_published": "2026-07-19T15:08:48-04:00", "observed_at": "2026-07-19T20:56:31.506354+00:00"}
{"url": "https://www.picarro.com/company/careers/job-openings/apply?gh_jid=5363771008", "company_key": "greenhouse:picarroinc", "location": "Santa Clara, CA", "lat": 37.2333253, "lng": -121.6846349, "first_published": "2026-07-19T14:25:14-04:00", "observed_at": "2026-07-19T20:56:31.506354+00:00"}
{"url": "https://job-boards.greenhouse.io/sudstop/jobs/5363773008", "company_key": "greenhouse:sudstop", "location": "17235 Panama City Beach Parkway Panama City Beach, FL 32413", "lat": 30.2311582, "lng": -85.8904174, "first_published": "2026-07-19T14:21:50-04:00", "observed_at": "2026-07-19T20:56:31.506354+00:00"}
{"url": "https://jobs.lever.co/appen/a90f4138-faaa-4189-affe-d5119e5d2241", "company_key": "lever:appen", "location": "United States", "lat": 39.7837304, "lng": -100.445882, "first_published": "2026-07-19T20:05:06.975000+00:00", "observed_at": "2026-07-19T20:56:31.506354+00:00"}
{"url": "https://jobs.ashbyhq.com/harvey/e59924d6-248a-4385-bc78-371cfdf6b783", "company_key": "ashby:harvey", "location": "Bengaluru", "lat": 12.9767936, "lng": 77.590082, "first_published": "2026-07-19T17:41:15.301+00:00", "observed_at": "2026-07-19T20:56:31.506354+00:00"}
{"url": "https://jobs.ashbyhq.com/kalshi/af0e6d3d-963a-4c9d-aeaa-41877c17cb4c", "company_key": "ashby:kalshi", "location": "New York Office", "lat": 40.5808261, "lng": -74.115423, "first_published": "2026-07-19T19:50:58.403+00:00", "observed_at": "2026-07-19T20:56:31.506354+00:00"}
{"url": "https://jobs.ashbyhq.com/pleo/a54651f0-d946-4da6-b39b-826b1ed6d527", "company_key": "ashby:pleo", "location": "United Kingdom | Denmark | Germany | Portugal | Sweden | Spain", "lat": null, "lng": null, "first_published": "2026-07-19T18:20:47.561+00:00", "observed_at": "2026-07-19T20:56:31.506354+00:00"}
{"url": "https://jobs.ashbyhq.com/pleo/19b7ebc6-18ca-4340-9346-c9cd4746c03f", "company_key": "ashby:pleo", "location": "United Kingdom | Denmark | Germany | Portugal | Sweden | Spain", "lat": null, "lng": null, "first_published": "2026-07-19T18:16:12.859+00:00", "observed_at": "2026-07-19T20:56:31.506354+00:00"}
{"url": "https://jobs.ashbyhq.com/superdial/e3624f2a-25e5-4ea1-b725-a45aacfb537c", "company_key": "ashby:superdial", "location": "New York City | Burlingame, CA", "lat": 40.6530011, "lng": -73.8295238, "first_published": "2026-07-19T20:52:04.306+00:00", "observed_at": "2026-07-19T20:56:31.506354+00:00"}
{"url": "https://jobs.ashbyhq.com/voize/7c1a7d0f-760b-457b-88c2-13a06f614cf7", "company_key": "ashby:voize", "location": "Berlin | Hamburg", "lat": 53.5534401, "lng": 10.0260449, "first_published": "2026-07-19T17:28:59.116+00:00", "observed_at": "2026-07-19T20:56:31.506354+00:00"}
{"url": "https://jobs.ashbyhq.com/voize/411c20ce-d9b3-49d9-aaa3-872c2615dddb", "company_key": "ashby:voize", "location": "Hamburg | Dortmund | Frankfurt | G\u00f6ttingen | Hannover | Munich | Berlin | Cologne", "lat": null, "lng": null, "first_published": "2026-07-19T19:40:52.158+00:00", "observed_at": "2026-07-19T20:56:31.506354+00:00"}
{"url": "https://jobs.ashbyhq.com/voize/27427194-f309-4560-90bb-1fb919de05b7", "company_key": "ashby:voize", "location": "Berlin | Dortmund | Frankfurt | G\u00f6ttingen | Hannover | Munich | Cologne | Hamburg", "lat": null, "lng": null, "first_published": "2026-07-19T19:55:25.143+00:00", "observed_at": "2026-07-19T20:56:31.506354+00:00"}
{"url": "https://job-boards.greenhouse.io/scaleai/jobs/4716453005", "company_key": "greenhouse:scaleai", "location": "San Francisco, CA; Seattle, WA; New York, NY", "lat": null, "lng": null, "first_published": "2026-07-20T13:35:24-04:00", "observed_at": "2026-07-20T19:39:25.477167+00:00"}
{"url": "https://job-boards.greenhouse.io/amplitude/jobs/8641314002", "company_key": "greenhouse:amplitude", "location": "San Francisco, CA", "lat": 37.7879363, "lng": -122.4075201, "first_published": "2026-07-20T12:56:36-04:00", "observed_at": "2026-07-20T19:39:25.477167+00:00"}
{"url": "https://job-boards.greenhouse.io/affirm/jobs/7800317003", "company_key": "greenhouse:affirm", "location": "Remote US", "lat": 43.0059455, "lng": -123.8925908, "first_published": "2026-07-20T13:51:39-04:00", "observed_at": "2026-07-20T19:39:25.477167+00:00"}
{"url": "https://abnormal.ai/careers/jobs/7806195003?gh_jid=7806195003", "company_key": "greenhouse:abnormalsecurity", "location": "Remote - USA", "lat": 43.0059455, "lng": -123.8925908, "first_published": "2026-07-20T10:11:51-04:00", "observed_at": "2026-07-20T19:39:25.477167+00:00"}
{"url": "https://job-boards.greenhouse.io/omadahealth/jobs/8073030", "company_key": "greenhouse:omadahealth", "location": "Remote, USA", "lat": 43.0059455, "lng": -123.8925908, "first_published": "2026-07-20T14:08:27-04:00", "observed_at": "2026-07-20T19:39:25.477167+00:00"}
{"url": "https://boards.greenhouse.io/spacex/jobs/8637796002?gh_jid=8637796002", "company_key": "greenhouse:spacex", "location": "Palo Alto, CA", "lat": 37.4443293, "lng": -122.1598465, "first_published": "2026-07-20T12:34:57-04:00", "observed_at": "2026-07-20T19:39:25.477167+00:00"}
{"url": "https://boards.greenhouse.io/spacex/jobs/8637814002?gh_jid=8637814002", "company_key": "greenhouse:spacex", "location": "Palo Alto, CA", "lat": 37.4443293, "lng": -122.1598465, "first_published": "2026-07-20T12:35:18-04:00", "observed_at": "2026-07-20T19:39:25.477167+00:00"}
{"url": "https://job-boards.greenhouse.io/66degrees/jobs/6119392004", "company_key": "greenhouse:66degrees", "location": "Remote, United States", "lat": 43.0059455, "lng": -123.8925908, "first_published": "2026-07-20T10:49:20-04:00", "observed_at": "2026-07-20T19:39:25.477167+00:00"}
{"url": "https://job-boards.greenhouse.io/aura798/jobs/6115445004", "company_key": "greenhouse:aura798", "location": "Remote USA", "lat": 43.0059455, "lng": -123.8925908, "first_published": "2026-07-20T13:45:25-04:00", "observed_at": "2026-07-20T19:39:25.477167+00:00"}
{"url": "https://bitmovin.com/careers/8640623002?gh_jid=8640623002", "company_key": "greenhouse:bitmovin", "location": "US - Remote", "lat": 43.0059455, "lng": -123.8925908, "first_published": "2026-07-20T11:38:40-04:00", "observed_at": "2026-07-20T19:39:25.477167+00:00"}
{"url": "https://job-boards.greenhouse.io/bloomerang/jobs/4716623005", "company_key": "greenhouse:bloomerang", "location": "Remote, US", "lat": 43.0059455, "lng": -123.8925908, "first_published": "2026-07-20T13:07:19-04:00", "observed_at": "2026-07-20T19:39:25.477167+00:00"}
{"url": "https://coreweave.com/careers/job?4698414006&board=coreweave&gh_jid=4698414006", "company_key": "greenhouse:coreweave", "location": "Livingston, NJ / New York, NY / Sunnyvale, CA / San Francisco, CA / Bellevue, WA", "lat": null, "lng": null, "first_published": "2026-07-20T14:35:02-04:00", "observed_at": "2026-07-20T19:39:25.477167+00:00"}
{"url": "https://job-boards.greenhouse.io/databento/jobs/8074350", "company_key": "greenhouse:databento", "location": "Remote / Boston / Salt Lake City / San Francisco / New York", "lat": null, "lng": null, "first_published": "2026-07-20T08:50:52-04:00", "observed_at": "2026-07-20T19:39:25.477167+00:00"}
{"url": "https://job-boards.greenhouse.io/databento/jobs/8074345", "company_key": "greenhouse:databento", "location": "Remote / Boston / Salt Lake City / San Francisco / New York", "lat": null, "lng": null, "first_published": "2026-07-20T09:03:02-04:00", "observed_at": "2026-07-20T19:39:25.477167+00:00"}
{"url": "https://www.zipline.com/open-roles?gh_jid=7803258003", "company_key": "greenhouse:flyzipline", "location": "South San Francisco, California, USA", "lat": 37.6535403, "lng": -122.4168664, "first_published": "2026-07-20T13:39:03-04:00", "observed_at": "2026-07-20T19:39:25.477167+00:00"}
{"url": "https://www.zipline.com/open-roles?gh_jid=7809118003", "company_key": "greenhouse:flyzipline", "location": "South San Francisco, California, USA", "lat": 37.6535403, "lng": -122.4168664, "first_published": "2026-07-20T11:20:18-04:00", "observed_at": "2026-07-20T19:39:25.477167+00:00"}
{"url": "https://job-boards.greenhouse.io/keyfactorinc/jobs/6119682004", "company_key": "greenhouse:keyfactorinc", "location": "United States; Remote", "lat": null, "lng": null, "first_published": "2026-07-20T12:52:25-04:00", "observed_at": "2026-07-20T19:39:25.477167+00:00"}
{"url": "https://job-boards.greenhouse.io/midihealth/jobs/4716655005", "company_key": "greenhouse:midihealth", "location": "Hybrid - San Francisco Bay Area", "lat": null, "lng": null, "first_published": "2026-07-20T11:58:27-04:00", "observed_at": "2026-07-20T19:39:25.477167+00:00"}
{"url": "https://job-boards.greenhouse.io/oddball/jobs/7809785003", "company_key": "greenhouse:oddball", "location": "Remote", "lat": 43.0059455, "lng": -123.8925908, "first_published": "2026-07-20T11:51:00-04:00", "observed_at": "2026-07-20T19:39:25.477167+00:00"}
{"url": "https://job-boards.greenhouse.io/oura/jobs/4308541009", "company_key": "greenhouse:oura", "location": "Hybrid - San Francisco, California", "lat": 37.7276632, "lng": -122.394073, "first_published": "2026-07-20T15:19:52-04:00", "observed_at": "2026-07-20T19:39:25.477167+00:00"}
{"url": "https://job-boards.greenhouse.io/pomelocare/jobs/6119528004", "company_key": "greenhouse:pomelocare", "location": "Remote (SF or NY hybrid optional)", "lat": null, "lng": null, "first_published": "2026-07-20T10:46:33-04:00", "observed_at": "2026-07-20T19:39:25.477167+00:00"}
{"url": "https://job-boards.greenhouse.io/redcellpartners/jobs/5191113007", "company_key": "greenhouse:redcellpartners", "location": "Remote (USA)", "lat": 43.0059455, "lng": -123.8925908, "first_published": "2026-07-20T14:13:43-04:00", "observed_at": "2026-07-20T19:39:25.477167+00:00"}
{"url": "https://careers.roblox.com/jobs/8073283?gh_jid=8073283", "company_key": "greenhouse:roblox", "location": "San Mateo, CA, United States", "lat": 37.496904, "lng": -122.3330573, "first_published": "2026-07-20T13:24:05-04:00", "observed_at": "2026-07-20T19:39:25.477167+00:00"}
{"url": "https://boards.greenhouse.io/andurilindustries/jobs/5183145007?gh_jid=5183145007", "company_key": "greenhouse:andurilindustries", "location": "Costa Mesa, California, United States", "lat": 33.6633386, "lng": -117.903317, "first_published": "2026-07-20T14:26:01-04:00", "observed_at": "2026-07-20T19:39:25.477167+00:00"}
{"url": "https://boards.greenhouse.io/andurilindustries/jobs/5172280007?gh_jid=5172280007", "company_key": "greenhouse:andurilindustries", "location": "Costa Mesa, California, United States", "lat": 33.6633386, "lng": -117.903317, "first_published": "2026-07-20T12:54:15-04:00", "observed_at": "2026-07-20T19:39:25.477167+00:00"}
{"url": "https://job-boards.greenhouse.io/vardaspace/jobs/7809779003", "company_key": "greenhouse:vardaspace", "location": "El Segundo, California, United States", "lat": 33.917028, "lng": -118.4156337, "first_published": "2026-07-20T11:45:03-04:00", "observed_at": "2026-07-20T19:39:25.477167+00:00"}
{"url": "https://job-boards.greenhouse.io/vardaspace/jobs/7809739003", "company_key": "greenhouse:vardaspace", "location": "El Segundo, California, United States", "lat": 33.917028, "lng": -118.4156337, "first_published": "2026-07-20T11:26:25-04:00", "observed_at": "2026-07-20T19:39:25.477167+00:00"}
{"url": "https://job-boards.greenhouse.io/vardaspace/jobs/7809760003", "company_key": "greenhouse:vardaspace", "location": "El Segundo, California, United States", "lat": 33.917028, "lng": -118.4156337, "first_published": "2026-07-20T11:39:09-04:00", "observed_at": "2026-07-20T19:39:25.477167+00:00"}
{"url": "https://job-boards.greenhouse.io/vardaspace/jobs/7809758003", "company_key": "greenhouse:vardaspace", "location": "El Segundo, California, United States", "lat": 33.917028, "lng": -118.4156337, "first_published": "2026-07-20T11:36:33-04:00", "observed_at": "2026-07-20T19:39:25.477167+00:00"}
{"url": "https://job-boards.greenhouse.io/vardaspace/jobs/7809738003", "company_key": "greenhouse:vardaspace", "location": "El Segundo, California, United States", "lat": 33.917028, "lng": -118.4156337, "first_published": "2026-07-20T11:25:23-04:00", "observed_at": "2026-07-20T19:39:25.477167+00:00"}
{"url": "https://job-boards.greenhouse.io/vardaspace/jobs/7809759003", "company_key": "greenhouse:vardaspace", "location": "El Segundo, California, United States", "lat": 33.917028, "lng": -118.4156337, "first_published": "2026-07-20T11:37:58-04:00", "observed_at": "2026-07-20T19:39:25.477167+00:00"}
{"url": "https://jobs.elastic.co/jobs?gh_jid=8074819&gh_jid=8074819", "company_key": "greenhouse:elastic", "location": "United States", "lat": 39.7837304, "lng": -100.445882, "first_published": "2026-07-20T12:09:11-04:00", "observed_at": "2026-07-20T19:39:25.477167+00:00"}
{"url": "https://jobs.elastic.co/jobs?gh_jid=8053886&gh_jid=8053886", "company_key": "greenhouse:elastic", "location": "United States", "lat": 39.7837304, "lng": -100.445882, "first_published": "2026-07-20T11:04:12-04:00", "observed_at": "2026-07-20T19:39:25.477167+00:00"}
{"url": "https://jobs.elastic.co/jobs?gh_jid=8066491&gh_jid=8066491", "company_key": "greenhouse:elastic", "location": "United States", "lat": 39.7837304, "lng": -100.445882, "first_published": "2026-07-20T12:39:27-04:00", "observed_at": "2026-07-20T19:39:25.477167+00:00"}
{"url": "https://www.okta.com/company/careers/opportunity/8073066?gh_jid=8073066", "company_key": "greenhouse:okta", "location": "Washington, DC", "lat": 38.8950982, "lng": -77.0363849, "first_published": "2026-07-20T14:22:34-04:00", "observed_at": "2026-07-20T19:39:25.477167+00:00"}
{"url": "https://boards.greenhouse.io/spacex/jobs/8641549002?gh_jid=8641549002", "company_key": "greenhouse:spacex", "location": "Starbase, TX", "lat": 25.9914611, "lng": -97.1829783, "first_published": "2026-07-20T14:22:30-04:00", "observed_at": "2026-07-20T19:39:25.477167+00:00"}
{"url": "https://boards.greenhouse.io/spacex/jobs/8637824002?gh_jid=8637824002", "company_key": "greenhouse:spacex", "location": "Redmond, WA", "lat": 47.6694141, "lng": -122.1238767, "first_published": "2026-07-20T12:34:58-04:00", "observed_at": "2026-07-20T19:39:25.477167+00:00"}
{"url": "https://boards.greenhouse.io/spacex/jobs/8637826002?gh_jid=8637826002", "company_key": "greenhouse:spacex", "location": "Redmond, WA", "lat": 47.6694141, "lng": -122.1238767, "first_published": "2026-07-20T12:35:18-04:00", "observed_at": "2026-07-20T19:39:25.477167+00:00"}
{"url": "https://www.plume.com/career-opportunities/?gh_jid=8638244002", "company_key": "greenhouse:plume", "location": "United States", "lat": 39.7837304, "lng": -100.445882, "first_published": "2026-07-20T14:03:53-04:00", "observed_at": "2026-07-20T19:39:25.477167+00:00"}
{"url": "https://www.plume.com/career-opportunities/?gh_jid=8638223002", "company_key": "greenhouse:plume", "location": "United States", "lat": 39.7837304, "lng": -100.445882, "first_published": "2026-07-20T14:04:07-04:00", "observed_at": "2026-07-20T19:39:25.477167+00:00"}
{"url": "https://ripple.com/careers/all-jobs/job/7944478?gh_jid=7944478", "company_key": "greenhouse:ripple", "location": "Chicago, Illinois, United States", "lat": 41.8755616, "lng": -87.6244212, "first_published": "2026-07-20T14:07:36-04:00", "observed_at": "2026-07-20T19:39:25.477167+00:00"}
{"url": "https://boards.greenhouse.io/accenturefederalservices/jobs/4674621006?gh_jid=4674621006", "company_key": "greenhouse:accenturefederalservices", "location": "Arlington, VA", "lat": 38.8769326, "lng": -77.0893094, "first_published": "2026-07-20T08:47:02-04:00", "observed_at": "2026-07-20T19:39:25.477167+00:00"}
{"url": "https://boards.greenhouse.io/accenturefederalservices/jobs/4688186006?gh_jid=4688186006", "company_key": "greenhouse:accenturefederalservices", "location": "Washington, DC", "lat": 38.8950982, "lng": -77.0363849, "first_published": "2026-07-20T11:30:50-04:00", "observed_at": "2026-07-20T19:39:25.477167+00:00"}
{"url": "https://job-boards.greenhouse.io/bti36021/jobs/8074667", "company_key": "greenhouse:bti36021", "location": "Herndon, VA ", "lat": null, "lng": null, "first_published": "2026-07-20T11:29:12-04:00", "observed_at": "2026-07-20T19:39:25.477167+00:00"}
{"url": "https://job-boards.greenhouse.io/consumeredge/jobs/6119458004", "company_key": "greenhouse:consumeredge", "location": "New York City", "lat": 40.7127281, "lng": -74.0060152, "first_published": "2026-07-20T09:40:33-04:00", "observed_at": "2026-07-20T19:39:25.477167+00:00"}
{"url": "https://job-boards.greenhouse.io/darkwolfsolutions/jobs/7810005003", "company_key": "greenhouse:darkwolfsolutions", "location": "Herndon, VA/Hybrid", "lat": null, "lng": null, "first_published": "2026-07-20T14:14:59-04:00", "observed_at": "2026-07-20T19:39:25.477167+00:00"}
{"url": "https://job-boards.greenhouse.io/dragos/jobs/5317825008", "company_key": "greenhouse:dragos", "location": "United States", "lat": 39.7837304, "lng": -100.445882, "first_published": "2026-07-20T00:59:39-04:00", "observed_at": "2026-07-20T19:39:25.477167+00:00"}
{"url": "https://job-boards.greenhouse.io/grvty/jobs/4323810009", "company_key": "greenhouse:grvty", "location": "San Antonio, Texas, United States", "lat": 29.4246002, "lng": -98.4951405, "first_published": "2026-07-20T09:49:02-04:00", "observed_at": "2026-07-20T19:39:25.477167+00:00"}
{"url": "https://job-boards.greenhouse.io/grvty/jobs/4324154009", "company_key": "greenhouse:grvty", "location": "Chantilly, Virginia, United States", "lat": 38.885219, "lng": -77.4486772, "first_published": "2026-07-20T14:22:10-04:00", "observed_at": "2026-07-20T19:39:25.477167+00:00"}
{"url": "https://job-boards.greenhouse.io/itd/jobs/4324424009", "company_key": "greenhouse:itd", "location": "United States", "lat": 39.7837304, "lng": -100.445882, "first_published": "2026-07-20T14:54:18-04:00", "observed_at": "2026-07-20T19:39:25.477167+00:00"}
{"url": "https://job-boards.greenhouse.io/kunai/jobs/5189677007", "company_key": "greenhouse:kunai", "location": "Houston, Texas, United States", "lat": 29.7589382, "lng": -95.3676974, "first_published": "2026-07-20T09:16:24-04:00", "observed_at": "2026-07-20T19:39:25.477167+00:00"}
{"url": "https://metrostar.com/job-post/?gh_jid=7801321003", "company_key": "greenhouse:metrostarsystems", "location": "Tysons Corner, VA", "lat": null, "lng": null, "first_published": "2026-07-20T15:10:44-04:00", "observed_at": "2026-07-20T19:39:25.477167+00:00"}
{"url": "https://metrostar.com/job-post/?gh_jid=7803143003", "company_key": "greenhouse:metrostarsystems", "location": "Reston, VA", "lat": 38.953282, "lng": -77.3464516, "first_published": "2026-07-20T15:10:29-04:00", "observed_at": "2026-07-20T19:39:25.477167+00:00"}
{"url": "https://boards.eu.greenhouse.io/nice/jobs/4929222101?gh_jid=4929222101", "company_key": "greenhouse:nice", "location": "USA - Sandy, UT", "lat": 40.5865748, "lng": -111.8966822, "first_published": "2026-07-20T10:31:29-04:00", "observed_at": "2026-07-20T19:39:25.477167+00:00"}
{"url": "https://www.orioninc.com/careers/job/?gh_jid=4697677006", "company_key": "greenhouse:orioninnovation", "location": "US", "lat": 39.7837304, "lng": -100.445882, "first_published": "2026-07-20T10:10:34-04:00", "observed_at": "2026-07-20T19:39:25.477167+00:00"}
{"url": "https://job-boards.greenhouse.io/palmettocleantech/jobs/5364166008", "company_key": "greenhouse:palmettocleantech", "location": "1616 Camden Rd Charlotte, NC 28203; Boston, Massachusetts, United States", "lat": null, "lng": null, "first_published": "2026-07-20T10:25:09-04:00", "observed_at": "2026-07-20T19:39:25.477167+00:00"}
{"url": "https://job-boards.greenhouse.io/phoenixcontact/jobs/7805049003", "company_key": "greenhouse:phoenixcontact", "location": "Ann Arbor, Michigan ", "lat": null, "lng": null, "first_published": "2026-07-20T11:10:33-04:00", "observed_at": "2026-07-20T19:39:25.477167+00:00"}
{"url": "https://job-boards.eu.greenhouse.io/physicsx/jobs/4932720101", "company_key": "greenhouse:physicsx", "location": "New York", "lat": 40.7127281, "lng": -74.0060152, "first_published": "2026-07-20T13:40:21-04:00", "observed_at": "2026-07-20T19:39:25.477167+00:00"}
{"url": "https://job-boards.greenhouse.io/pmg/jobs/8587050002", "company_key": "greenhouse:pmg", "location": "Dallas, Texas", "lat": 32.7762719, "lng": -96.7968559, "first_published": "2026-07-20T10:37:16-04:00", "observed_at": "2026-07-20T19:39:25.477167+00:00"}
{"url": "https://job-boards.greenhouse.io/pmg/jobs/8587038002", "company_key": "greenhouse:pmg", "location": "Dallas, Texas", "lat": 32.7762719, "lng": -96.7968559, "first_published": "2026-07-20T10:30:36-04:00", "observed_at": "2026-07-20T19:39:25.477167+00:00"}
{"url": "https://boards.greenhouse.io/rdccareers/jobs/7808556003?gh_jid=7808556003", "company_key": "greenhouse:rdccareers", "location": "Austin, Texas, United States", "lat": 30.2711286, "lng": -97.7436995, "first_published": "2026-07-20T14:00:35-04:00", "observed_at": "2026-07-20T19:39:25.477167+00:00"}
{"url": "https://boards.greenhouse.io/rdccareers/jobs/7808378003?gh_jid=7808378003", "company_key": "greenhouse:rdccareers", "location": "Austin, Texas, United States", "lat": 30.2711286, "lng": -97.7436995, "first_published": "2026-07-20T10:31:38-04:00", "observed_at": "2026-07-20T19:39:25.477167+00:00"}
{"url": "https://job-boards.greenhouse.io/referralsuseonly/jobs/8074222", "company_key": "greenhouse:referralsuseonly", "location": "United States", "lat": 39.7837304, "lng": -100.445882, "first_published": "2026-07-20T06:27:29-04:00", "observed_at": "2026-07-20T19:39:25.477167+00:00"}
{"url": "https://job-boards.greenhouse.io/referralsuseonly/jobs/8066489", "company_key": "greenhouse:referralsuseonly", "location": "United States", "lat": 39.7837304, "lng": -100.445882, "first_published": "2026-07-20T12:09:14-04:00", "observed_at": "2026-07-20T19:39:25.477167+00:00"}
{"url": "https://job-boards.greenhouse.io/referralsuseonly/jobs/8074286", "company_key": "greenhouse:referralsuseonly", "location": "United States", "lat": 39.7837304, "lng": -100.445882, "first_published": "2026-07-20T11:04:14-04:00", "observed_at": "2026-07-20T19:39:25.477167+00:00"}
{"url": "https://job-boards.greenhouse.io/referralsuseonly/jobs/8074917", "company_key": "greenhouse:referralsuseonly", "location": "United States", "lat": 39.7837304, "lng": -100.445882, "first_published": "2026-07-20T12:47:52-04:00", "observed_at": "2026-07-20T19:39:25.477167+00:00"}
{"url": "https://job-boards.greenhouse.io/rockstargames/jobs/7800927003", "company_key": "greenhouse:rockstargames", "location": "Manhattan, New York, United States", "lat": 40.7579554, "lng": -73.9855319, "first_published": "2026-07-20T10:26:01-04:00", "observed_at": "2026-07-20T19:39:25.477167+00:00"}
{"url": "https://job-boards.greenhouse.io/scoutmotors/jobs/5190691007", "company_key": "greenhouse:scoutmotors", "location": "Charlotte, North Carolina, United States", "lat": 35.2272086, "lng": -80.8430827, "first_published": "2026-07-20T12:36:57-04:00", "observed_at": "2026-07-20T19:39:25.477167+00:00"}
{"url": "https://job-boards.greenhouse.io/spycloud/jobs/7808291003", "company_key": "greenhouse:spycloud", "location": "Austin, Texas", "lat": 30.2711286, "lng": -97.7436995, "first_published": "2026-07-20T15:23:55-04:00", "observed_at": "2026-07-20T19:39:25.477167+00:00"}
{"url": "https://job-boards.greenhouse.io/strivehealth/jobs/4697975006", "company_key": "greenhouse:strivehealth", "location": "Denver, CO", "lat": 39.7392364, "lng": -104.984862, "first_published": "2026-07-20T14:56:01-04:00", "observed_at": "2026-07-20T19:39:25.477167+00:00"}
{"url": "https://job-boards.greenhouse.io/turing/jobs/6119886004", "company_key": "greenhouse:turing", "location": "New York, New York, United States", "lat": 40.7127281, "lng": -74.0060152, "first_published": "2026-07-20T15:07:30-04:00", "observed_at": "2026-07-20T19:39:25.477167+00:00"}
{"url": "https://job-boards.greenhouse.io/anthropic/jobs/5364336008", "company_key": "greenhouse:anthropic", "location": "San Francisco, CA | New York City, NY", "lat": null, "lng": null, "first_published": "2026-07-20T11:44:02-04:00", "observed_at": "2026-07-20T19:39:25.477167+00:00"}
{"url": "https://job-boards.greenhouse.io/anthropic/jobs/5363352008", "company_key": "greenhouse:anthropic", "location": "San Francisco, CA | New York City, NY | Seattle, WA", "lat": null, "lng": null, "first_published": "2026-07-20T12:02:37-04:00", "observed_at": "2026-07-20T19:39:25.477167+00:00"}
{"url": "https://job-boards.greenhouse.io/xai/jobs/5189363007", "company_key": "greenhouse:xai", "location": "Singapore, SG", "lat": 1.2899175, "lng": 103.8519072, "first_published": "2026-07-19T23:53:51-04:00", "observed_at": "2026-07-20T19:39:25.477167+00:00"}
{"url": "https://job-boards.greenhouse.io/xai/jobs/5191183007", "company_key": "greenhouse:xai", "location": "Bastrop, TX; Los Angeles, CA; Seattle, WA", "lat": null, "lng": null, "first_published": "2026-07-20T14:59:58-04:00", "observed_at": "2026-07-20T19:39:25.477167+00:00"}
{"url": "https://job-boards.greenhouse.io/togetherai/jobs/5181912007", "company_key": "greenhouse:togetherai", "location": "Remote", "lat": 43.0059455, "lng": -123.8925908, "first_published": "2026-07-20T15:00:46-04:00", "observed_at": "2026-07-20T19:39:25.477167+00:00"}
{"url": "https://boards.greenhouse.io/andurilindustries/jobs/5120398007?gh_jid=5120398007", "company_key": "greenhouse:andurilindustries", "location": "Lexington, Massachusetts, United States", "lat": 42.4473175, "lng": -71.2245003, "first_published": "2026-07-20T09:16:15-04:00", "observed_at": "2026-07-20T19:39:25.477167+00:00"}
{"url": "https://boards.greenhouse.io/andurilindustries/jobs/5185554007?gh_jid=5185554007", "company_key": "greenhouse:andurilindustries", "location": "Costa Mesa, California, United States", "lat": 33.6633386, "lng": -117.903317, "first_published": "2026-07-20T11:10:28-04:00", "observed_at": "2026-07-20T19:39:25.477167+00:00"}
{"url": "https://boards.greenhouse.io/andurilindustries/jobs/5185057007?gh_jid=5185057007", "company_key": "greenhouse:andurilindustries", "location": "Washington, District of Columbia, United States", "lat": 38.8950982, "lng": -77.0363849, "first_published": "2026-07-20T11:10:28-04:00", "observed_at": "2026-07-20T19:39:25.477167+00:00"}
{"url": "https://boards.greenhouse.io/andurilindustries/jobs/5185352007?gh_jid=5185352007", "company_key": "greenhouse:andurilindustries", "location": "Abu Dhabi, United Arab Emirates", "lat": null, "lng": null, "first_published": "2026-07-20T10:02:01-04:00", "observed_at": "2026-07-20T19:39:25.477167+00:00"}
{"url": "https://boards.greenhouse.io/andurilindustries/jobs/5189303007?gh_jid=5189303007", "company_key": "greenhouse:andurilindustries", "location": "Costa Mesa, California, United States", "lat": 33.6633386, "lng": -117.903317, "first_published": "2026-07-20T12:16:37-04:00", "observed_at": "2026-07-20T19:39:25.477167+00:00"}
{"url": "https://boards.greenhouse.io/andurilindustries/jobs/5191249007?gh_jid=5191249007", "company_key": "greenhouse:andurilindustries", "location": "Lexington, Massachusetts, United States", "lat": 42.4473175, "lng": -71.2245003, "first_published": "2026-07-20T15:20:02-04:00", "observed_at": "2026-07-20T19:39:25.477167+00:00"}
{"url": "https://boards.greenhouse.io/andurilindustries/jobs/5190505007?gh_jid=5190505007", "company_key": "greenhouse:andurilindustries", "location": "Costa Mesa, California, United States", "lat": 33.6633386, "lng": -117.903317, "first_published": "2026-07-20T15:20:43-04:00", "observed_at": "2026-07-20T19:39:25.477167+00:00"}
{"url": "https://boards.greenhouse.io/andurilindustries/jobs/5136081007?gh_jid=5136081007", "company_key": "greenhouse:andurilindustries", "location": "Costa Mesa, California, United States", "lat": 33.6633386, "lng": -117.903317, "first_published": "2026-07-20T10:54:46-04:00", "observed_at": "2026-07-20T19:39:25.477167+00:00"}
{"url": "https://boards.greenhouse.io/andurilindustries/jobs/5190747007?gh_jid=5190747007", "company_key": "greenhouse:andurilindustries", "location": "Reston, Virginia, United States", "lat": 38.953282, "lng": -77.3464516, "first_published": "2026-07-20T10:26:11-04:00", "observed_at": "2026-07-20T19:39:25.477167+00:00"}
{"url": "https://www.epirusinc.com/open-roles?gh_jid=6118234004", "company_key": "greenhouse:epirus", "location": "Torrance, California, United States", "lat": 33.8371392, "lng": -118.3413606, "first_published": "2026-07-20T13:59:47-04:00", "observed_at": "2026-07-20T19:39:25.477167+00:00"}
{"url": "https://job-boards.greenhouse.io/vardaspace/jobs/7809722003", "company_key": "greenhouse:vardaspace", "location": "El Segundo, California, United States", "lat": 33.917028, "lng": -118.4156337, "first_published": "2026-07-20T11:16:15-04:00", "observed_at": "2026-07-20T19:39:25.477167+00:00"}
{"url": "https://job-boards.greenhouse.io/vardaspace/jobs/7809723003", "company_key": "greenhouse:vardaspace", "location": "El Segundo, California, United States", "lat": 33.917028, "lng": -118.4156337, "first_published": "2026-07-20T11:17:14-04:00", "observed_at": "2026-07-20T19:39:25.477167+00:00"}
{"url": "https://job-boards.greenhouse.io/vardaspace/jobs/7809895003", "company_key": "greenhouse:vardaspace", "location": "El Segundo, California, United States", "lat": 33.917028, "lng": -118.4156337, "first_published": "2026-07-20T12:54:02-04:00", "observed_at": "2026-07-20T19:39:25.477167+00:00"}
{"url": "https://job-boards.greenhouse.io/torcrobotics/jobs/8542718002", "company_key": "greenhouse:torcrobotics", "location": "Remote - U.S, Ann Arbor, MI", "lat": null, "lng": null, "first_published": "2026-07-20T10:22:53-04:00", "observed_at": "2026-07-20T19:39:25.477167+00:00"}
{"url": "https://careers.airbnb.com/positions/8074955?gh_jid=8074955", "company_key": "greenhouse:airbnb", "location": "Remote- USA", "lat": null, "lng": null, "first_published": "2026-07-20T14:27:38-04:00", "observed_at": "2026-07-20T19:39:25.477167+00:00"}
{"url": "https://careers.airbnb.com/positions/8055637?gh_jid=8055637", "company_key": "greenhouse:airbnb", "location": "California, Oregon, Washington", "lat": null, "lng": null, "first_published": "2026-07-20T12:20:53-04:00", "observed_at": "2026-07-20T19:39:25.477167+00:00"}
{"url": "https://careers.airbnb.com/positions/8074303?gh_jid=8074303", "company_key": "greenhouse:airbnb", "location": "Berlin, Germany", "lat": 52.5173885, "lng": 13.3951309, "first_published": "2026-07-20T07:44:37-04:00", "observed_at": "2026-07-20T19:39:25.477167+00:00"}
{"url": "https://careers.airbnb.com/positions/8070705?gh_jid=8070705", "company_key": "greenhouse:airbnb", "location": "United States", "lat": 39.7837304, "lng": -100.445882, "first_published": "2026-07-20T12:54:52-04:00", "observed_at": "2026-07-20T19:39:25.477167+00:00"}
{"url": "https://careers.airbnb.com/positions/8073695?gh_jid=8073695", "company_key": "greenhouse:airbnb", "location": "United States ", "lat": 39.7837304, "lng": -100.445882, "first_published": "2026-07-20T13:55:35-04:00", "observed_at": "2026-07-20T19:39:25.477167+00:00"}
{"url": "https://stripe.com/jobs/search?gh_jid=8060387", "company_key": "greenhouse:stripe", "location": "San Francisco, CA", "lat": 37.7879363, "lng": -122.4075201, "first_published": "2026-07-20T14:43:29-04:00", "observed_at": "2026-07-20T19:39:25.477167+00:00"}
{"url": "https://stripe.com/jobs/search?gh_jid=8074923", "company_key": "greenhouse:stripe", "location": "New York, NY", "lat": 40.7127281, "lng": -74.0060152, "first_published": "2026-07-20T12:55:00-04:00", "observed_at": "2026-07-20T19:39:25.477167+00:00"}
{"url": "https://stripe.com/jobs/search?gh_jid=8073880", "company_key": "greenhouse:stripe", "location": "Singapore", "lat": 1.357107, "lng": 103.8194992, "first_published": "2026-07-20T04:15:59-04:00", "observed_at": "2026-07-20T19:39:25.477167+00:00"}
{"url": "https://stripe.com/jobs/search?gh_jid=8066610", "company_key": "greenhouse:stripe", "location": "London ", "lat": null, "lng": null, "first_published": "2026-07-20T09:32:09-04:00", "observed_at": "2026-07-20T19:39:25.477167+00:00"}
{"url": "https://stripe.com/jobs/search?gh_jid=8066310", "company_key": "greenhouse:stripe", "location": "Bengaluru", "lat": 12.9767936, "lng": 77.590082, "first_published": "2026-07-20T01:52:52-04:00", "observed_at": "2026-07-20T19:39:25.477167+00:00"}
{"url": "https://stripe.com/jobs/search?gh_jid=8065034", "company_key": "greenhouse:stripe", "location": "N/A", "lat": 51.566874, "lng": 4.9284972, "first_published": "2026-07-20T10:48:43-04:00", "observed_at": "2026-07-20T19:39:25.477167+00:00"}
{"url": "https://stripe.com/jobs/search?gh_jid=8070570", "company_key": "greenhouse:stripe", "location": "Remote, North America", "lat": null, "lng": null, "first_published": "2026-07-20T12:15:40-04:00", "observed_at": "2026-07-20T19:39:25.477167+00:00"}
{"url": "https://stripe.com/jobs/search?gh_jid=8072213", "company_key": "greenhouse:stripe", "location": "SF, NYC, SEA, CHI", "lat": null, "lng": null, "first_published": "2026-07-20T12:43:47-04:00", "observed_at": "2026-07-20T19:39:25.477167+00:00"}
{"url": "https://boards.greenhouse.io/figma/jobs/6117206004?gh_jid=6117206004", "company_key": "greenhouse:figma", "location": "Sydney, Australia", "lat": -33.8698439, "lng": 151.2082848, "first_published": "2026-07-19T17:47:57-04:00", "observed_at": "2026-07-20T19:39:25.477167+00:00"}
{"url": "https://boards.greenhouse.io/figma/jobs/6118332004?gh_jid=6118332004", "company_key": "greenhouse:figma", "location": "San Francisco, CA \u2022 New York, NY \u2022 United States", "lat": null, "lng": null, "first_published": "2026-07-20T11:21:43-04:00", "observed_at": "2026-07-20T19:39:25.477167+00:00"}
{"url": "https://boards.greenhouse.io/figma/jobs/6110744004?gh_jid=6110744004", "company_key": "greenhouse:figma", "location": "Berlin, Germany", "lat": 52.5173885, "lng": 13.3951309, "first_published": "2026-07-20T12:36:59-04:00", "observed_at": "2026-07-20T19:39:25.477167+00:00"}
{"url": "https://databricks.com/company/careers/open-positions/job?gh_jid=8633225002", "company_key": "greenhouse:databricks", "location": "Central - United States", "lat": null, "lng": null, "first_published": "2026-07-20T14:38:55-04:00", "observed_at": "2026-07-20T19:39:25.477167+00:00"}
{"url": "https://databricks.com/company/careers/open-positions/job?gh_jid=8567993002", "company_key": "greenhouse:databricks", "location": "Sao Paulo, Brazil", "lat": -23.5506507, "lng": -46.6333824, "first_published": "2026-07-20T15:22:57-04:00", "observed_at": "2026-07-20T19:39:25.477167+00:00"}
{"url": "https://databricks.com/company/careers/open-positions/job?gh_jid=8640212002", "company_key": "greenhouse:databricks", "location": "London, United Kingdom", "lat": 51.5074456, "lng": -0.1277653, "first_published": "2026-07-20T04:55:49-04:00", "observed_at": "2026-07-20T19:39:25.477167+00:00"}
{"url": "https://instacart.careers/job/?gh_jid=8074453", "company_key": "greenhouse:instacart", "location": "San Francisco, Bay Area - Remote", "lat": null, "lng": null, "first_published": "2026-07-20T15:12:44-04:00", "observed_at": "2026-07-20T19:39:25.477167+00:00"}
{"url": "https://www.pinterestcareers.com/jobs/?gh_jid=8030915", "company_key": "greenhouse:pinterest", "location": "Chicago, IL, US", "lat": null, "lng": null, "first_published": "2026-07-20T14:46:19-04:00", "observed_at": "2026-07-20T19:39:25.477167+00:00"}
{"url": "https://www.pinterestcareers.com/jobs/?gh_jid=8016630", "company_key": "greenhouse:pinterest", "location": "London, UK", "lat": 51.5074456, "lng": -0.1277653, "first_published": "2026-07-20T06:29:08-04:00", "observed_at": "2026-07-20T19:39:25.477167+00:00"}
{"url": "https://www.pinterestcareers.com/jobs/?gh_jid=8016632", "company_key": "greenhouse:pinterest", "location": "London, UK", "lat": 51.5074456, "lng": -0.1277653, "first_published": "2026-07-20T06:28:56-04:00", "observed_at": "2026-07-20T19:39:25.477167+00:00"}
{"url": "https://www.weareroku.com/jobs/8074225?gh_jid=8074225", "company_key": "greenhouse:roku", "location": "Bengaluru, India", "lat": 12.9767936, "lng": 77.590082, "first_published": "2026-07-20T08:01:33-04:00", "observed_at": "2026-07-20T19:39:25.477167+00:00"}
{"url": "https://job-boards.greenhouse.io/twilio/jobs/8065930", "company_key": "greenhouse:twilio", "location": "Remote - US", "lat": 43.0059455, "lng": -123.8925908, "first_published": "2026-07-20T13:32:07-04:00", "observed_at": "2026-07-20T19:39:25.477167+00:00"}
{"url": "https://job-boards.greenhouse.io/twilio/jobs/8064090", "company_key": "greenhouse:twilio", "location": "Remote - United Kingdom", "lat": 55.8754971, "lng": -2.9525105, "first_published": "2026-07-20T07:26:04-04:00", "observed_at": "2026-07-20T19:39:25.477167+00:00"}
{"url": "https://job-boards.greenhouse.io/twilio/jobs/8071712", "company_key": "greenhouse:twilio", "location": "Remote - US", "lat": 43.0059455, "lng": -123.8925908, "first_published": "2026-07-20T10:34:37-04:00", "observed_at": "2026-07-20T19:39:25.477167+00:00"}
{"url": "https://jobs.elastic.co/jobs?gh_jid=8074820&gh_jid=8074820", "company_key": "greenhouse:elastic", "location": "Canada", "lat": 61.0666922, "lng": -107.991707, "first_published": "2026-07-20T12:09:15-04:00", "observed_at": "2026-07-20T19:39:25.477167+00:00"}
{"url": "https://jobs.elastic.co/jobs?gh_jid=8046246&gh_jid=8046246", "company_key": "greenhouse:elastic", "location": "Barcelona, Spain", "lat": 41.3825802, "lng": 2.177073, "first_published": "2026-07-20T04:21:43-04:00", "observed_at": "2026-07-20T19:39:25.477167+00:00"}
{"url": "https://jobs.elastic.co/jobs?gh_jid=8074285&gh_jid=8074285", "company_key": "greenhouse:elastic", "location": "Canada", "lat": 61.0666922, "lng": -107.991707, "first_published": "2026-07-20T11:04:11-04:00", "observed_at": "2026-07-20T19:39:25.477167+00:00"}
{"url": "https://jobs.elastic.co/jobs?gh_jid=8074844&gh_jid=8074844", "company_key": "greenhouse:elastic", "location": "Canada", "lat": 61.0666922, "lng": -107.991707, "first_published": "2026-07-20T12:39:50-04:00", "observed_at": "2026-07-20T19:39:25.477167+00:00"}
{"url": "https://jobs.elastic.co/jobs?gh_jid=8074895&gh_jid=8074895", "company_key": "greenhouse:elastic", "location": "Norway", "lat": 61.1529386, "lng": 8.7876653, "first_published": "2026-07-20T12:40:35-04:00", "observed_at": "2026-07-20T19:39:25.477167+00:00"}
{"url": "https://jobs.elastic.co/jobs?gh_jid=8074855&gh_jid=8074855", "company_key": "greenhouse:elastic", "location": "Spain", "lat": 39.3260685, "lng": -4.8379791, "first_published": "2026-07-20T12:40:30-04:00", "observed_at": "2026-07-20T19:39:25.477167+00:00"}
{"url": "https://jobs.elastic.co/jobs?gh_jid=8074854&gh_jid=8074854", "company_key": "greenhouse:elastic", "location": "Ireland", "lat": 52.865196, "lng": -7.9794599, "first_published": "2026-07-20T12:40:29-04:00", "observed_at": "2026-07-20T19:39:25.477167+00:00"}
{"url": "https://jobs.elastic.co/jobs?gh_jid=8074886&gh_jid=8074886", "company_key": "greenhouse:elastic", "location": "Greece", "lat": 38.9953683, "lng": 21.9877132, "first_published": "2026-07-20T12:40:32-04:00", "observed_at": "2026-07-20T19:39:25.477167+00:00"}
{"url": "https://jobs.elastic.co/jobs?gh_jid=8074889&gh_jid=8074889", "company_key": "greenhouse:elastic", "location": "Portugal", "lat": 39.6621648, "lng": -8.1353519, "first_published": "2026-07-20T12:40:32-04:00", "observed_at": "2026-07-20T19:39:25.477167+00:00"}
{"url": "https://jobs.elastic.co/jobs?gh_jid=8074894&gh_jid=8074894", "company_key": "greenhouse:elastic", "location": "Romania", "lat": 45.9852129, "lng": 24.6859225, "first_published": "2026-07-20T12:40:33-04:00", "observed_at": "2026-07-20T19:39:25.477167+00:00"}
{"url": "https://www.mongodb.com/careers/job/?gh_jid=8074220", "company_key": "greenhouse:mongodb", "location": "Singapore", "lat": 1.357107, "lng": 103.8194992, "first_published": "2026-07-20T06:36:51-04:00", "observed_at": "2026-07-20T19:39:25.477167+00:00"}
{"url": "https://www.mongodb.com/careers/job/?gh_jid=8066559", "company_key": "greenhouse:mongodb", "location": "Auckland; Melbourne", "lat": null, "lng": null, "first_published": "2026-07-19T23:12:50-04:00", "observed_at": "2026-07-20T19:39:25.477167+00:00"}
{"url": "https://www.mongodb.com/careers/job/?gh_jid=8074078", "company_key": "greenhouse:mongodb", "location": "Milan; Rome", "lat": null, "lng": null, "first_published": "2026-07-20T05:54:31-04:00", "observed_at": "2026-07-20T19:39:25.477167+00:00"}
{"url": "https://www.mongodb.com/careers/job/?gh_jid=8073907", "company_key": "greenhouse:mongodb", "location": "Singapore", "lat": 1.357107, "lng": 103.8194992, "first_published": "2026-07-20T05:46:50-04:00", "observed_at": "2026-07-20T19:39:25.477167+00:00"}
{"url": "https://www.mongodb.com/careers/job/?gh_jid=8072506", "company_key": "greenhouse:mongodb", "location": "Dublin", "lat": 53.3493795, "lng": -6.2605593, "first_published": "2026-07-20T13:27:25-04:00", "observed_at": "2026-07-20T19:39:25.477167+00:00"}
{"url": "https://www.mongodb.com/careers/job/?gh_jid=8072504", "company_key": "greenhouse:mongodb", "location": "Austin; New York City", "lat": null, "lng": null, "first_published": "2026-07-20T13:27:25-04:00", "observed_at": "2026-07-20T19:39:25.477167+00:00"}
{"url": "https://www.mongodb.com/careers/job/?gh_jid=8056742", "company_key": "greenhouse:mongodb", "location": "Dublin, Ireland", "lat": 53.3493795, "lng": -6.2605593, "first_published": "2026-07-20T10:06:05-04:00", "observed_at": "2026-07-20T19:39:25.477167+00:00"}
{"url": "https://www.mongodb.com/careers/job/?gh_jid=8071805", "company_key": "greenhouse:mongodb", "location": "United States", "lat": 39.7837304, "lng": -100.445882, "first_published": "2026-07-20T12:39:28-04:00", "observed_at": "2026-07-20T19:39:25.477167+00:00"}
{"url": "https://www.mongodb.com/careers/job/?gh_jid=8070484", "company_key": "greenhouse:mongodb", "location": "Palo Alto", "lat": 37.4443293, "lng": -122.1598465, "first_published": "2026-07-20T11:08:25-04:00", "observed_at": "2026-07-20T19:39:25.477167+00:00"}
{"url": "https://www.samsara.com/company/careers/roles/8066320?gh_jid=8066320", "company_key": "greenhouse:samsara", "location": "Bengaluru - BLR1", "lat": null, "lng": null, "first_published": "2026-07-20T07:14:52-04:00", "observed_at": "2026-07-20T19:39:25.477167+00:00"}
{"url": "https://www.okta.com/company/careers/opportunity/8075386?gh_jid=8075386", "company_key": "greenhouse:okta", "location": "San Francisco, California", "lat": 37.7879363, "lng": -122.4075201, "first_published": "2026-07-20T15:33:42-04:00", "observed_at": "2026-07-20T19:39:25.477167+00:00"}
{"url": "https://careers.toasttab.com/jobs?gh_jid=8072138", "company_key": "greenhouse:toast", "location": "Bengaluru, Karnataka, India", "lat": 12.9767936, "lng": 77.590082, "first_published": "2026-07-20T08:18:12-04:00", "observed_at": "2026-07-20T19:39:25.477167+00:00"}
{"url": "https://careers.toasttab.com/jobs?gh_jid=8069747", "company_key": "greenhouse:toast", "location": "Chennai", "lat": null, "lng": null, "first_published": "2026-07-20T11:48:54-04:00", "observed_at": "2026-07-20T19:39:25.477167+00:00"}
{"url": "https://careers.toasttab.com/jobs?gh_jid=8071780", "company_key": "greenhouse:toast", "location": "Bethesda, MD", "lat": 38.9812726, "lng": -77.1233587, "first_published": "2026-07-20T11:07:22-04:00", "observed_at": "2026-07-20T19:39:25.477167+00:00"}
{"url": "https://careers.toasttab.com/jobs?gh_jid=8069221", "company_key": "greenhouse:toast", "location": "Vancouver, BC", "lat": 49.2608724, "lng": -123.113952, "first_published": "2026-07-19T17:32:10-04:00", "observed_at": "2026-07-20T19:39:25.477167+00:00"}
{"url": "https://job-boards.greenhouse.io/gitlab/jobs/8626770002", "company_key": "greenhouse:gitlab", "location": "Remote, Germany", "lat": 49.2186885, "lng": 7.1109673, "first_published": "2026-07-20T05:35:49-04:00", "observed_at": "2026-07-20T19:39:25.477167+00:00"}
{"url": "https://job-boards.greenhouse.io/gitlab/jobs/8620580002", "company_key": "greenhouse:gitlab", "location": "Remote", "lat": 43.0059455, "lng": -123.8925908, "first_published": "2026-07-20T07:54:44-04:00", "observed_at": "2026-07-20T19:39:25.477167+00:00"}
{"url": "https://job-boards.greenhouse.io/gitlab/jobs/8611700002", "company_key": "greenhouse:gitlab", "location": "Remote, KSA; Remote, UAE", "lat": null, "lng": null, "first_published": "2026-07-20T07:59:55-04:00", "observed_at": "2026-07-20T19:39:25.477167+00:00"}
{"url": "https://www.cockroachlabs.com/careers/job/?gh_jid=8031122", "company_key": "greenhouse:cockroachlabs", "location": "San Mateo, CA", "lat": 37.496904, "lng": -122.3330573, "first_published": "2026-07-20T12:42:57-04:00", "observed_at": "2026-07-20T19:39:25.477167+00:00"}
{"url": "https://www.cockroachlabs.com/careers/job/?gh_jid=8071815", "company_key": "greenhouse:cockroachlabs", "location": "Remote, United States", "lat": 43.0059455, "lng": -123.8925908, "first_published": "2026-07-20T15:08:16-04:00", "observed_at": "2026-07-20T19:39:25.477167+00:00"}
{"url": "https://job-boards.greenhouse.io/newrelic/jobs/5237193008", "company_key": "greenhouse:newrelic", "location": "Hyderabad, India", "lat": 17.360589, "lng": 78.4740613, "first_published": "2026-07-20T01:08:11-04:00", "observed_at": "2026-07-20T19:39:25.477167+00:00"}
{"url": "https://careers.datadoghq.com/detail/8074318/?gh_jid=8074318", "company_key": "greenhouse:datadog", "location": "Paris, France", "lat": 48.8588897, "lng": 2.320041, "first_published": "2026-07-20T08:39:42-04:00", "observed_at": "2026-07-20T19:39:25.477167+00:00"}
{"url": "https://job-boards.greenhouse.io/amplitude/jobs/8640250002", "company_key": "greenhouse:amplitude", "location": "London, UK", "lat": 51.5074456, "lng": -0.1277653, "first_published": "2026-07-20T06:07:19-04:00", "observed_at": "2026-07-20T19:39:25.477167+00:00"}
{"url": "https://cribl.io/job-detail/?gh_jid=6115646004", "company_key": "greenhouse:cribl", "location": "Remote - United States", "lat": 43.0059455, "lng": -123.8925908, "first_published": "2026-07-20T14:08:52-04:00", "observed_at": "2026-07-20T19:39:25.477167+00:00"}
{"url": "https://www.brex.com/careers/8641194002?gh_jid=8641194002", "company_key": "greenhouse:brex", "location": "San Francisco, California, United States", "lat": 37.7879363, "lng": -122.4075201, "first_published": "2026-07-20T11:54:08-04:00", "observed_at": "2026-07-20T19:39:25.477167+00:00"}
{"url": "https://www.brex.com/careers/8623291002?gh_jid=8623291002", "company_key": "greenhouse:brex", "location": "Seattle, Washington, United States", "lat": 47.6038321, "lng": -122.330062, "first_published": "2026-07-20T11:54:06-04:00", "observed_at": "2026-07-20T19:39:25.477167+00:00"}
{"url": "https://www.brex.com/careers/8641189002?gh_jid=8641189002", "company_key": "greenhouse:brex", "location": "New York, New York, United States", "lat": 40.7127281, "lng": -74.0060152, "first_published": "2026-07-20T11:54:07-04:00", "observed_at": "2026-07-20T19:39:25.477167+00:00"}
{"url": "https://www.brex.com/careers/8641195002?gh_jid=8641195002", "company_key": "greenhouse:brex", "location": "Vancouver, British Columbia, Canada", "lat": 49.2608724, "lng": -123.113952, "first_published": "2026-07-20T11:54:09-04:00", "observed_at": "2026-07-20T19:39:25.477167+00:00"}
{"url": "https://www.brex.com/careers/8641728002?gh_jid=8641728002", "company_key": "greenhouse:brex", "location": "Seattle, Washington, United States", "lat": 47.6038321, "lng": -122.330062, "first_published": "2026-07-20T15:24:53-04:00", "observed_at": "2026-07-20T19:39:25.477167+00:00"}
{"url": "https://www.brex.com/careers/8641661002?gh_jid=8641661002", "company_key": "greenhouse:brex", "location": "San Francisco, California, United States", "lat": 37.7879363, "lng": -122.4075201, "first_published": "2026-07-20T15:13:01-04:00", "observed_at": "2026-07-20T19:39:25.477167+00:00"}
{"url": "https://www.brex.com/careers/8641732002?gh_jid=8641732002", "company_key": "greenhouse:brex", "location": "New York, New York, United States", "lat": 40.7127281, "lng": -74.0060152, "first_published": "2026-07-20T15:30:59-04:00", "observed_at": "2026-07-20T19:39:25.477167+00:00"}
{"url": "https://boards.greenhouse.io/robinhood/jobs/8072766?t=gh_src=&gh_jid=8072766", "company_key": "greenhouse:robinhood", "location": "Chicago, IL; Menlo Park, CA; New York, NY", "lat": null, "lng": null, "first_published": "2026-07-20T13:00:42-04:00", "observed_at": "2026-07-20T19:39:25.477167+00:00"}
{"url": "https://job-boards.greenhouse.io/affirm/jobs/7793242003", "company_key": "greenhouse:affirm", "location": "Remote US", "lat": 43.0059455, "lng": -123.8925908, "first_published": "2026-07-20T13:28:37-04:00", "observed_at": "2026-07-20T19:39:25.477167+00:00"}
{"url": "https://job-boards.greenhouse.io/affirm/jobs/7793244003", "company_key": "greenhouse:affirm", "location": "Remote Canada", "lat": 70.8553058, "lng": -70.9174507, "first_published": "2026-07-20T13:28:39-04:00", "observed_at": "2026-07-20T19:39:25.477167+00:00"}
{"url": "https://job-boards.greenhouse.io/affirm/jobs/7806681003", "company_key": "greenhouse:affirm", "location": "Remote Poland", "lat": null, "lng": null, "first_published": "2026-07-20T08:23:12-04:00", "observed_at": "2026-07-20T19:39:25.477167+00:00"}
{"url": "https://job-boards.greenhouse.io/affirm/jobs/7806679003", "company_key": "greenhouse:affirm", "location": "Remote Spain", "lat": 40.4710988, "lng": -3.8195049, "first_published": "2026-07-20T08:23:11-04:00", "observed_at": "2026-07-20T19:39:25.477167+00:00"}
{"url": "https://job-boards.greenhouse.io/affirm/jobs/7800319003", "company_key": "greenhouse:affirm", "location": "Remote Canada", "lat": 70.8553058, "lng": -70.9174507, "first_published": "2026-07-20T13:51:41-04:00", "observed_at": "2026-07-20T19:39:25.477167+00:00"}
{"url": "https://job-boards.greenhouse.io/marqeta/jobs/8054625", "company_key": "greenhouse:marqeta", "location": "Warsaw, Poland", "lat": 52.2333742, "lng": 21.0711489, "first_published": "2026-07-20T08:45:23-04:00", "observed_at": "2026-07-20T19:39:25.477167+00:00"}
{"url": "https://sofi.com/careers/job/7809918003?gh_jid=7809918003", "company_key": "greenhouse:sofi", "location": "Add ALL locations here", "lat": null, "lng": null, "first_published": "2026-07-20T13:04:55-04:00", "observed_at": "2026-07-20T19:39:25.477167+00:00"}
{"url": "https://sofi.com/careers/job/7809921003?gh_jid=7809921003", "company_key": "greenhouse:sofi", "location": "Add ALL locations here", "lat": null, "lng": null, "first_published": "2026-07-20T13:06:56-04:00", "observed_at": "2026-07-20T19:39:25.477167+00:00"}
{"url": "https://sofi.com/careers/job/7809913003?gh_jid=7809913003", "company_key": "greenhouse:sofi", "location": "Add ALL locations here", "lat": null, "lng": null, "first_published": "2026-07-20T13:03:02-04:00", "observed_at": "2026-07-20T19:39:25.477167+00:00"}
{"url": "https://job-boards.greenhouse.io/alpaca/jobs/6118916004", "company_key": "greenhouse:alpaca", "location": "Remote - Americas", "lat": null, "lng": null, "first_published": "2026-07-20T10:27:03-04:00", "observed_at": "2026-07-20T19:39:25.477167+00:00"}
{"url": "https://job-boards.greenhouse.io/alpaca/jobs/6117147004", "company_key": "greenhouse:alpaca", "location": "Remote - EMEA", "lat": null, "lng": null, "first_published": "2026-07-20T13:13:53-04:00", "observed_at": "2026-07-20T19:39:25.477167+00:00"}
{"url": "https://www.asana.com/jobs/apply/8054689?gh_jid=8054689", "company_key": "greenhouse:asana", "location": "San Francisco", "lat": 37.7879363, "lng": -122.4075201, "first_published": "2026-07-20T12:38:14-04:00", "observed_at": "2026-07-20T19:39:25.477167+00:00"}
{"url": "https://abnormal.ai/careers/jobs/7696656003?gh_jid=7696656003", "company_key": "greenhouse:abnormalsecurity", "location": "Remote - UK", "lat": 55.8754971, "lng": -2.9525105, "first_published": "2026-07-20T06:43:43-04:00", "observed_at": "2026-07-20T19:39:25.477167+00:00"}
{"url": "https://abnormal.ai/careers/jobs/7809392003?gh_jid=7809392003", "company_key": "greenhouse:abnormalsecurity", "location": "Remote - UK", "lat": 55.8754971, "lng": -2.9525105, "first_published": "2026-07-20T09:26:20-04:00", "observed_at": "2026-07-20T19:39:25.477167+00:00"}
{"url": "https://abnormal.ai/careers/jobs/7809574003?gh_jid=7809574003", "company_key": "greenhouse:abnormalsecurity", "location": "Remote - Ireland", "lat": null, "lng": null, "first_published": "2026-07-20T09:27:00-04:00", "observed_at": "2026-07-20T19:39:25.477167+00:00"}
{"url": "https://www.wiz.io/careers/job/4698256006/:title?gh_jid=4698256006", "company_key": "greenhouse:wizinc", "location": "Remote - Ireland", "lat": null, "lng": null, "first_published": "2026-07-20T11:29:09-04:00", "observed_at": "2026-07-20T19:39:25.477167+00:00"}
{"url": "https://www.wiz.io/careers/job/4683509006/:title?gh_jid=4683509006", "company_key": "greenhouse:wizinc", "location": "Remote - USA", "lat": 43.0059455, "lng": -123.8925908, "first_published": "2026-07-20T12:40:42-04:00", "observed_at": "2026-07-20T19:39:25.477167+00:00"}
{"url": "https://boards.greenhouse.io/corelight/jobs/8065823?gh_jid=8065823", "company_key": "greenhouse:corelight", "location": "North America", "lat": 51.0000002, "lng": -109.0, "first_published": "2026-07-20T09:38:08-04:00", "observed_at": "2026-07-20T19:39:25.477167+00:00"}
{"url": "https://boards.greenhouse.io/corelight/jobs/8065825?gh_jid=8065825", "company_key": "greenhouse:corelight", "location": "North America", "lat": 51.0000002, "lng": -109.0, "first_published": "2026-07-20T09:38:15-04:00", "observed_at": "2026-07-20T19:39:25.477167+00:00"}
{"url": "http://www.onemedical.com/careers/all-departments/8075206?gh_jid=8075206", "company_key": "greenhouse:onemedical", "location": "Hanover, New Hampshire", "lat": null, "lng": null, "first_published": "2026-07-20T14:46:31-04:00", "observed_at": "2026-07-20T19:39:25.477167+00:00"}
{"url": "http://www.onemedical.com/careers/all-departments/8074797?gh_jid=8074797", "company_key": "greenhouse:onemedical", "location": "Santa Monica, CA ", "lat": 34.0194704, "lng": -118.491227, "first_published": "2026-07-20T11:59:08-04:00", "observed_at": "2026-07-20T19:39:25.477167+00:00"}
{"url": "http://www.onemedical.com/careers/all-departments/8075205?gh_jid=8075205", "company_key": "greenhouse:onemedical", "location": "Hanover, New Hampshire", "lat": null, "lng": null, "first_published": "2026-07-20T14:44:35-04:00", "observed_at": "2026-07-20T19:39:25.477167+00:00"}
{"url": "https://job-boards.greenhouse.io/carrotfertility/jobs/6115773004", "company_key": "greenhouse:carrotfertility", "location": "Remote", "lat": 43.0059455, "lng": -123.8925908, "first_published": "2026-07-20T14:42:07-04:00", "observed_at": "2026-07-20T19:39:25.477167+00:00"}
{"url": "https://job-boards.greenhouse.io/natera/jobs/6119751004", "company_key": "greenhouse:natera", "location": "Greensboro, NC", "lat": 36.0726355, "lng": -79.7919754, "first_published": "2026-07-20T13:48:18-04:00", "observed_at": "2026-07-20T19:39:25.477167+00:00"}
{"url": "https://job-boards.greenhouse.io/natera/jobs/6119775004", "company_key": "greenhouse:natera", "location": "Jacksonville, NC", "lat": null, "lng": null, "first_published": "2026-07-20T14:03:10-04:00", "observed_at": "2026-07-20T19:39:25.477167+00:00"}
{"url": "https://job-boards.greenhouse.io/natera/jobs/6119036004", "company_key": "greenhouse:natera", "location": "San Carlos, CA", "lat": 37.504936, "lng": -122.261823, "first_published": "2026-07-20T12:43:12-04:00", "observed_at": "2026-07-20T19:39:25.477167+00:00"}
{"url": "https://job-boards.greenhouse.io/natera/jobs/6112876004", "company_key": "greenhouse:natera", "location": "US Remote", "lat": 43.0059455, "lng": -123.8925908, "first_published": "2026-07-20T14:01:54-04:00", "observed_at": "2026-07-20T19:39:25.477167+00:00"}
{"url": "https://job-boards.greenhouse.io/natera/jobs/6114687004", "company_key": "greenhouse:natera", "location": "US Remote", "lat": 43.0059455, "lng": -123.8925908, "first_published": "2026-07-20T12:42:01-04:00", "observed_at": "2026-07-20T19:39:25.477167+00:00"}
{"url": "https://job-boards.greenhouse.io/freenome/jobs/8638854002", "company_key": "greenhouse:freenome", "location": "Remote", "lat": 43.0059455, "lng": -123.8925908, "first_published": "2026-07-20T12:01:29-04:00", "observed_at": "2026-07-20T19:39:25.477167+00:00"}
{"url": "https://motional.com/open-positions/?gh_jid=7809996003#/7809996003", "company_key": "greenhouse:motional", "location": "Boston, Massachusetts, United States; Las Vegas, Nevada, United States; Pittsburgh, Pennsylvania, United States; Remote U.S.", "lat": null, "lng": null, "first_published": "2026-07-20T14:06:35-04:00", "observed_at": "2026-07-20T19:39:25.477167+00:00"}
{"url": "https://boards.greenhouse.io/spacex/jobs/8641290002?gh_jid=8641290002", "company_key": "greenhouse:spacex", "location": "Redmond, WA", "lat": 47.6694141, "lng": -122.1238767, "first_published": "2026-07-20T12:52:42-04:00", "observed_at": "2026-07-20T19:39:25.477167+00:00"}
{"url": "https://boards.greenhouse.io/spacex/jobs/8639139002?gh_jid=8639139002", "company_key": "greenhouse:spacex", "location": "Starbase, TX", "lat": 25.9914611, "lng": -97.1829783, "first_published": "2026-07-20T12:35:11-04:00", "observed_at": "2026-07-20T19:39:25.477167+00:00"}
{"url": "https://boards.greenhouse.io/spacex/jobs/8641455002?gh_jid=8641455002", "company_key": "greenhouse:spacex", "location": "Hawthorne, CA", "lat": 33.9128272, "lng": -118.3426122, "first_published": "2026-07-20T13:52:54-04:00", "observed_at": "2026-07-20T19:39:25.477167+00:00"}
{"url": "https://boards.greenhouse.io/spacex/jobs/8639961002?gh_jid=8639961002", "company_key": "greenhouse:spacex", "location": "Starbase, TX", "lat": 25.9914611, "lng": -97.1829783, "first_published": "2026-07-20T12:19:47-04:00", "observed_at": "2026-07-20T19:39:25.477167+00:00"}
{"url": "https://boards.greenhouse.io/spacex/jobs/8641301002?gh_jid=8641301002", "company_key": "greenhouse:spacex", "location": "Bastrop, TX", "lat": 30.0541116, "lng": -97.3887764, "first_published": "2026-07-20T12:52:43-04:00", "observed_at": "2026-07-20T19:39:25.477167+00:00"}
{"url": "https://boards.greenhouse.io/spacex/jobs/8638708002?gh_jid=8638708002", "company_key": "greenhouse:spacex", "location": "Hawthorne, CA", "lat": 33.9128272, "lng": -118.3426122, "first_published": "2026-07-20T12:52:42-04:00", "observed_at": "2026-07-20T19:39:25.477167+00:00"}
{"url": "https://boards.greenhouse.io/spacex/jobs/8641512002?gh_jid=8641512002", "company_key": "greenhouse:spacex", "location": "Hawthorne, CA", "lat": 33.9128272, "lng": -118.3426122, "first_published": "2026-07-20T14:08:27-04:00", "observed_at": "2026-07-20T19:39:25.477167+00:00"}
{"url": "https://job-boards.greenhouse.io/datacamp/jobs/8074115", "company_key": "greenhouse:datacamp", "location": "United Kingdom", "lat": 54.7023545, "lng": -3.2765753, "first_published": "2026-07-20T04:54:26-04:00", "observed_at": "2026-07-20T19:39:25.477167+00:00"}
{"url": "https://job-boards.greenhouse.io/stockx/jobs/8639352002", "company_key": "greenhouse:stockx", "location": "Mississauga, ON, Canada", "lat": null, "lng": null, "first_published": "2026-07-20T12:17:00-04:00", "observed_at": "2026-07-20T19:39:25.477167+00:00"}
{"url": "https://job-boards.greenhouse.io/newsela/jobs/8052759", "company_key": "greenhouse:newsela", "location": "Remote ", "lat": 43.0059455, "lng": -123.8925908, "first_published": "2026-07-20T14:33:23-04:00", "observed_at": "2026-07-20T19:39:25.477167+00:00"}
{"url": "https://boards.greenhouse.io/braze/jobs/8070251?gh_jid=8070251", "company_key": "greenhouse:braze", "location": "Chicago", "lat": 41.8755616, "lng": -87.6244212, "first_published": "2026-07-20T10:57:45-04:00", "observed_at": "2026-07-20T19:39:25.477167+00:00"}
{"url": "https://boards.greenhouse.io/braze/jobs/8070244?gh_jid=8070244", "company_key": "greenhouse:braze", "location": "Austin", "lat": 30.2711286, "lng": -97.7436995, "first_published": "2026-07-20T10:57:44-04:00", "observed_at": "2026-07-20T19:39:25.477167+00:00"}
{"url": "https://boards.greenhouse.io/braze/jobs/8070238?gh_jid=8070238", "company_key": "greenhouse:braze", "location": "San Francisco", "lat": 37.7879363, "lng": -122.4075201, "first_published": "2026-07-20T10:57:44-04:00", "observed_at": "2026-07-20T19:39:25.477167+00:00"}
{"url": "https://boards.greenhouse.io/braze/jobs/8049784?gh_jid=8049784", "company_key": "greenhouse:braze", "location": "New York City", "lat": 40.7127281, "lng": -74.0060152, "first_published": "2026-07-20T10:57:43-04:00", "observed_at": "2026-07-20T19:39:25.477167+00:00"}
{"url": "https://boards.greenhouse.io/braze/jobs/8075013?gh_jid=8075013", "company_key": "greenhouse:braze", "location": "Austin", "lat": 30.2711286, "lng": -97.7436995, "first_published": "2026-07-20T13:30:47-04:00", "observed_at": "2026-07-20T19:39:25.477167+00:00"}
{"url": "https://boards.greenhouse.io/braze/jobs/8074838?gh_jid=8074838", "company_key": "greenhouse:braze", "location": "New York City", "lat": 40.7127281, "lng": -74.0060152, "first_published": "2026-07-20T14:27:56-04:00", "observed_at": "2026-07-20T19:39:25.477167+00:00"}
{"url": "https://boards.greenhouse.io/braze/jobs/8069434?gh_jid=8069434", "company_key": "greenhouse:braze", "location": "Chicago", "lat": 41.8755616, "lng": -87.6244212, "first_published": "2026-07-20T14:27:55-04:00", "observed_at": "2026-07-20T19:39:25.477167+00:00"}
{"url": "https://job-boards.greenhouse.io/checkr/jobs/8074677", "company_key": "greenhouse:checkr", "location": "San Francisco, California, United States", "lat": 37.7879363, "lng": -122.4075201, "first_published": "2026-07-20T11:20:19-04:00", "observed_at": "2026-07-20T19:39:25.477167+00:00"}
{"url": "https://job-boards.greenhouse.io/checkr/jobs/8074684", "company_key": "greenhouse:checkr", "location": "San Francisco, California, United States", "lat": 37.7879363, "lng": -122.4075201, "first_published": "2026-07-20T11:23:04-04:00", "observed_at": "2026-07-20T19:39:25.477167+00:00"}
{"url": "https://job-boards.greenhouse.io/tanium/jobs/8073291", "company_key": "greenhouse:tanium", "location": "Munich, Germany; Paris, France (Hybrid)", "lat": null, "lng": null, "first_published": "2026-07-20T07:24:16-04:00", "observed_at": "2026-07-20T19:39:25.477167+00:00"}
{"url": "https://www.five9.com/about/careers/job-detail?gh_jid=6119734004", "company_key": "greenhouse:five9", "location": "United States (Remote)", "lat": 43.0059455, "lng": -123.8925908, "first_published": "2026-07-20T15:09:41-04:00", "observed_at": "2026-07-20T19:39:25.477167+00:00"}
{"url": "https://www.five9.com/about/careers/job-detail?gh_jid=6119395004", "company_key": "greenhouse:five9", "location": "India (Remote)", "lat": 17.4668554, "lng": 78.4499355, "first_published": "2026-07-20T06:54:44-04:00", "observed_at": "2026-07-20T19:39:25.477167+00:00"}
{"url": "https://job-boards.greenhouse.io/appian/jobs/8071413", "company_key": "greenhouse:appian", "location": "London, United Kingdom", "lat": 51.5074456, "lng": -0.1277653, "first_published": "2026-07-20T13:18:16-04:00", "observed_at": "2026-07-20T19:39:25.477167+00:00"}
{"url": "https://job-boards.greenhouse.io/appian/jobs/8070827", "company_key": "greenhouse:appian", "location": "Chennai, India", "lat": 13.0836939, "lng": 80.270186, "first_published": "2026-07-19T19:54:18-04:00", "observed_at": "2026-07-20T19:39:25.477167+00:00"}
{"url": "https://job-boards.greenhouse.io/appian/jobs/8070829", "company_key": "greenhouse:appian", "location": "Chennai, India", "lat": 13.0836939, "lng": 80.270186, "first_published": "2026-07-19T19:54:47-04:00", "observed_at": "2026-07-20T19:39:25.477167+00:00"}
{"url": "https://job-boards.greenhouse.io/appian/jobs/8066946", "company_key": "greenhouse:appian", "location": "London, United Kingdom", "lat": 51.5074456, "lng": -0.1277653, "first_published": "2026-07-20T13:11:59-04:00", "observed_at": "2026-07-20T19:39:25.477167+00:00"}
{"url": "https://job-boards.greenhouse.io/appian/jobs/8071696", "company_key": "greenhouse:appian", "location": "McLean, Virginia", "lat": 38.9366852, "lng": -77.185843, "first_published": "2026-07-20T15:15:17-04:00", "observed_at": "2026-07-20T19:39:25.477167+00:00"}
{"url": "https://www.taboola.com/careers/job/8051106?gh_jid=8051106", "company_key": "greenhouse:taboola", "location": "Tel Aviv, Israel", "lat": 32.0852997, "lng": 34.7818064, "first_published": "2026-07-20T08:57:01-04:00", "observed_at": "2026-07-20T19:39:25.477167+00:00"}
{"url": "https://job-boards.greenhouse.io/thenewyorktimes/jobs/4715154005", "company_key": "greenhouse:thenewyorktimes", "location": "New York, NY", "lat": 40.7127281, "lng": -74.0060152, "first_published": "2026-07-20T13:13:26-04:00", "observed_at": "2026-07-20T19:39:25.477167+00:00"}
{"url": "https://boards.greenhouse.io/redwoodmaterials/jobs/6114092004?gh_jid=6114092004", "company_key": "greenhouse:redwoodmaterials", "location": "McCarran, NV", "lat": 36.0861034, "lng": -115.1611002, "first_published": "2026-07-20T14:08:12-04:00", "observed_at": "2026-07-20T19:39:25.477167+00:00"}
{"url": "https://job-boards.greenhouse.io/flexport/jobs/8074460", "company_key": "greenhouse:flexport", "location": "Antwerpen, Belgium", "lat": null, "lng": null, "first_published": "2026-07-20T10:08:45-04:00", "observed_at": "2026-07-20T19:39:25.477167+00:00"}
{"url": "https://job-boards.greenhouse.io/flexport/jobs/8071086", "company_key": "greenhouse:flexport", "location": "Taipei, Taiwan", "lat": 25.0375198, "lng": 121.5636796, "first_published": "2026-07-19T22:57:27-04:00", "observed_at": "2026-07-20T19:39:25.477167+00:00"}
{"url": "https://boards.greenhouse.io/justworks/jobs/8069307?gh_jid=8069307", "company_key": "greenhouse:justworks", "location": "New York, New York", "lat": 40.7127281, "lng": -74.0060152, "first_published": "2026-07-20T14:28:39-04:00", "observed_at": "2026-07-20T19:39:25.477167+00:00"}
{"url": "https://boards.greenhouse.io/justworks/jobs/8008804?gh_jid=8008804", "company_key": "greenhouse:justworks", "location": "New York, New York", "lat": 40.7127281, "lng": -74.0060152, "first_published": "2026-07-20T15:19:14-04:00", "observed_at": "2026-07-20T19:39:25.477167+00:00"}
{"url": "https://boards.greenhouse.io/justworks/jobs/8069292?gh_jid=8069292", "company_key": "greenhouse:justworks", "location": "New York, New York", "lat": 40.7127281, "lng": -74.0060152, "first_published": "2026-07-20T13:18:27-04:00", "observed_at": "2026-07-20T19:39:25.477167+00:00"}
{"url": "https://job-boards.greenhouse.io/2k/jobs/7798957003", "company_key": "greenhouse:2k", "location": "Novato, California, United States", "lat": 38.1061979, "lng": -122.5681191, "first_published": "2026-07-20T14:37:05-04:00", "observed_at": "2026-07-20T19:39:25.477167+00:00"}
{"url": "https://job-boards.greenhouse.io/addepar1/jobs/8632676002", "company_key": "greenhouse:addepar1", "location": "Pune, India", "lat": 18.5213738, "lng": 73.8545071, "first_published": "2026-07-20T03:54:07-04:00", "observed_at": "2026-07-20T19:39:25.477167+00:00"}
{"url": "https://job-boards.greenhouse.io/addepar1/jobs/8641552002", "company_key": "greenhouse:addepar1", "location": "Salt Lake City, UT", "lat": 40.7596198, "lng": -111.886797, "first_published": "2026-07-20T14:25:02-04:00", "observed_at": "2026-07-20T19:39:25.477167+00:00"}
{"url": "https://job-boards.greenhouse.io/addepar1/jobs/8623910002", "company_key": "greenhouse:addepar1", "location": "Singapore", "lat": 1.357107, "lng": 103.8194992, "first_published": "2026-07-20T02:28:20-04:00", "observed_at": "2026-07-20T19:39:25.477167+00:00"}
{"url": "https://job-boards.greenhouse.io/adyen/jobs/8074355", "company_key": "greenhouse:adyen", "location": "Amsterdam", "lat": 52.3730796, "lng": 4.8924534, "first_published": "2026-07-20T08:46:49-04:00", "observed_at": "2026-07-20T19:39:25.477167+00:00"}
{"url": "https://www.agero.com/available-jobs?gh_jid=8638405002", "company_key": "greenhouse:agero", "location": "Remote", "lat": 43.0059455, "lng": -123.8925908, "first_published": "2026-07-20T13:44:38-04:00", "observed_at": "2026-07-20T19:39:25.477167+00:00"}
{"url": "https://www.akunacapital.com/careers/job/7986086/?gh_jid=7986086", "company_key": "greenhouse:akunacapital", "location": "Chicago", "lat": 41.8755616, "lng": -87.6244212, "first_published": "2026-07-19T19:52:34-04:00", "observed_at": "2026-07-20T19:39:25.477167+00:00"}
{"url": "https://job-boards.greenhouse.io/algolia/jobs/6119381004", "company_key": "greenhouse:algolia", "location": "Paris, France", "lat": 48.8588897, "lng": 2.320041, "first_published": "2026-07-20T05:22:30-04:00", "observed_at": "2026-07-20T19:39:25.477167+00:00"}
{"url": "https://aviatrix.com/careers/?gh_jid=4714580005", "company_key": "greenhouse:aviatrix", "location": "Atlanta; Chicago, Illinois, United States; Dallas, Texas, United States; New York, United States; United States", "lat": null, "lng": null, "first_published": "2026-07-20T14:20:55-04:00", "observed_at": "2026-07-20T19:39:25.477167+00:00"}
{"url": "https://boards.greenhouse.io/careem/jobs/8622230002?gh_jid=8622230002", "company_key": "greenhouse:careem", "location": "Karachi, Pakistan; Lahore, Pakistan", "lat": null, "lng": null, "first_published": "2026-07-20T04:28:14-04:00", "observed_at": "2026-07-20T19:39:25.477167+00:00"}
{"url": "https://www.playlist.com/careers/opportunities/4698305006?gh_jid=4698305006", "company_key": "greenhouse:classpass", "location": "United Kingdom", "lat": 54.7023545, "lng": -3.2765753, "first_published": "2026-07-20T10:35:12-04:00", "observed_at": "2026-07-20T19:39:25.477167+00:00"}
{"url": "https://www.playlist.com/careers/opportunities/4698339006?gh_jid=4698339006", "company_key": "greenhouse:classpass", "location": "Mexico", "lat": 23.6585116, "lng": -102.0077097, "first_published": "2026-07-20T11:41:27-04:00", "observed_at": "2026-07-20T19:39:25.477167+00:00"}
{"url": "https://job-boards.greenhouse.io/enova/jobs/8065491", "company_key": "greenhouse:enova", "location": "Denver, CO", "lat": 39.7392364, "lng": -104.984862, "first_published": "2026-07-20T11:01:32-04:00", "observed_at": "2026-07-20T19:39:25.477167+00:00"}
