{"url": "https://jobs.lever.co/jobgether/a0c0a2f1-c730-425d-836c-906c8ba1f457", "company_key": "lever:jobgether", "location": "US", "lat": 39.7837304, "lng": -100.445882, "first_published": "2026-07-13T06:52:02.674000+00:00"}
{"url": "https://job-boards.greenhouse.io/twilio/jobs/8048659", "company_key": "greenhouse:twilio", "location": "Remote - India", "lat": 17.4668554, "lng": 78.4499355, "first_published": "2026-07-13T03:00:10-04:00"}
{"url": "https://www.cmtelematics.com/who-we-are/join-our-team/job-posting/?gh_jid=8053562", "company_key": "greenhouse:cambridgemobiletelematics", "location": "Chennai, India", "lat": 13.0836939, "lng": 80.270186, "first_published": "2026-07-13T03:07:35-04:00"}
{"url": "https://www.coupang.jobs/en/jobs/?gh_jid=8052967", "company_key": "greenhouse:coupang", "location": "Seoul, South Korea", "lat": 37.5666791, "lng": 126.9782914, "first_published": "2026-07-13T02:50:14-04:00"}
{"url": "https://job-boards.eu.greenhouse.io/leapwork/jobs/4924666101", "company_key": "greenhouse:leapwork", "location": "Gurugram", "lat": 28.4646148, "lng": 77.0299194, "first_published": "2026-07-13T02:50:54-04:00"}
{"url": "https://job-boards.eu.greenhouse.io/sohohouseco/jobs/4914921101", "company_key": "greenhouse:sohohouseco", "location": "Soho Farmhouse - Chipping Norton, England, United Kingdom", "lat": null, "lng": null, "first_published": "2026-07-13T02:58:28-04:00"}
{"url": "https://job-boards.greenhouse.io/thoughtworksreferral/jobs/8059298", "company_key": "greenhouse:thoughtworksreferral", "location": "Bangalore, India", "lat": 12.9767936, "lng": 77.590082, "first_published": "2026-07-13T03:01:24-04:00"}
{"url": "https://job-boards.greenhouse.io/vixxo/jobs/8623225002", "company_key": "greenhouse:vixxo", "location": "Work @ Home US", "lat": 41.4641125, "lng": -87.0346215, "first_published": "2026-07-13T02:55:19-04:00"}
{"url": "https://jobs.lever.co/jobgether/f02f2031-ca7a-4990-85b5-da081f67f2b3", "company_key": "lever:jobgether", "location": "US", "lat": 39.7837304, "lng": -100.445882, "first_published": "2026-07-13T06:58:01.538000+00:00"}
{"url": "https://jobs.lever.co/jobgether/ef7e3896-0bcf-46a2-8364-f70d786332d3", "company_key": "lever:jobgether", "location": "India", "lat": 22.3511148, "lng": 78.6677428, "first_published": "2026-07-13T07:17:40.629000+00:00"}
{"url": "https://jobs.lever.co/jobgether/fe20e39f-4b3f-4e54-a353-22e34d93b360", "company_key": "lever:jobgether", "location": "Brazil", "lat": -10.3333333, "lng": -53.2, "first_published": "2026-07-13T07:06:03.961000+00:00"}
{"url": "https://jobs.lever.co/jobgether/88a1d1a0-f08f-47cd-91a9-9b738c9759b5", "company_key": "lever:jobgether", "location": "Brazil", "lat": -10.3333333, "lng": -53.2, "first_published": "2026-07-13T07:09:20.637000+00:00"}
{"url": "https://jobs.lever.co/jobgether/3d6357e4-4b84-4922-848a-18d5f2e28d44", "company_key": "lever:jobgether", "location": "US", "lat": 39.7837304, "lng": -100.445882, "first_published": "2026-07-13T07:00:21.947000+00:00"}
{"url": "https://jobs.lever.co/jobgether/fe13f362-03bb-4ce8-bd6a-0e13704df25e", "company_key": "lever:jobgether", "location": "US", "lat": 39.7837304, "lng": -100.445882, "first_published": "2026-07-13T06:55:26.338000+00:00"}
{"url": "https://jobs.lever.co/jobgether/949c5ab0-e596-40e5-b2b1-8344d95fd123", "company_key": "lever:jobgether", "location": "US", "lat": 39.7837304, "lng": -100.445882, "first_published": "2026-07-13T06:49:29.133000+00:00"}
{"url": "https://jobs.lever.co/jobgether/23678e8f-0dd1-4dda-b201-006daafd3885", "company_key": "lever:jobgether", "location": "India", "lat": 22.3511148, "lng": 78.6677428, "first_published": "2026-07-13T06:57:27.971000+00:00"}
{"url": "https://jobs.lever.co/jobgether/45f48852-94cf-4bfa-88d7-15d183c52cf8", "company_key": "lever:jobgether", "location": "India", "lat": 22.3511148, "lng": 78.6677428, "first_published": "2026-07-13T06:49:23.264000+00:00"}
{"url": "https://jobs.lever.co/jobgether/c53fe003-4b34-4e96-9d78-7e6478ed8c1c", "company_key": "lever:jobgether", "location": "US", "lat": 39.7837304, "lng": -100.445882, "first_published": "2026-07-13T06:50:30.602000+00:00"}
{"url": "https://jobs.lever.co/jobgether/ed5b814c-3f83-427d-9f6b-c5761d89852d", "company_key": "lever:jobgether", "location": "US", "lat": 39.7837304, "lng": -100.445882, "first_published": "2026-07-13T07:01:33.153000+00:00"}
{"url": "https://jobs.lever.co/jobgether/f0a0b5bb-8413-4fc9-9e7d-087d02d43de8", "company_key": "lever:jobgether", "location": "India", "lat": 22.3511148, "lng": 78.6677428, "first_published": "2026-07-13T07:01:12.246000+00:00"}
{"url": "https://jobs.lever.co/jobgether/84c65768-1a76-4a44-b331-8e3e292d1884", "company_key": "lever:jobgether", "location": "India", "lat": 22.3511148, "lng": 78.6677428, "first_published": "2026-07-13T07:04:43.512000+00:00"}
{"url": "https://jobs.lever.co/jobgether/8e4ce75d-ef15-44d7-8f3b-9f8d4cbedb70", "company_key": "lever:jobgether", "location": "US", "lat": 39.7837304, "lng": -100.445882, "first_published": "2026-07-13T07:01:28.687000+00:00"}
{"url": "https://jobs.lever.co/jobgether/c87ebe78-79ba-4b5d-8313-bd231a630878", "company_key": "lever:jobgether", "location": "India", "lat": 22.3511148, "lng": 78.6677428, "first_published": "2026-07-13T07:12:24.689000+00:00"}
{"url": "https://jobs.lever.co/jobgether/91c85dea-8f47-49f4-8184-63bc2d4c4c14", "company_key": "lever:jobgether", "location": "India", "lat": 22.3511148, "lng": 78.6677428, "first_published": "2026-07-13T07:01:50.330000+00:00"}
{"url": "https://jobs.lever.co/jobgether/ab4b9118-8a00-4f63-813f-83c9761656ad", "company_key": "lever:jobgether", "location": "India", "lat": 22.3511148, "lng": 78.6677428, "first_published": "2026-07-13T06:57:04.196000+00:00"}
{"url": "https://jobs.lever.co/jobgether/8b9676c2-516a-498a-8ec8-eb2adb854d15", "company_key": "lever:jobgether", "location": "India", "lat": 22.3511148, "lng": 78.6677428, "first_published": "2026-07-13T06:55:11.338000+00:00"}
{"url": "https://jobs.lever.co/jobgether/956ef05a-6579-4bf1-83d5-6cd542771c74", "company_key": "lever:jobgether", "location": "India", "lat": 22.3511148, "lng": 78.6677428, "first_published": "2026-07-13T06:51:35.605000+00:00"}
{"url": "https://jobs.lever.co/jobgether/314b91c1-e4c3-482a-bf01-e84b4c0e7ac3", "company_key": "lever:jobgether", "location": "US", "lat": 39.7837304, "lng": -100.445882, "first_published": "2026-07-13T06:48:27.233000+00:00"}
{"url": "https://jobs.lever.co/jobgether/8b25c168-6ddd-46c5-9cc3-8122f7f1b4ea", "company_key": "lever:jobgether", "location": "US", "lat": 39.7837304, "lng": -100.445882, "first_published": "2026-07-13T07:14:24.281000+00:00"}
{"url": "https://jobs.lever.co/jobgether/b48a1f7e-ad6c-45f9-840f-b234e18b5005", "company_key": "lever:jobgether", "location": "India", "lat": 22.3511148, "lng": 78.6677428, "first_published": "2026-07-13T07:13:53.426000+00:00"}
{"url": "https://jobs.lever.co/jobgether/a6818c6b-435a-4590-98e2-24c13de904c6", "company_key": "lever:jobgether", "location": "India", "lat": 22.3511148, "lng": 78.6677428, "first_published": "2026-07-13T06:51:14.753000+00:00"}
{"url": "https://jobs.lever.co/jobgether/1760faf8-2032-4153-bc1e-07a56e354dcc", "company_key": "lever:jobgether", "location": "India", "lat": 22.3511148, "lng": 78.6677428, "first_published": "2026-07-13T07:03:51.087000+00:00"}
{"url": "https://jobs.lever.co/jobgether/21538375-b7ee-440f-bfed-7dcad00d91fd", "company_key": "lever:jobgether", "location": "US", "lat": 39.7837304, "lng": -100.445882, "first_published": "2026-07-13T06:54:07.988000+00:00"}
{"url": "https://jobs.lever.co/jobgether/89b19b09-1d1b-4ab7-9288-053833359d25", "company_key": "lever:jobgether", "location": "India", "lat": 22.3511148, "lng": 78.6677428, "first_published": "2026-07-13T07:16:18.275000+00:00"}
{"url": "https://jobs.lever.co/jobgether/683b951d-bd4f-4451-9fae-689598f7644f", "company_key": "lever:jobgether", "location": "US", "lat": 39.7837304, "lng": -100.445882, "first_published": "2026-07-13T06:56:53.134000+00:00"}
{"url": "https://jobs.lever.co/jobgether/8202eabb-dd52-436c-b894-8e6e4b456cce", "company_key": "lever:jobgether", "location": "India", "lat": 22.3511148, "lng": 78.6677428, "first_published": "2026-07-13T06:48:47.545000+00:00"}
{"url": "https://jobs.lever.co/jobgether/98461f9a-ea89-4706-889b-2c4162fdeb2b", "company_key": "lever:jobgether", "location": "India", "lat": 22.3511148, "lng": 78.6677428, "first_published": "2026-07-13T07:06:19.195000+00:00"}
{"url": "https://jobs.lever.co/jobgether/4f925ddc-ac8e-4396-953a-abf6ce01eda0", "company_key": "lever:jobgether", "location": "India", "lat": 22.3511148, "lng": 78.6677428, "first_published": "2026-07-13T06:59:58.792000+00:00"}
{"url": "https://jobs.lever.co/jobgether/59d96024-231a-4509-8ec0-3e05cb094396", "company_key": "lever:jobgether", "location": "India", "lat": 22.3511148, "lng": 78.6677428, "first_published": "2026-07-13T06:53:07.987000+00:00"}
{"url": "https://jobs.lever.co/jobgether/b2b5b399-7914-448c-8ec0-9b819bdfabec", "company_key": "lever:jobgether", "location": "US", "lat": 39.7837304, "lng": -100.445882, "first_published": "2026-07-13T06:53:05.264000+00:00"}
{"url": "https://jobs.lever.co/jobgether/9976915c-40a6-4a33-9bd5-ee39374f2187", "company_key": "lever:jobgether", "location": "India", "lat": 22.3511148, "lng": 78.6677428, "first_published": "2026-07-13T06:55:41.918000+00:00"}
{"url": "https://jobs.lever.co/jobgether/8e195770-d832-4fd2-8a95-8286dbe6d413", "company_key": "lever:jobgether", "location": "India", "lat": 22.3511148, "lng": 78.6677428, "first_published": "2026-07-13T07:06:20.994000+00:00"}
{"url": "https://jobs.lever.co/jobgether/ffa48000-6a6c-4f32-8def-30577f1b10ec", "company_key": "lever:jobgether", "location": "India", "lat": 22.3511148, "lng": 78.6677428, "first_published": "2026-07-13T06:53:41.496000+00:00"}
{"url": "https://jobs.lever.co/jobgether/75899882-ce05-4373-af56-2cfbd42a96c9", "company_key": "lever:jobgether", "location": "India", "lat": 22.3511148, "lng": 78.6677428, "first_published": "2026-07-13T06:59:12.972000+00:00"}
{"url": "https://jobs.lever.co/jobgether/e0a14965-d134-4b0c-bb7f-fd4030eb808c", "company_key": "lever:jobgether", "location": "US", "lat": 39.7837304, "lng": -100.445882, "first_published": "2026-07-13T06:59:21.916000+00:00"}
{"url": "https://jobs.lever.co/smarsh/5dcc1f28-1d05-4763-924a-54ed84ff6a1a", "company_key": "lever:smarsh", "location": "Israel", "lat": 30.8124247, "lng": 34.8594762, "first_published": "2026-07-13T06:54:43.846000+00:00"}
{"url": "https://jobs.ashbyhq.com/alan/ec638b7d-70f1-4fa3-80da-0b649235b8f3", "company_key": "ashby:alan", "location": "Toronto, ON, Canada", "lat": 43.6534817, "lng": -79.3839347, "first_published": "2026-07-13T07:03:00.372+00:00"}
{"url": "https://job-boards.greenhouse.io/anthropic/jobs/5342935008", "company_key": "greenhouse:anthropic", "location": "San Francisco, CA", "lat": 37.7879363, "lng": -122.4075201, "first_published": "2026-07-13T12:57:38-04:00", "observed_at": "2026-07-13T18:35:03.583967+00:00"}
{"url": "https://www.pinterestcareers.com/jobs/?gh_jid=8015537", "company_key": "greenhouse:pinterest", "location": "San Francisco, CA, US; Remote, US", "lat": null, "lng": null, "first_published": "2026-07-13T13:51:37-04:00", "observed_at": "2026-07-13T18:35:03.583967+00:00"}
{"url": "https://job-boards.greenhouse.io/grafanalabs/jobs/6114603004", "company_key": "greenhouse:grafanalabs", "location": "United States (Remote)", "lat": 43.0059455, "lng": -123.8925908, "first_published": "2026-07-13T10:46:25-04:00", "observed_at": "2026-07-13T18:35:03.583967+00:00"}
{"url": "https://job-boards.greenhouse.io/affirm/jobs/7800444003", "company_key": "greenhouse:affirm", "location": "Remote US", "lat": 43.0059455, "lng": -123.8925908, "first_published": "2026-07-13T09:04:26-04:00", "observed_at": "2026-07-13T18:35:03.583967+00:00"}
{"url": "https://job-boards.greenhouse.io/alpaca/jobs/6113944004", "company_key": "greenhouse:alpaca", "location": "Remote - Anywhere", "lat": null, "lng": null, "first_published": "2026-07-13T08:54:43-04:00", "observed_at": "2026-07-13T18:35:03.583967+00:00"}
{"url": "https://aurora.tech/jobs/8628066002?gh_jid=8628066002", "company_key": "greenhouse:aurorainnovation", "location": "Mountain View, California", "lat": 37.3893889, "lng": -122.0832101, "first_published": "2026-07-13T09:24:28-04:00", "observed_at": "2026-07-13T18:35:03.583967+00:00"}
{"url": "https://boards.greenhouse.io/spacex/jobs/8631293002?gh_jid=8631293002", "company_key": "greenhouse:spacex", "location": "Palo Alto, CA", "lat": 37.4443293, "lng": -122.1598465, "first_published": "2026-07-13T11:37:22-04:00", "observed_at": "2026-07-13T18:35:03.583967+00:00"}
{"url": "https://boards.greenhouse.io/spacex/jobs/8631298002?gh_jid=8631298002", "company_key": "greenhouse:spacex", "location": "Palo Alto, CA", "lat": 37.4443293, "lng": -122.1598465, "first_published": "2026-07-13T11:40:10-04:00", "observed_at": "2026-07-13T18:35:03.583967+00:00"}
{"url": "https://job-boards.greenhouse.io/checkr/jobs/7590245", "company_key": "greenhouse:checkr", "location": "Remote, United States", "lat": 43.0059455, "lng": -123.8925908, "first_published": "2026-07-13T13:16:38-04:00", "observed_at": "2026-07-13T18:35:03.583967+00:00"}
{"url": "https://job-boards.greenhouse.io/algolia/jobs/6112860004", "company_key": "greenhouse:algolia", "location": "Remote - United States", "lat": 43.0059455, "lng": -123.8925908, "first_published": "2026-07-13T11:33:10-04:00", "observed_at": "2026-07-13T18:35:03.583967+00:00"}
{"url": "https://job-boards.eu.greenhouse.io/clarityai/jobs/4926149101", "company_key": "greenhouse:clarityai", "location": "Remote", "lat": 43.0059455, "lng": -123.8925908, "first_published": "2026-07-13T09:18:06-04:00", "observed_at": "2026-07-13T18:35:03.583967+00:00"}
{"url": "https://www.datavant.com/about/careers/open-roles/job?gh_jid=5293374008", "company_key": "greenhouse:datavant2", "location": "Remote - United States ", "lat": 43.0059455, "lng": -123.8925908, "first_published": "2026-07-13T11:36:15-04:00", "observed_at": "2026-07-13T18:35:03.583967+00:00"}
{"url": "https://job-boards.greenhouse.io/figureai/jobs/4696533006", "company_key": "greenhouse:figureai", "location": "San Jose, CA", "lat": 37.3361663, "lng": -121.890591, "first_published": "2026-07-13T12:02:44-04:00", "observed_at": "2026-07-13T18:35:03.583967+00:00"}
{"url": "https://job-boards.greenhouse.io/fleetio/jobs/5184849007", "company_key": "greenhouse:fleetio", "location": "Remote - USA, CAN, MEX", "lat": null, "lng": null, "first_published": "2026-07-13T12:43:35-04:00", "observed_at": "2026-07-13T18:35:03.583967+00:00"}
{"url": "https://job-boards.greenhouse.io/pingidentity/jobs/8625484002", "company_key": "greenhouse:pingidentity", "location": "US - Remote", "lat": 43.0059455, "lng": -123.8925908, "first_published": "2026-07-13T12:09:49-04:00", "observed_at": "2026-07-13T18:35:03.583967+00:00"}
{"url": "https://job-boards.greenhouse.io/sonyinteractiveentertainmentglobal/jobs/6015203004", "company_key": "greenhouse:sonyinteractiveentertainmentglobal", "location": "United States, San Mateo, CA", "lat": 37.5629997, "lng": -122.3253265, "first_published": "2026-07-13T14:08:16-04:00", "observed_at": "2026-07-13T18:35:03.583967+00:00"}
{"url": "https://careers.upstart.com/jobs?gh_jid=8060056", "company_key": "greenhouse:upstart", "location": "United States | Remote", "lat": 43.0059455, "lng": -123.8925908, "first_published": "2026-07-13T14:12:30-04:00", "observed_at": "2026-07-13T18:35:03.583967+00:00"}
{"url": "https://careers.upstart.com/jobs?gh_jid=8060317", "company_key": "greenhouse:upstart", "location": "United States | Remote", "lat": 43.0059455, "lng": -123.8925908, "first_published": "2026-07-13T14:11:25-04:00", "observed_at": "2026-07-13T18:35:03.583967+00:00"}
{"url": "https://jobs.ashbyhq.com/uipath/6fa21072-68dc-4f90-89e8-1490a36f5b0a", "company_key": "ashby:uipath", "location": "Remote-Dublin", "lat": null, "lng": null, "first_published": "2026-07-13T09:51:10.018+00:00", "observed_at": "2026-07-13T18:35:03.583967+00:00"}
{"url": "https://boards.greenhouse.io/andurilindustries/jobs/5185389007?gh_jid=5185389007", "company_key": "greenhouse:andurilindustries", "location": "Boston, Massachusetts, United States", "lat": 42.3588336, "lng": -71.0578303, "first_published": "2026-07-13T09:10:57-04:00", "observed_at": "2026-07-13T18:35:03.583967+00:00"}
{"url": "https://boards.greenhouse.io/andurilindustries/jobs/5185390007?gh_jid=5185390007", "company_key": "greenhouse:andurilindustries", "location": "Boston, Massachusetts, United States", "lat": 42.3588336, "lng": -71.0578303, "first_published": "2026-07-13T09:10:58-04:00", "observed_at": "2026-07-13T18:35:03.583967+00:00"}
{"url": "https://aurora.tech/jobs/8628064002?gh_jid=8628064002", "company_key": "greenhouse:aurorainnovation", "location": "Pittsburgh, Pennsylvania", "lat": 40.4406968, "lng": -80.0025666, "first_published": "2026-07-13T09:23:27-04:00", "observed_at": "2026-07-13T18:35:03.583967+00:00"}
{"url": "https://job-boards.greenhouse.io/thenewyorktimes/jobs/4712623005", "company_key": "greenhouse:thenewyorktimes", "location": "New York, NY", "lat": 40.7127281, "lng": -74.0060152, "first_published": "2026-07-13T10:26:49-04:00", "observed_at": "2026-07-13T18:35:03.583967+00:00"}
{"url": "https://www.akunacapital.com/careers/job/8018856/?gh_jid=8018856", "company_key": "greenhouse:akunacapital", "location": "Chicago, IL", "lat": 41.8755616, "lng": -87.6244212, "first_published": "2026-07-13T14:21:52-04:00", "observed_at": "2026-07-13T18:35:03.583967+00:00"}
{"url": "https://www.akunacapital.com/careers/job/8013230/?gh_jid=8013230", "company_key": "greenhouse:akunacapital", "location": "Chicago, IL", "lat": 41.8755616, "lng": -87.6244212, "first_published": "2026-07-13T14:21:16-04:00", "observed_at": "2026-07-13T18:35:03.583967+00:00"}
{"url": "https://www.akunacapital.com/careers/job/8018886/?gh_jid=8018886", "company_key": "greenhouse:akunacapital", "location": "Chicago, IL", "lat": 41.8755616, "lng": -87.6244212, "first_published": "2026-07-13T14:21:28-04:00", "observed_at": "2026-07-13T18:35:03.583967+00:00"}
{"url": "https://www.akunacapital.com/careers/job/8018893/?gh_jid=8018893", "company_key": "greenhouse:akunacapital", "location": "Chicago, IL", "lat": 41.8755616, "lng": -87.6244212, "first_published": "2026-07-13T14:21:34-04:00", "observed_at": "2026-07-13T18:35:03.583967+00:00"}
{"url": "https://www.akunacapital.com/careers/job/8018853/?gh_jid=8018853", "company_key": "greenhouse:akunacapital", "location": "Chicago, IL", "lat": 41.8755616, "lng": -87.6244212, "first_published": "2026-07-13T14:21:39-04:00", "observed_at": "2026-07-13T18:35:03.583967+00:00"}
{"url": "https://careers.formlabs.com/job/8042078/apply/?gh_jid=8042078", "company_key": "greenhouse:formlabs", "location": "Somerville, MA", "lat": 42.3875968, "lng": -71.0994968, "first_published": "2026-07-13T10:57:16-04:00", "observed_at": "2026-07-13T18:35:03.583967+00:00"}
{"url": "https://job-boards.greenhouse.io/assetwatch/jobs/4712375005", "company_key": "greenhouse:assetwatch", "location": "United States", "lat": 39.7837304, "lng": -100.445882, "first_published": "2026-07-13T10:53:33-04:00", "observed_at": "2026-07-13T18:35:03.583967+00:00"}
{"url": "https://job-boards.greenhouse.io/axon/jobs/7802848003", "company_key": "greenhouse:axon", "location": "Seattle, Washington, United States", "lat": 47.6038321, "lng": -122.330062, "first_published": "2026-07-13T11:51:20-04:00", "observed_at": "2026-07-13T18:35:03.583967+00:00"}
{"url": "https://careers.cargurus.com/us/en/job/8050890?gh_jid=8050890", "company_key": "greenhouse:cargurus", "location": "Boston, Massachusetts, United States", "lat": 42.3588336, "lng": -71.0578303, "first_published": "2026-07-13T12:47:19-04:00", "observed_at": "2026-07-13T18:35:03.583967+00:00"}
{"url": "https://careers.cargurus.com/us/en/job/8050961?gh_jid=8050961", "company_key": "greenhouse:cargurus", "location": "Boston, Massachusetts, United States", "lat": 42.3588336, "lng": -71.0578303, "first_published": "2026-07-13T12:46:52-04:00", "observed_at": "2026-07-13T18:35:03.583967+00:00"}
{"url": "https://boards.greenhouse.io/crunchyroll/jobs/8049714?gh_jid=8049714", "company_key": "greenhouse:crunchyroll", "location": "Dallas, Texas, United States", "lat": 32.7762719, "lng": -96.7968559, "first_published": "2026-07-13T14:26:22-04:00", "observed_at": "2026-07-13T18:35:03.583967+00:00"}
{"url": "https://job-boards.greenhouse.io/ezcaterinc/jobs/5185605007", "company_key": "greenhouse:ezcaterinc", "location": "Boston, MA", "lat": 42.3588336, "lng": -71.0578303, "first_published": "2026-07-13T12:51:23-04:00", "observed_at": "2026-07-13T18:35:03.583967+00:00"}
{"url": "https://job-boards.greenhouse.io/grvty/jobs/4313965009", "company_key": "greenhouse:grvty", "location": "Herndon, Virginia, United States", "lat": 38.9695316, "lng": -77.3859479, "first_published": "2026-07-13T14:02:18-04:00", "observed_at": "2026-07-13T18:35:03.583967+00:00"}
{"url": "https://boards.eu.greenhouse.io/nice/jobs/4923966101?gh_jid=4923966101", "company_key": "greenhouse:nice", "location": "USA - Sandy, UT", "lat": 40.5865748, "lng": -111.8966822, "first_published": "2026-07-13T12:32:50-04:00", "observed_at": "2026-07-13T18:35:03.583967+00:00"}
{"url": "https://job-boards.greenhouse.io/rebuildmanufacturing/jobs/4713641005", "company_key": "greenhouse:rebuildmanufacturing", "location": "Los Angeles, CA; Seattle, WA", "lat": null, "lng": null, "first_published": "2026-07-13T12:02:38-04:00", "observed_at": "2026-07-13T18:35:03.583967+00:00"}
{"url": "https://job-boards.greenhouse.io/relaypayments/jobs/7802697003", "company_key": "greenhouse:relaypayments", "location": "Atlanta, GA", "lat": 33.7544657, "lng": -84.3898151, "first_published": "2026-07-13T10:02:02-04:00", "observed_at": "2026-07-13T18:35:03.583967+00:00"}
{"url": "https://job-boards.greenhouse.io/systemstechnologyresearch/jobs/4696213006", "company_key": "greenhouse:systemstechnologyresearch", "location": "Woburn, MA", "lat": 42.4792618, "lng": -71.1522766, "first_published": "2026-07-13T10:11:03-04:00", "observed_at": "2026-07-13T18:35:03.583967+00:00"}
{"url": "https://job-boards.greenhouse.io/thefloridapanthers/jobs/4695583006", "company_key": "greenhouse:thefloridapanthers", "location": "Baptist Health IcePlex, Fort Lauderdale, FL", "lat": 26.1333906, "lng": -80.133551, "first_published": "2026-07-13T06:45:00-04:00", "observed_at": "2026-07-13T18:35:03.583967+00:00"}
{"url": "https://www.workato.com/careers?gh_jid=8630790002#open-roles", "company_key": "greenhouse:workato", "location": "Tbilisi, Georgia; Yerevan, Armenia", "lat": null, "lng": null, "first_published": "2026-07-13T06:38:18-04:00", "observed_at": "2026-07-13T18:35:03.583967+00:00"}
{"url": "https://job-boards.greenhouse.io/xometry/jobs/5185678007", "company_key": "greenhouse:xometry", "location": "North Bethesda, MD", "lat": 39.04065, "lng": -77.1233873, "first_published": "2026-07-13T13:19:40-04:00", "observed_at": "2026-07-13T18:35:03.583967+00:00"}
{"url": "https://jobs.lever.co/jobgether/fd1cde22-480e-4499-96bc-0f55eca3009b", "company_key": "lever:jobgether", "location": "US", "lat": 39.7837304, "lng": -100.445882, "first_published": "2026-07-13T15:11:26.139000+00:00", "observed_at": "2026-07-13T18:35:03.583967+00:00"}
{"url": "https://jobs.lever.co/jobgether/91b3710d-1f09-4ce2-90c3-fe14f86562b0", "company_key": "lever:jobgether", "location": "US", "lat": 39.7837304, "lng": -100.445882, "first_published": "2026-07-13T15:29:09.859000+00:00", "observed_at": "2026-07-13T18:35:03.583967+00:00"}
{"url": "https://jobs.lever.co/jobgether/f6ad3248-35b7-4e7a-b5e9-ccda1f516f1b", "company_key": "lever:jobgether", "location": "US", "lat": 39.7837304, "lng": -100.445882, "first_published": "2026-07-13T13:09:43.283000+00:00", "observed_at": "2026-07-13T18:35:03.583967+00:00"}
{"url": "https://jobs.lever.co/jobgether/7ff2842d-7bba-457b-82ed-4b205e71b0de", "company_key": "lever:jobgether", "location": "US", "lat": 39.7837304, "lng": -100.445882, "first_published": "2026-07-13T13:41:03.134000+00:00", "observed_at": "2026-07-13T18:35:03.583967+00:00"}
{"url": "https://jobs.lever.co/jobgether/04efb480-d6b4-4931-8566-70f10d0e7314", "company_key": "lever:jobgether", "location": "US", "lat": 39.7837304, "lng": -100.445882, "first_published": "2026-07-13T12:42:08.125000+00:00", "observed_at": "2026-07-13T18:35:03.583967+00:00"}
{"url": "https://jobs.lever.co/jobgether/1d703642-bf28-4a84-9269-724a35c5c15c", "company_key": "lever:jobgether", "location": "US", "lat": 39.7837304, "lng": -100.445882, "first_published": "2026-07-13T15:48:01.148000+00:00", "observed_at": "2026-07-13T18:35:03.583967+00:00"}
{"url": "https://jobs.lever.co/jobgether/a3108f3b-0867-481d-a2eb-8c2079207811", "company_key": "lever:jobgether", "location": "US", "lat": 39.7837304, "lng": -100.445882, "first_published": "2026-07-13T15:23:47.613000+00:00", "observed_at": "2026-07-13T18:35:03.583967+00:00"}
{"url": "https://jobs.lever.co/jobgether/571ea9a0-7471-41b8-a5e9-1c6d8cea3d2e", "company_key": "lever:jobgether", "location": "US", "lat": 39.7837304, "lng": -100.445882, "first_published": "2026-07-13T13:26:06.976000+00:00", "observed_at": "2026-07-13T18:35:03.583967+00:00"}
{"url": "https://jobs.lever.co/jobgether/0add1abd-52c9-4b86-8377-a9774c64c4a0", "company_key": "lever:jobgether", "location": "US", "lat": 39.7837304, "lng": -100.445882, "first_published": "2026-07-13T10:08:10.676000+00:00", "observed_at": "2026-07-13T18:35:03.583967+00:00"}
{"url": "https://jobs.lever.co/jobgether/ad636549-38bd-4bf9-84a9-172a53c6e4f9", "company_key": "lever:jobgether", "location": "US", "lat": 39.7837304, "lng": -100.445882, "first_published": "2026-07-13T09:41:32.387000+00:00", "observed_at": "2026-07-13T18:35:03.583967+00:00"}
{"url": "https://jobs.lever.co/whoop/82635467-6cfb-4e8b-967e-73355a0d0b8f", "company_key": "lever:whoop", "location": "Boston, MA", "lat": 42.3588336, "lng": -71.0578303, "first_published": "2026-07-13T16:24:21.247000+00:00", "observed_at": "2026-07-13T18:35:03.583967+00:00"}
{"url": "https://jobs.ashbyhq.com/clickhouse/586876a1-0847-4652-b799-1680eb2ef880", "company_key": "ashby:clickhouse", "location": "United States", "lat": 39.7837304, "lng": -100.445882, "first_published": "2026-07-13T16:30:34.311+00:00", "observed_at": "2026-07-13T18:35:03.583967+00:00"}
{"url": "https://jobs.ashbyhq.com/clickhouse/2cc93462-d3db-44f4-a0fe-407cd9c20329", "company_key": "ashby:clickhouse", "location": "United States", "lat": 39.7837304, "lng": -100.445882, "first_published": "2026-07-13T16:32:28.336+00:00", "observed_at": "2026-07-13T18:35:03.583967+00:00"}
{"url": "https://job-boards.greenhouse.io/anthropic/jobs/5341664008", "company_key": "greenhouse:anthropic", "location": "Seoul, South Korea", "lat": 37.5666791, "lng": 126.9782914, "first_published": "2026-07-13T07:44:18-04:00", "observed_at": "2026-07-13T18:35:03.583967+00:00"}
{"url": "https://job-boards.greenhouse.io/togetherai/jobs/5180155007", "company_key": "greenhouse:togetherai", "location": "Bangalore, India", "lat": 12.9767936, "lng": 77.590082, "first_published": "2026-07-13T12:32:15-04:00", "observed_at": "2026-07-13T18:35:03.583967+00:00"}
{"url": "https://job-boards.greenhouse.io/scaleai/jobs/4714087005", "company_key": "greenhouse:scaleai", "location": "Columbia, MD", "lat": 39.1938429, "lng": -76.8646092, "first_published": "2026-07-13T12:20:46-04:00", "observed_at": "2026-07-13T18:35:03.583967+00:00"}
{"url": "https://boards.greenhouse.io/andurilindustries/jobs/5185477007?gh_jid=5185477007", "company_key": "greenhouse:andurilindustries", "location": "Lexington, Massachusetts, United States", "lat": 42.4473175, "lng": -71.2245003, "first_published": "2026-07-13T10:39:53-04:00", "observed_at": "2026-07-13T18:35:03.583967+00:00"}
{"url": "https://boards.greenhouse.io/andurilindustries/jobs/5185048007?gh_jid=5185048007", "company_key": "greenhouse:andurilindustries", "location": "Costa Mesa, California, United States", "lat": 33.6633386, "lng": -117.903317, "first_published": "2026-07-13T11:53:55-04:00", "observed_at": "2026-07-13T18:35:03.583967+00:00"}
{"url": "https://boards.greenhouse.io/andurilindustries/jobs/5185089007?gh_jid=5185089007", "company_key": "greenhouse:andurilindustries", "location": "Costa Mesa, California, United States", "lat": 33.6633386, "lng": -117.903317, "first_published": "2026-07-13T12:48:09-04:00", "observed_at": "2026-07-13T18:35:03.583967+00:00"}
{"url": "https://boards.greenhouse.io/andurilindustries/jobs/5181540007?gh_jid=5181540007", "company_key": "greenhouse:andurilindustries", "location": "Honolulu, Hawaii, United States", "lat": 21.304547, "lng": -157.855676, "first_published": "2026-07-13T11:11:16-04:00", "observed_at": "2026-07-13T18:35:03.583967+00:00"}
{"url": "https://boards.greenhouse.io/andurilindustries/jobs/5184516007?gh_jid=5184516007", "company_key": "greenhouse:andurilindustries", "location": "Atlanta, Georgia, United States", "lat": 33.7544657, "lng": -84.3898151, "first_published": "2026-07-13T10:31:36-04:00", "observed_at": "2026-07-13T18:35:03.583967+00:00"}
{"url": "https://boards.greenhouse.io/andurilindustries/jobs/5185748007?gh_jid=5185748007", "company_key": "greenhouse:andurilindustries", "location": "Costa Mesa, California, United States", "lat": 33.6633386, "lng": -117.903317, "first_published": "2026-07-13T14:00:29-04:00", "observed_at": "2026-07-13T18:35:03.583967+00:00"}
{"url": "https://boards.greenhouse.io/andurilindustries/jobs/5185751007?gh_jid=5185751007", "company_key": "greenhouse:andurilindustries", "location": "Seattle, Washington, United States", "lat": 47.6038321, "lng": -122.330062, "first_published": "2026-07-13T14:01:12-04:00", "observed_at": "2026-07-13T18:35:03.583967+00:00"}
{"url": "https://boards.greenhouse.io/andurilindustries/jobs/5184777007?gh_jid=5184777007", "company_key": "greenhouse:andurilindustries", "location": "Irvine, California, United States", "lat": 33.6856969, "lng": -117.825981, "first_published": "2026-07-13T14:24:32-04:00", "observed_at": "2026-07-13T18:35:03.583967+00:00"}
{"url": "https://boards.greenhouse.io/andurilindustries/jobs/5184799007?gh_jid=5184799007", "company_key": "greenhouse:andurilindustries", "location": "Costa Mesa, California, United States", "lat": 33.6633386, "lng": -117.903317, "first_published": "2026-07-13T12:49:18-04:00", "observed_at": "2026-07-13T18:35:03.583967+00:00"}
{"url": "https://boards.greenhouse.io/andurilindustries/jobs/5184796007?gh_jid=5184796007", "company_key": "greenhouse:andurilindustries", "location": "Costa Mesa, California, United States", "lat": 33.6633386, "lng": -117.903317, "first_published": "2026-07-13T12:50:38-04:00", "observed_at": "2026-07-13T18:35:03.583967+00:00"}
{"url": "https://boards.greenhouse.io/andurilindustries/jobs/5185543007?gh_jid=5185543007", "company_key": "greenhouse:andurilindustries", "location": "Washington, District of Columbia, United States", "lat": 38.8950982, "lng": -77.0363849, "first_published": "2026-07-13T12:50:40-04:00", "observed_at": "2026-07-13T18:35:03.583967+00:00"}
{"url": "https://boards.greenhouse.io/andurilindustries/jobs/5185760007?gh_jid=5185760007", "company_key": "greenhouse:andurilindustries", "location": "Costa Mesa, California, United States", "lat": 33.6633386, "lng": -117.903317, "first_published": "2026-07-13T14:07:05-04:00", "observed_at": "2026-07-13T18:35:03.583967+00:00"}
{"url": "https://boards.greenhouse.io/andurilindustries/jobs/5009752007?gh_jid=5009752007", "company_key": "greenhouse:andurilindustries", "location": "Costa Mesa, California, United States", "lat": 33.6633386, "lng": -117.903317, "first_published": "2026-07-13T12:46:43-04:00", "observed_at": "2026-07-13T18:35:03.583967+00:00"}
{"url": "https://boards.greenhouse.io/andurilindustries/jobs/5185419007?gh_jid=5185419007", "company_key": "greenhouse:andurilindustries", "location": "Atlanta, Georgia, United States", "lat": 33.7544657, "lng": -84.3898151, "first_published": "2026-07-13T10:28:00-04:00", "observed_at": "2026-07-13T18:35:03.583967+00:00"}
{"url": "https://boards.greenhouse.io/andurilindustries/jobs/5184512007?gh_jid=5184512007", "company_key": "greenhouse:andurilindustries", "location": "Atlanta, Georgia, United States", "lat": 33.7544657, "lng": -84.3898151, "first_published": "2026-07-13T14:10:54-04:00", "observed_at": "2026-07-13T18:35:03.583967+00:00"}
{"url": "https://careers.airbnb.com/positions/8044801?gh_jid=8044801", "company_key": "greenhouse:airbnb", "location": "Mexico City, Mexico", "lat": 19.3207722, "lng": -99.1514678, "first_published": "2026-07-13T12:04:04-04:00", "observed_at": "2026-07-13T18:35:03.583967+00:00"}
{"url": "https://stripe.com/jobs/search?gh_jid=8048193", "company_key": "greenhouse:stripe", "location": "London", "lat": 51.5074456, "lng": -0.1277653, "first_published": "2026-07-13T11:54:32-04:00", "observed_at": "2026-07-13T18:35:03.583967+00:00"}
{"url": "https://stripe.com/jobs/search?gh_jid=8044924", "company_key": "greenhouse:stripe", "location": "Singapore", "lat": 1.357107, "lng": 103.8194992, "first_published": "2026-07-13T04:02:10-04:00", "observed_at": "2026-07-13T18:35:03.583967+00:00"}
{"url": "https://stripe.com/jobs/search?gh_jid=8055050", "company_key": "greenhouse:stripe", "location": "Dublin, Ireland ", "lat": 53.3493795, "lng": -6.2605593, "first_published": "2026-07-13T08:16:39-04:00", "observed_at": "2026-07-13T18:35:03.583967+00:00"}
{"url": "https://stripe.com/jobs/search?gh_jid=8060324", "company_key": "greenhouse:stripe", "location": "NYC, San Francisco, Seattle", "lat": null, "lng": null, "first_published": "2026-07-13T13:59:32-04:00", "observed_at": "2026-07-13T18:35:03.583967+00:00"}
{"url": "https://stripe.com/jobs/search?gh_jid=8044158", "company_key": "greenhouse:stripe", "location": "Sydney", "lat": -33.8698439, "lng": 151.2082848, "first_published": "2026-07-13T04:55:49-04:00", "observed_at": "2026-07-13T18:35:03.583967+00:00"}
{"url": "https://stripe.com/jobs/search?gh_jid=7955056", "company_key": "greenhouse:stripe", "location": "Singapore", "lat": 1.357107, "lng": 103.8194992, "first_published": "2026-07-13T04:58:42-04:00", "observed_at": "2026-07-13T18:35:03.583967+00:00"}
{"url": "https://boards.greenhouse.io/figma/jobs/6112112004?gh_jid=6112112004", "company_key": "greenhouse:figma", "location": "San Francisco, CA \u2022 New York, NY \u2022 United States", "lat": null, "lng": null, "first_published": "2026-07-13T12:16:39-04:00", "observed_at": "2026-07-13T18:35:03.583967+00:00"}
{"url": "https://databricks.com/company/careers/open-positions/job?gh_jid=8628960002", "company_key": "greenhouse:databricks", "location": "Georgia; Illinois; New York; Texas; Washington, D.C.", "lat": null, "lng": null, "first_published": "2026-07-13T09:17:27-04:00", "observed_at": "2026-07-13T18:35:03.583967+00:00"}
{"url": "https://databricks.com/company/careers/open-positions/job?gh_jid=8629163002", "company_key": "greenhouse:databricks", "location": "Maryland; Virginia; Washington, D.C.", "lat": 39.5846468, "lng": -77.8288062, "first_published": "2026-07-13T08:23:32-04:00", "observed_at": "2026-07-13T18:35:03.583967+00:00"}
{"url": "https://databricks.com/company/careers/open-positions/job?gh_jid=8614459002", "company_key": "greenhouse:databricks", "location": "London, United Kingdom", "lat": 51.5074456, "lng": -0.1277653, "first_published": "2026-07-13T04:04:36-04:00", "observed_at": "2026-07-13T18:35:03.583967+00:00"}
{"url": "https://databricks.com/company/careers/open-positions/job?gh_jid=8604470002", "company_key": "greenhouse:databricks", "location": "Georgia; Illinois; Massachusetts; New Jersey; New York; Washington, D.C.", "lat": null, "lng": null, "first_published": "2026-07-13T09:23:31-04:00", "observed_at": "2026-07-13T18:35:03.583967+00:00"}
{"url": "https://databricks.com/company/careers/open-positions/job?gh_jid=8607059002", "company_key": "greenhouse:databricks", "location": "Northeast - United States", "lat": 45.0157576, "lng": -93.2512895, "first_published": "2026-07-13T14:03:03-04:00", "observed_at": "2026-07-13T18:35:03.583967+00:00"}
{"url": "https://instacart.careers/job/?gh_jid=8056372", "company_key": "greenhouse:instacart", "location": "United States - Remote", "lat": 43.0059455, "lng": -123.8925908, "first_published": "2026-07-13T13:09:45-04:00", "observed_at": "2026-07-13T18:35:03.583967+00:00"}
{"url": "https://www.pinterestcareers.com/jobs/?gh_jid=8016712", "company_key": "greenhouse:pinterest", "location": "Dublin, IE", "lat": 53.3493795, "lng": -6.2605593, "first_published": "2026-07-13T04:24:17-04:00", "observed_at": "2026-07-13T18:35:03.583967+00:00"}
{"url": "https://boards.greenhouse.io/cloudflare/jobs/8049820?gh_jid=8049820", "company_key": "greenhouse:cloudflare", "location": "Austin, TX", "lat": 30.2711286, "lng": -97.7436995, "first_published": "2026-07-13T13:26:16-04:00", "observed_at": "2026-07-13T18:35:03.583967+00:00"}
{"url": "https://boards.greenhouse.io/cloudflare/jobs/8055320?gh_jid=8055320", "company_key": "greenhouse:cloudflare", "location": "In-Office", "lat": 42.6471352, "lng": 23.3932542, "first_published": "2026-07-13T12:44:53-04:00", "observed_at": "2026-07-13T18:35:03.583967+00:00"}
{"url": "https://boards.greenhouse.io/cloudflare/jobs/8027935?gh_jid=8027935", "company_key": "greenhouse:cloudflare", "location": "Hybrid", "lat": 47.1188391, "lng": 1.0982204, "first_published": "2026-07-13T14:02:14-04:00", "observed_at": "2026-07-13T18:35:03.583967+00:00"}
{"url": "https://boards.greenhouse.io/cloudflare/jobs/8027934?gh_jid=8027934", "company_key": "greenhouse:cloudflare", "location": "Hybrid", "lat": 47.1188391, "lng": 1.0982204, "first_published": "2026-07-13T14:02:00-04:00", "observed_at": "2026-07-13T18:35:03.583967+00:00"}
{"url": "https://jobs.elastic.co/jobs?gh_jid=8053209&gh_jid=8053209", "company_key": "greenhouse:elastic", "location": "United States", "lat": 39.7837304, "lng": -100.445882, "first_published": "2026-07-13T13:17:43-04:00", "observed_at": "2026-07-13T18:35:03.583967+00:00"}
{"url": "https://www.mongodb.com/careers/job/?gh_jid=8055126", "company_key": "greenhouse:mongodb", "location": "Atlanta; Austin; Baltimore; Boston; Chicago; Houston; Minneapolis; New York City; Philadelphia; Pittsburgh; Washington DC", "lat": null, "lng": null, "first_published": "2026-07-13T11:08:54-04:00", "observed_at": "2026-07-13T18:35:03.583967+00:00"}
{"url": "https://www.mongodb.com/careers/job/?gh_jid=8055422", "company_key": "greenhouse:mongodb", "location": "Bengaluru", "lat": 12.9767936, "lng": 77.590082, "first_published": "2026-07-13T05:24:35-04:00", "observed_at": "2026-07-13T18:35:03.583967+00:00"}
{"url": "https://www.mongodb.com/careers/job/?gh_jid=8054272", "company_key": "greenhouse:mongodb", "location": "Montreal; Toronto", "lat": -33.5146577, "lng": -70.6150527, "first_published": "2026-07-13T11:33:18-04:00", "observed_at": "2026-07-13T18:35:03.583967+00:00"}
{"url": "https://www.mongodb.com/careers/job/?gh_jid=8051434", "company_key": "greenhouse:mongodb", "location": "Bengaluru", "lat": 12.9767936, "lng": 77.590082, "first_published": "2026-07-13T08:34:18-04:00", "observed_at": "2026-07-13T18:35:03.583967+00:00"}
{"url": "https://www.samsara.com/company/careers/roles/8038153?gh_jid=8038153", "company_key": "greenhouse:samsara", "location": "Remote - UK", "lat": 55.8754971, "lng": -2.9525105, "first_published": "2026-07-13T06:48:37-04:00", "observed_at": "2026-07-13T18:35:03.583967+00:00"}
{"url": "https://www.okta.com/company/careers/opportunity/8055360?gh_jid=8055360", "company_key": "greenhouse:okta", "location": "Dallas, Texas; New York, New York; San Francisco, California; Seattle, Washington; Washington, DC", "lat": null, "lng": null, "first_published": "2026-07-13T13:35:26-04:00", "observed_at": "2026-07-13T18:35:03.583967+00:00"}
{"url": "https://careers.toasttab.com/jobs?gh_jid=8046403", "company_key": "greenhouse:toast", "location": "Los Angeles, CA", "lat": 34.0536909, "lng": -118.242766, "first_published": "2026-07-13T07:45:14-04:00", "observed_at": "2026-07-13T18:35:03.583967+00:00"}
{"url": "https://careers.toasttab.com/jobs?gh_jid=8046419", "company_key": "greenhouse:toast", "location": "Los Angeles, CA", "lat": 34.0536909, "lng": -118.242766, "first_published": "2026-07-13T07:47:38-04:00", "observed_at": "2026-07-13T18:35:03.583967+00:00"}
{"url": "https://careers.toasttab.com/jobs?gh_jid=8059510", "company_key": "greenhouse:toast", "location": "San Francisco, CA", "lat": 37.7879363, "lng": -122.4075201, "first_published": "2026-07-13T07:53:33-04:00", "observed_at": "2026-07-13T18:35:03.583967+00:00"}
{"url": "https://careers.toasttab.com/jobs?gh_jid=8046424", "company_key": "greenhouse:toast", "location": "Los Angeles, CA", "lat": 34.0536909, "lng": -118.242766, "first_published": "2026-07-13T07:56:03-04:00", "observed_at": "2026-07-13T18:35:03.583967+00:00"}
{"url": "https://careers.toasttab.com/jobs?gh_jid=8059511", "company_key": "greenhouse:toast", "location": "San Francisco, CA ", "lat": 37.7879363, "lng": -122.4075201, "first_published": "2026-07-13T07:56:03-04:00", "observed_at": "2026-07-13T18:35:03.583967+00:00"}
{"url": "https://careers.toasttab.com/jobs?gh_jid=8060011", "company_key": "greenhouse:toast", "location": "Salt Lake City, UT", "lat": 40.7596198, "lng": -111.886797, "first_published": "2026-07-13T11:54:12-04:00", "observed_at": "2026-07-13T18:35:03.583967+00:00"}
{"url": "https://careers.toasttab.com/jobs?gh_jid=8053352", "company_key": "greenhouse:toast", "location": "Remote", "lat": 43.0059455, "lng": -123.8925908, "first_published": "2026-07-13T11:54:00-04:00", "observed_at": "2026-07-13T18:35:03.583967+00:00"}
{"url": "https://careers.toasttab.com/jobs?gh_jid=8045807", "company_key": "greenhouse:toast", "location": "Bangalore, india", "lat": 12.9767936, "lng": 77.590082, "first_published": "2026-07-13T03:18:19-04:00", "observed_at": "2026-07-13T18:35:03.583967+00:00"}
{"url": "https://careers.toasttab.com/jobs?gh_jid=8049237", "company_key": "greenhouse:toast", "location": "Saint Paul, MN", "lat": 44.9497487, "lng": -93.0931028, "first_published": "2026-07-13T08:00:00-04:00", "observed_at": "2026-07-13T18:35:03.583967+00:00"}
{"url": "https://careers.toasttab.com/jobs?gh_jid=8048975", "company_key": "greenhouse:toast", "location": "Winston-Salem, NC", "lat": 36.0998131, "lng": -80.2440518, "first_published": "2026-07-13T08:15:00-04:00", "observed_at": "2026-07-13T18:35:03.583967+00:00"}
{"url": "https://job-boards.greenhouse.io/pagerduty/jobs/6111197004", "company_key": "greenhouse:pagerduty", "location": "London", "lat": 51.5074456, "lng": -0.1277653, "first_published": "2026-07-13T10:11:19-04:00", "observed_at": "2026-07-13T18:35:03.583967+00:00"}
{"url": "https://job-boards.greenhouse.io/gitlab/jobs/8626772002", "company_key": "greenhouse:gitlab", "location": "Remote, Bangalore", "lat": 13.0933248, "lng": 77.5618672, "first_published": "2026-07-13T12:57:20-04:00", "observed_at": "2026-07-13T18:35:03.583967+00:00"}
{"url": "https://job-boards.greenhouse.io/gitlab/jobs/8586632002", "company_key": "greenhouse:gitlab", "location": "Remote, United Kingdom", "lat": 55.8754971, "lng": -2.9525105, "first_published": "2026-07-13T07:33:45-04:00", "observed_at": "2026-07-13T18:35:03.583967+00:00"}
{"url": "https://job-boards.greenhouse.io/gitlab/jobs/8631153002", "company_key": "greenhouse:gitlab", "location": "Remote, Germany", "lat": 49.2186885, "lng": 7.1109673, "first_published": "2026-07-13T10:43:44-04:00", "observed_at": "2026-07-13T18:35:03.583967+00:00"}
{"url": "https://job-boards.greenhouse.io/gitlab/jobs/8626740002", "company_key": "greenhouse:gitlab", "location": "Remote, Bangalore", "lat": 13.0933248, "lng": 77.5618672, "first_published": "2026-07-13T12:54:04-04:00", "observed_at": "2026-07-13T18:35:03.583967+00:00"}
{"url": "https://job-boards.greenhouse.io/gitlab/jobs/8626290002", "company_key": "greenhouse:gitlab", "location": "Remote; Remote, Canada; Remote, Ireland; Remote, United Kingdom; Remote, US", "lat": null, "lng": null, "first_published": "2026-07-13T12:25:24-04:00", "observed_at": "2026-07-13T18:35:03.583967+00:00"}
{"url": "https://job-boards.greenhouse.io/gitlab/jobs/8627798002", "company_key": "greenhouse:gitlab", "location": "Remote, Germany", "lat": 49.2186885, "lng": 7.1109673, "first_published": "2026-07-13T10:42:12-04:00", "observed_at": "2026-07-13T18:35:03.583967+00:00"}
{"url": "https://job-boards.greenhouse.io/gitlab/jobs/8616308002", "company_key": "greenhouse:gitlab", "location": "Remote, Canada; Remote, US", "lat": null, "lng": null, "first_published": "2026-07-13T13:37:11-04:00", "observed_at": "2026-07-13T18:35:03.583967+00:00"}
{"url": "https://job-boards.greenhouse.io/grafanalabs/jobs/5998479004", "company_key": "greenhouse:grafanalabs", "location": "United States (Remote)", "lat": 43.0059455, "lng": -123.8925908, "first_published": "2026-07-13T12:38:04-04:00", "observed_at": "2026-07-13T18:35:03.583967+00:00"}
{"url": "https://job-boards.greenhouse.io/clickhouse/jobs/6114708004", "company_key": "greenhouse:clickhouse", "location": "Germany", "lat": 51.1638175, "lng": 10.4478313, "first_published": "2026-07-13T12:32:28-04:00", "observed_at": "2026-07-13T18:35:03.583967+00:00"}
{"url": "https://job-boards.greenhouse.io/clickhouse/jobs/5819756004", "company_key": "greenhouse:clickhouse", "location": "United Kingdom", "lat": 54.7023545, "lng": -3.2765753, "first_published": "2026-07-13T12:30:34-04:00", "observed_at": "2026-07-13T18:35:03.583967+00:00"}
{"url": "https://careers.datadoghq.com/detail/8055109/?gh_jid=8055109", "company_key": "greenhouse:datadog", "location": "Dublin, Ireland", "lat": 53.3493795, "lng": -6.2605593, "first_published": "2026-07-13T03:27:20-04:00", "observed_at": "2026-07-13T18:35:03.583967+00:00"}
{"url": "https://job-boards.greenhouse.io/postman/jobs/7798704003", "company_key": "greenhouse:postman", "location": "Paris, Paris, France", "lat": 48.8588897, "lng": 2.320041, "first_published": "2026-07-13T04:06:40-04:00", "observed_at": "2026-07-13T18:35:03.583967+00:00"}
{"url": "https://cribl.io/job-detail/?gh_jid=6113638004", "company_key": "greenhouse:cribl", "location": "Remote - Italy", "lat": 41.1157209, "lng": 14.7994221, "first_published": "2026-07-13T09:11:27-04:00", "observed_at": "2026-07-13T18:35:03.583967+00:00"}
{"url": "https://cribl.io/job-detail/?gh_jid=6108265004", "company_key": "greenhouse:cribl", "location": "Remote - Italy", "lat": 41.1157209, "lng": 14.7994221, "first_published": "2026-07-13T12:38:00-04:00", "observed_at": "2026-07-13T18:35:03.583967+00:00"}
{"url": "https://www.coinbase.com/careers/positions/8050875?gh_jid=8050875", "company_key": "greenhouse:coinbase", "location": "Remote - UK", "lat": 55.8754971, "lng": -2.9525105, "first_published": "2026-07-13T09:56:56-04:00", "observed_at": "2026-07-13T18:35:03.583967+00:00"}
{"url": "https://www.coinbase.com/careers/positions/8056065?gh_jid=8056065", "company_key": "greenhouse:coinbase", "location": "Remote - USA", "lat": 43.0059455, "lng": -123.8925908, "first_published": "2026-07-13T11:53:23-04:00", "observed_at": "2026-07-13T18:35:03.583967+00:00"}
{"url": "https://job-boards.greenhouse.io/affirm/jobs/7799346003", "company_key": "greenhouse:affirm", "location": "Remote Spain", "lat": 40.4710988, "lng": -3.8195049, "first_published": "2026-07-13T07:25:04-04:00", "observed_at": "2026-07-13T18:35:03.583967+00:00"}
{"url": "https://job-boards.greenhouse.io/affirm/jobs/7799348003", "company_key": "greenhouse:affirm", "location": "Remote Poland", "lat": null, "lng": null, "first_published": "2026-07-13T07:25:05-04:00", "observed_at": "2026-07-13T18:35:03.583967+00:00"}
{"url": "https://job-boards.greenhouse.io/affirm/jobs/7800446003", "company_key": "greenhouse:affirm", "location": "Remote Canada", "lat": 70.8553058, "lng": -70.9174507, "first_published": "2026-07-13T09:04:27-04:00", "observed_at": "2026-07-13T18:35:03.583967+00:00"}
{"url": "https://job-boards.greenhouse.io/affirm/jobs/7799295003", "company_key": "greenhouse:affirm", "location": "Remote US", "lat": 43.0059455, "lng": -123.8925908, "first_published": "2026-07-13T11:46:27-04:00", "observed_at": "2026-07-13T18:35:03.583967+00:00"}
{"url": "https://job-boards.greenhouse.io/mercury/jobs/6114209004", "company_key": "greenhouse:mercury", "location": "San Francisco, CA, New York, NY, Portland, OR, or Remote within Canada or United States", "lat": null, "lng": null, "first_published": "2026-07-13T12:45:47-04:00", "observed_at": "2026-07-13T18:35:03.583967+00:00"}
{"url": "https://job-boards.greenhouse.io/mercury/jobs/6114207004", "company_key": "greenhouse:mercury", "location": "San Francisco, CA", "lat": 37.7879363, "lng": -122.4075201, "first_published": "2026-07-13T09:00:39-04:00", "observed_at": "2026-07-13T18:35:03.583967+00:00"}
{"url": "https://sofi.com/careers/job/7802818003?gh_jid=7802818003", "company_key": "greenhouse:sofi", "location": "United States", "lat": 39.7837304, "lng": -100.445882, "first_published": "2026-07-13T12:13:29-04:00", "observed_at": "2026-07-13T18:35:03.583967+00:00"}
{"url": "https://job-boards.greenhouse.io/alpaca/jobs/6113939004", "company_key": "greenhouse:alpaca", "location": "Remote - Americas ", "lat": null, "lng": null, "first_published": "2026-07-13T08:57:55-04:00", "observed_at": "2026-07-13T18:35:03.583967+00:00"}
{"url": "https://job-boards.greenhouse.io/airtable/jobs/8617009002", "company_key": "greenhouse:airtable", "location": "New York City, NY", "lat": 40.7127281, "lng": -74.0060152, "first_published": "2026-07-13T11:24:23-04:00", "observed_at": "2026-07-13T18:35:03.583967+00:00"}
{"url": "https://flatiron.com/careers/open-positions/job?gh_jid=7611841", "company_key": "greenhouse:flatironhealth", "location": "NY office", "lat": 40.6470667, "lng": -73.9425201, "first_published": "2026-07-13T11:10:01-04:00", "observed_at": "2026-07-13T18:35:03.583967+00:00"}
{"url": "https://flatiron.com/careers/open-positions/job?gh_jid=8041935", "company_key": "greenhouse:flatironhealth", "location": "Tokyo office", "lat": 35.6897391, "lng": 139.6929973, "first_published": "2026-07-13T12:19:05-04:00", "observed_at": "2026-07-13T18:35:03.583967+00:00"}
{"url": "http://www.onemedical.com/careers/all-departments/8060145?gh_jid=8060145", "company_key": "greenhouse:onemedical", "location": "Houston, TX", "lat": 29.7589382, "lng": -95.3676974, "first_published": "2026-07-13T12:40:14-04:00", "observed_at": "2026-07-13T18:35:03.583967+00:00"}
{"url": "http://www.onemedical.com/careers/all-departments/8060013?gh_jid=8060013", "company_key": "greenhouse:onemedical", "location": "San Francisco, CA", "lat": 37.7879363, "lng": -122.4075201, "first_published": "2026-07-13T11:55:31-04:00", "observed_at": "2026-07-13T18:35:03.583967+00:00"}
{"url": "https://job-boards.greenhouse.io/natera/jobs/6114649004", "company_key": "greenhouse:natera", "location": "San Antonio, TX", "lat": 29.4246002, "lng": -98.4951405, "first_published": "2026-07-13T13:03:50-04:00", "observed_at": "2026-07-13T18:35:03.583967+00:00"}
{"url": "https://job-boards.greenhouse.io/garnerhealth/jobs/6113902004", "company_key": "greenhouse:garnerhealth", "location": "New York City, New York", "lat": 40.7127281, "lng": -74.0060152, "first_published": "2026-07-13T12:12:52-04:00", "observed_at": "2026-07-13T18:35:03.583967+00:00"}
{"url": "https://job-boards.greenhouse.io/iterativehealth/jobs/4696028006", "company_key": "greenhouse:iterativehealth", "location": "Houston, TX", "lat": 29.7589382, "lng": -95.3676974, "first_published": "2026-07-13T09:42:16-04:00", "observed_at": "2026-07-13T18:35:03.583967+00:00"}
{"url": "https://job-boards.greenhouse.io/iterativehealth/jobs/4696225006", "company_key": "greenhouse:iterativehealth", "location": "Tucson, AZ", "lat": 32.2228765, "lng": -110.974847, "first_published": "2026-07-13T09:48:02-04:00", "observed_at": "2026-07-13T18:35:03.583967+00:00"}
{"url": "https://aurora.tech/jobs/8628612002?gh_jid=8628612002", "company_key": "greenhouse:aurorainnovation", "location": "San Francisco, California", "lat": 37.7879363, "lng": -122.4075201, "first_published": "2026-07-13T10:34:01-04:00", "observed_at": "2026-07-13T18:35:03.583967+00:00"}
{"url": "https://aurora.tech/jobs/8628610002?gh_jid=8628610002", "company_key": "greenhouse:aurorainnovation", "location": "Dallas, Texas", "lat": 32.7762719, "lng": -96.7968559, "first_published": "2026-07-13T10:34:00-04:00", "observed_at": "2026-07-13T18:35:03.583967+00:00"}
{"url": "https://aurora.tech/jobs/8598107002?gh_jid=8598107002", "company_key": "greenhouse:aurorainnovation", "location": "Mountain View, California", "lat": 37.3893889, "lng": -122.0832101, "first_published": "2026-07-13T10:33:59-04:00", "observed_at": "2026-07-13T18:35:03.583967+00:00"}
{"url": "https://aurora.tech/jobs/8631004002?gh_jid=8631004002", "company_key": "greenhouse:aurorainnovation", "location": "Houston, Texas", "lat": 29.7589382, "lng": -95.3676974, "first_published": "2026-07-13T09:25:00-04:00", "observed_at": "2026-07-13T18:35:03.583967+00:00"}
{"url": "https://boards.greenhouse.io/spacex/jobs/8628980002?gh_jid=8628980002", "company_key": "greenhouse:spacex", "location": "McGregor, TX", "lat": 31.4367029, "lng": -97.4080875, "first_published": "2026-07-13T10:32:56-04:00", "observed_at": "2026-07-13T18:35:03.583967+00:00"}
{"url": "https://boards.greenhouse.io/spacex/jobs/8627620002?gh_jid=8627620002", "company_key": "greenhouse:spacex", "location": "Redmond, WA", "lat": 47.6694141, "lng": -122.1238767, "first_published": "2026-07-13T14:10:37-04:00", "observed_at": "2026-07-13T18:35:03.583967+00:00"}
{"url": "https://boards.greenhouse.io/spacex/jobs/8628908002?gh_jid=8628908002", "company_key": "greenhouse:spacex", "location": "McGregor, TX", "lat": 31.4367029, "lng": -97.4080875, "first_published": "2026-07-13T10:42:58-04:00", "observed_at": "2026-07-13T18:35:03.583967+00:00"}
{"url": "https://boards.greenhouse.io/spacex/jobs/8628172002?gh_jid=8628172002", "company_key": "greenhouse:spacex", "location": "Hawthorne, CA", "lat": 33.9128272, "lng": -118.3426122, "first_published": "2026-07-13T09:52:39-04:00", "observed_at": "2026-07-13T18:35:03.583967+00:00"}
{"url": "https://boards.greenhouse.io/spacex/jobs/8628384002?gh_jid=8628384002", "company_key": "greenhouse:spacex", "location": "Starbase, TX", "lat": 25.9914611, "lng": -97.1829783, "first_published": "2026-07-13T13:56:36-04:00", "observed_at": "2026-07-13T18:35:03.583967+00:00"}
{"url": "https://boards.greenhouse.io/spacex/jobs/8631549002?gh_jid=8631549002", "company_key": "greenhouse:spacex", "location": "Cape Canaveral, FL", "lat": 28.4513556, "lng": -80.5283059, "first_published": "2026-07-13T13:51:53-04:00", "observed_at": "2026-07-13T18:35:03.583967+00:00"}
{"url": "https://boards.greenhouse.io/spacex/jobs/8631444002?gh_jid=8631444002", "company_key": "greenhouse:spacex", "location": "Starbase, TX", "lat": 25.9914611, "lng": -97.1829783, "first_published": "2026-07-13T13:56:00-04:00", "observed_at": "2026-07-13T18:35:03.583967+00:00"}
{"url": "https://boards.greenhouse.io/spacex/jobs/8631589002?gh_jid=8631589002", "company_key": "greenhouse:spacex", "location": "Hawthorne, CA", "lat": 33.9128272, "lng": -118.3426122, "first_published": "2026-07-13T14:27:17-04:00", "observed_at": "2026-07-13T18:35:03.583967+00:00"}
{"url": "https://boards.greenhouse.io/spacex/jobs/8631299002?gh_jid=8631299002", "company_key": "greenhouse:spacex", "location": "Bastrop, TX", "lat": 30.0541116, "lng": -97.3887764, "first_published": "2026-07-13T11:52:39-04:00", "observed_at": "2026-07-13T18:35:03.583967+00:00"}
{"url": "https://boards.greenhouse.io/spacex/jobs/8631323002?gh_jid=8631323002", "company_key": "greenhouse:spacex", "location": "Palo Alto, CA", "lat": 37.4443293, "lng": -122.1598465, "first_published": "2026-07-13T11:52:40-04:00", "observed_at": "2026-07-13T18:35:03.583967+00:00"}
{"url": "https://boards.greenhouse.io/spacex/jobs/8631282002?gh_jid=8631282002", "company_key": "greenhouse:spacex", "location": "Redmond, WA", "lat": 47.6694141, "lng": -122.1238767, "first_published": "2026-07-13T11:52:37-04:00", "observed_at": "2026-07-13T18:35:03.583967+00:00"}
{"url": "https://boards.greenhouse.io/spacex/jobs/8629030002?gh_jid=8629030002", "company_key": "greenhouse:spacex", "location": "McGregor, TX", "lat": 31.4367029, "lng": -97.4080875, "first_published": "2026-07-13T10:35:17-04:00", "observed_at": "2026-07-13T18:35:03.583967+00:00"}
{"url": "https://job-boards.greenhouse.io/calendly/jobs/8631378002", "company_key": "greenhouse:calendly", "location": "Remote", "lat": 43.0059455, "lng": -123.8925908, "first_published": "2026-07-13T12:53:41-04:00", "observed_at": "2026-07-13T18:35:03.583967+00:00"}
{"url": "https://job-boards.greenhouse.io/checkr/jobs/8060225", "company_key": "greenhouse:checkr", "location": "Denver, Colorado, United States; San Francisco, California, United States", "lat": null, "lng": null, "first_published": "2026-07-13T13:15:56-04:00", "observed_at": "2026-07-13T18:35:03.583967+00:00"}
{"url": "https://www.five9.com/about/careers/job-detail?gh_jid=6114397004", "company_key": "greenhouse:five9", "location": "India, Bengaluru (Hybrid)", "lat": 12.8959271, "lng": 77.5200254, "first_published": "2026-07-13T06:40:21-04:00", "observed_at": "2026-07-13T18:35:03.583967+00:00"}
{"url": "https://job-boards.greenhouse.io/appian/jobs/8053960", "company_key": "greenhouse:appian", "location": "McLean, Virginia", "lat": 38.9366852, "lng": -77.185843, "first_published": "2026-07-13T13:18:05-04:00", "observed_at": "2026-07-13T18:35:03.583967+00:00"}
{"url": "https://job-boards.greenhouse.io/appian/jobs/8053966", "company_key": "greenhouse:appian", "location": "McLean, Virginia", "lat": 38.9366852, "lng": -77.185843, "first_published": "2026-07-13T13:21:29-04:00", "observed_at": "2026-07-13T18:35:03.583967+00:00"}
{"url": "https://job-boards.greenhouse.io/appian/jobs/8053962", "company_key": "greenhouse:appian", "location": "McLean, Virginia", "lat": 38.9366852, "lng": -77.185843, "first_published": "2026-07-13T13:24:51-04:00", "observed_at": "2026-07-13T18:35:03.583967+00:00"}
{"url": "https://job-boards.greenhouse.io/yext/jobs/8053752", "company_key": "greenhouse:yext", "location": "Hyderabad, India", "lat": 17.360589, "lng": 78.4740613, "first_published": "2026-07-13T13:02:05-04:00", "observed_at": "2026-07-13T18:35:03.583967+00:00"}
{"url": "https://job-boards.greenhouse.io/yext/jobs/8050809", "company_key": "greenhouse:yext", "location": "Hyderabad, India", "lat": 17.360589, "lng": 78.4740613, "first_published": "2026-07-13T13:01:11-04:00", "observed_at": "2026-07-13T18:35:03.583967+00:00"}
{"url": "https://job-boards.greenhouse.io/thenewyorktimes/jobs/4714008005", "company_key": "greenhouse:thenewyorktimes", "location": "New York, NY", "lat": 40.7127281, "lng": -74.0060152, "first_published": "2026-07-13T10:12:12-04:00", "observed_at": "2026-07-13T18:35:03.583967+00:00"}
{"url": "https://job-boards.greenhouse.io/thenewyorktimes/jobs/4714376005", "company_key": "greenhouse:thenewyorktimes", "location": "New York, NY", "lat": 40.7127281, "lng": -74.0060152, "first_published": "2026-07-13T10:57:50-04:00", "observed_at": "2026-07-13T18:35:03.583967+00:00"}
{"url": "https://job-boards.greenhouse.io/thenewyorktimes/jobs/4714004005", "company_key": "greenhouse:thenewyorktimes", "location": "New York, NY", "lat": 40.7127281, "lng": -74.0060152, "first_published": "2026-07-13T10:12:40-04:00", "observed_at": "2026-07-13T18:35:03.583967+00:00"}
{"url": "https://job-boards.greenhouse.io/thenewyorktimes/jobs/4713996005", "company_key": "greenhouse:thenewyorktimes", "location": "New York, NY", "lat": 40.7127281, "lng": -74.0060152, "first_published": "2026-07-13T10:12:58-04:00", "observed_at": "2026-07-13T18:35:03.583967+00:00"}
{"url": "https://boards.greenhouse.io/6sense/jobs/8052411?gh_jid=8052411", "company_key": "greenhouse:6sense", "location": "United States, Remote", "lat": 43.0059455, "lng": -123.8925908, "first_published": "2026-07-13T12:19:13-04:00", "observed_at": "2026-07-13T18:35:03.583967+00:00"}
{"url": "https://job-boards.greenhouse.io/adyen/jobs/8053785", "company_key": "greenhouse:adyen", "location": "Amsterdam", "lat": 52.3730796, "lng": 4.8924534, "first_published": "2026-07-13T11:09:44-04:00", "observed_at": "2026-07-13T18:35:03.583967+00:00"}
{"url": "https://job-boards.greenhouse.io/adyen/jobs/8053345", "company_key": "greenhouse:adyen", "location": "Amsterdam", "lat": 52.3730796, "lng": 4.8924534, "first_published": "2026-07-13T09:04:20-04:00", "observed_at": "2026-07-13T18:35:03.583967+00:00"}
{"url": "https://job-boards.greenhouse.io/afresh/jobs/6114758004", "company_key": "greenhouse:afresh", "location": "Remote - United States", "lat": 43.0059455, "lng": -123.8925908, "first_published": "2026-07-13T13:09:13-04:00", "observed_at": "2026-07-13T18:35:03.583967+00:00"}
{"url": "https://www.akunacapital.com/careers/job/8018880/?gh_jid=8018880", "company_key": "greenhouse:akunacapital", "location": "Chicago, IL ", "lat": 41.8755616, "lng": -87.6244212, "first_published": "2026-07-13T14:21:47-04:00", "observed_at": "2026-07-13T18:35:03.583967+00:00"}
{"url": "https://www.akunacapital.com/careers/job/8016687/?gh_jid=8016687", "company_key": "greenhouse:akunacapital", "location": "Chicago, IL ", "lat": 41.8755616, "lng": -87.6244212, "first_published": "2026-07-13T14:29:02-04:00", "observed_at": "2026-07-13T18:35:03.583967+00:00"}
{"url": "https://www.akunacapital.com/careers/job/8036541/?gh_jid=8036541", "company_key": "greenhouse:akunacapital", "location": "Chicago, IL ", "lat": 41.8755616, "lng": -87.6244212, "first_published": "2026-07-13T14:28:26-04:00", "observed_at": "2026-07-13T18:35:03.583967+00:00"}
{"url": "https://www.akunacapital.com/careers/job/7773141/?gh_jid=7773141", "company_key": "greenhouse:akunacapital", "location": "Chicago", "lat": 41.8755616, "lng": -87.6244212, "first_published": "2026-07-13T14:32:37-04:00", "observed_at": "2026-07-13T18:35:03.583967+00:00"}
{"url": "https://www.akunacapital.com/careers/job/8021481/?gh_jid=8021481", "company_key": "greenhouse:akunacapital", "location": "Chicago, IL", "lat": 41.8755616, "lng": -87.6244212, "first_published": "2026-07-13T14:29:20-04:00", "observed_at": "2026-07-13T18:35:03.583967+00:00"}
{"url": "https://www.akunacapital.com/careers/job/8036614/?gh_jid=8036614", "company_key": "greenhouse:akunacapital", "location": "Chicago, IL ", "lat": 41.8755616, "lng": -87.6244212, "first_published": "2026-07-13T14:28:45-04:00", "observed_at": "2026-07-13T18:35:03.583967+00:00"}
{"url": "https://job-boards.greenhouse.io/algolia/jobs/6113843004", "company_key": "greenhouse:algolia", "location": "Remote - United States", "lat": 43.0059455, "lng": -123.8925908, "first_published": "2026-07-13T13:00:02-04:00", "observed_at": "2026-07-13T18:35:03.583967+00:00"}
{"url": "https://job-boards.greenhouse.io/algolia/jobs/6112872004", "company_key": "greenhouse:algolia", "location": "Remote - United Kingdom", "lat": 55.8754971, "lng": -2.9525105, "first_published": "2026-07-13T11:34:33-04:00", "observed_at": "2026-07-13T18:35:03.583967+00:00"}
{"url": "https://job-boards.greenhouse.io/anaplan/jobs/8548038002", "company_key": "greenhouse:anaplan", "location": "Gurugram, India", "lat": 28.4646148, "lng": 77.0299194, "first_published": "2026-07-13T13:14:26-04:00", "observed_at": "2026-07-13T18:35:03.583967+00:00"}
{"url": "https://job-boards.greenhouse.io/anaplan/jobs/8629247002", "company_key": "greenhouse:anaplan", "location": "New York, United States", "lat": 40.7127281, "lng": -74.0060152, "first_published": "2026-07-13T12:22:49-04:00", "observed_at": "2026-07-13T18:35:03.583967+00:00"}
{"url": "https://job-boards.greenhouse.io/anaplan/jobs/8631421002", "company_key": "greenhouse:anaplan", "location": "Minneapolis, United States", "lat": 44.9772995, "lng": -93.2654692, "first_published": "2026-07-13T12:24:40-04:00", "observed_at": "2026-07-13T18:35:03.583967+00:00"}
{"url": "https://job-boards.greenhouse.io/anaplan/jobs/8611274002", "company_key": "greenhouse:anaplan", "location": "London, United Kingdom", "lat": 51.5074456, "lng": -0.1277653, "first_published": "2026-07-13T05:15:11-04:00", "observed_at": "2026-07-13T18:35:03.583967+00:00"}
{"url": "https://job-boards.greenhouse.io/anaplan/jobs/8631125002", "company_key": "greenhouse:anaplan", "location": "Manchester, United Kingdom", "lat": 53.4424618, "lng": -2.2324547, "first_published": "2026-07-13T10:37:03-04:00", "observed_at": "2026-07-13T18:35:03.583967+00:00"}
{"url": "https://job-boards.greenhouse.io/anaplan/jobs/8631647002", "company_key": "greenhouse:anaplan", "location": "Manchester, United Kingdom", "lat": 53.4424618, "lng": -2.2324547, "first_published": "2026-07-13T14:04:51-04:00", "observed_at": "2026-07-13T18:35:03.583967+00:00"}
{"url": "https://job-boards.greenhouse.io/anaplan/jobs/8629246002", "company_key": "greenhouse:anaplan", "location": "London, United Kingdom", "lat": 51.5074456, "lng": -0.1277653, "first_published": "2026-07-13T14:04:49-04:00", "observed_at": "2026-07-13T18:35:03.583967+00:00"}
{"url": "https://boards.greenhouse.io/careem/jobs/8618945002?gh_jid=8618945002", "company_key": "greenhouse:careem", "location": "Dubai, United Arab Emirates", "lat": 25.0742823, "lng": 55.1885387, "first_published": "2026-07-13T05:10:34-04:00", "observed_at": "2026-07-13T18:35:03.583967+00:00"}
{"url": "https://job-boards.greenhouse.io/fictiv/jobs/8631414002", "company_key": "greenhouse:fictiv", "location": "Oakland, CA Office", "lat": 37.7929742, "lng": -122.2756943, "first_published": "2026-07-13T13:25:18-04:00", "observed_at": "2026-07-13T18:35:03.583967+00:00"}
{"url": "https://careers.formlabs.com/job/8059398/apply/?gh_jid=8059398", "company_key": "greenhouse:formlabs", "location": "Budapest, Hungary", "lat": 47.4813896, "lng": 19.1457723, "first_published": "2026-07-13T05:17:10-04:00", "observed_at": "2026-07-13T18:35:03.583967+00:00"}
{"url": "https://careers.formlabs.com/job/8059408/apply/?gh_jid=8059408", "company_key": "greenhouse:formlabs", "location": "Budapest", "lat": 47.4978789, "lng": 19.0402383, "first_published": "2026-07-13T05:26:25-04:00", "observed_at": "2026-07-13T18:35:03.583967+00:00"}
{"url": "https://careers.formlabs.com/job/8059409/apply/?gh_jid=8059409", "company_key": "greenhouse:formlabs", "location": "Budapest, Hungary", "lat": 47.4813896, "lng": 19.1457723, "first_published": "2026-07-13T05:27:15-04:00", "observed_at": "2026-07-13T18:35:03.583967+00:00"}
{"url": "https://careers.formlabs.com/job/8059424/apply/?gh_jid=8059424", "company_key": "greenhouse:formlabs", "location": "Budapest, Hungary", "lat": 47.4813896, "lng": 19.1457723, "first_published": "2026-07-13T08:14:33-04:00", "observed_at": "2026-07-13T18:35:03.583967+00:00"}
{"url": "https://careers.godaddy/jobs?gh_jid=7786992003", "company_key": "greenhouse:godaddy", "location": "United States", "lat": 39.7837304, "lng": -100.445882, "first_published": "2026-07-13T11:57:17-04:00", "observed_at": "2026-07-13T18:35:03.583967+00:00"}
{"url": "https://job-boards.greenhouse.io/guidepoint/jobs/8627071002", "company_key": "greenhouse:guidepoint", "location": "New York, New York, United States", "lat": 40.7127281, "lng": -74.0060152, "first_published": "2026-07-13T12:16:50-04:00", "observed_at": "2026-07-13T18:35:03.583967+00:00"}
{"url": "https://job-boards.greenhouse.io/guidepoint/jobs/8631206002", "company_key": "greenhouse:guidepoint", "location": "Athina, \u0391\u03c4\u03c4\u03b9\u03ba\u03b7, Greece", "lat": null, "lng": null, "first_published": "2026-07-13T11:05:34-04:00", "observed_at": "2026-07-13T18:35:03.583967+00:00"}
{"url": "https://job-boards.greenhouse.io/guidepoint/jobs/8631273002", "company_key": "greenhouse:guidepoint", "location": "Athina, \u0391\u03c4\u03c4\u03b9\u03ba\u03b7, Greece", "lat": null, "lng": null, "first_published": "2026-07-13T11:30:41-04:00", "observed_at": "2026-07-13T18:35:03.583967+00:00"}
{"url": "https://job-boards.greenhouse.io/guidepoint/jobs/8631265002", "company_key": "greenhouse:guidepoint", "location": "Athina, \u0391\u03c4\u03c4\u03b9\u03ba\u03b7, Greece", "lat": null, "lng": null, "first_published": "2026-07-13T11:28:58-04:00", "observed_at": "2026-07-13T18:35:03.583967+00:00"}
{"url": "https://job-boards.greenhouse.io/guidepoint/jobs/8631287002", "company_key": "greenhouse:guidepoint", "location": "Athina, \u0391\u03c4\u03c4\u03b9\u03ba\u03b7, Greece", "lat": null, "lng": null, "first_published": "2026-07-13T11:34:37-04:00", "observed_at": "2026-07-13T18:35:03.583967+00:00"}
{"url": "https://job-boards.greenhouse.io/guidepoint/jobs/8631288002", "company_key": "greenhouse:guidepoint", "location": "Athina, \u0391\u03c4\u03c4\u03b9\u03ba\u03b7, Greece", "lat": null, "lng": null, "first_published": "2026-07-13T11:34:16-04:00", "observed_at": "2026-07-13T18:35:03.583967+00:00"}
{"url": "https://careers.hellofresh.com/global/en/job/8031234?gh_jid=8031234", "company_key": "greenhouse:hellofresh", "location": "Newark, NJ, United States; Swedesboro, New Jersey, United States", "lat": null, "lng": null, "first_published": "2026-07-13T13:54:40-04:00", "observed_at": "2026-07-13T18:35:03.583967+00:00"}
{"url": "https://careers.hellofresh.com/global/en/job/8059139?gh_jid=8059139", "company_key": "greenhouse:hellofresh", "location": "Goodyear, AZ, United States", "lat": 33.4672279, "lng": -112.3853489, "first_published": "2026-07-13T10:05:33-04:00", "observed_at": "2026-07-13T18:35:03.583967+00:00"}
{"url": "https://careers.hellofresh.com/global/en/job/8055844?gh_jid=8055844", "company_key": "greenhouse:hellofresh", "location": "Brampton, Ontario, Canada", "lat": 43.685832, "lng": -79.7599366, "first_published": "2026-07-13T13:50:35-04:00", "observed_at": "2026-07-13T18:35:03.583967+00:00"}
{"url": "https://careers.hellofresh.com/global/en/job/8026147?gh_jid=8026147", "company_key": "greenhouse:hellofresh", "location": "Berlin, Berlin, Germany", "lat": 52.503379, "lng": 13.3386522, "first_published": "2026-07-13T09:05:59-04:00", "observed_at": "2026-07-13T18:35:03.583967+00:00"}
{"url": "https://job-boards.greenhouse.io/hudl/jobs/8050643", "company_key": "greenhouse:hudl", "location": "United Kingdom (Remote)", "lat": 55.8754971, "lng": -2.9525105, "first_published": "2026-07-13T09:42:40-04:00", "observed_at": "2026-07-13T18:35:03.583967+00:00"}
{"url": "https://job-boards.greenhouse.io/hudl/jobs/8059503", "company_key": "greenhouse:hudl", "location": "Barcelona, Spain", "lat": 41.3825802, "lng": 2.177073, "first_published": "2026-07-13T09:42:38-04:00", "observed_at": "2026-07-13T18:35:03.583967+00:00"}
{"url": "https://job-boards.greenhouse.io/intercom/jobs/8053727", "company_key": "greenhouse:intercom", "location": "Dublin, Ireland; London, England", "lat": null, "lng": null, "first_published": "2026-07-13T05:29:04-04:00", "observed_at": "2026-07-13T18:35:03.583967+00:00"}
{"url": "https://job-boards.greenhouse.io/ionq/jobs/6111859004", "company_key": "greenhouse:ionq", "location": "Bothell, Washington, United States", "lat": 47.7623204, "lng": -122.2054035, "first_published": "2026-07-13T12:16:14-04:00", "observed_at": "2026-07-13T18:35:03.583967+00:00"}
{"url": "https://job-boards.greenhouse.io/ionq/jobs/6107302004", "company_key": "greenhouse:ionq", "location": "Broomfield, Colorado, United States", "lat": 39.9403995, "lng": -105.05208, "first_published": "2026-07-13T10:36:43-04:00", "observed_at": "2026-07-13T18:35:03.583967+00:00"}
{"url": "https://www.klaviyo.com/careers/jobs/7802850003?gh_jid=7802850003", "company_key": "greenhouse:klaviyo", "location": "Boston, MA", "lat": 42.3588336, "lng": -71.0578303, "first_published": "2026-07-13T11:56:09-04:00", "observed_at": "2026-07-13T18:35:03.583967+00:00"}
{"url": "https://www.klaviyo.com/careers/jobs/7802849003?gh_jid=7802849003", "company_key": "greenhouse:klaviyo", "location": "Boston, MA", "lat": 42.3588336, "lng": -71.0578303, "first_published": "2026-07-13T11:52:45-04:00", "observed_at": "2026-07-13T18:35:03.583967+00:00"}
{"url": "https://www.klaviyo.com/careers/jobs/7795894003?gh_jid=7795894003", "company_key": "greenhouse:klaviyo", "location": "London, UK", "lat": 51.5074456, "lng": -0.1277653, "first_published": "2026-07-13T05:17:07-04:00", "observed_at": "2026-07-13T18:35:03.583967+00:00"}
{"url": "https://www.konrad.com/careers/job/7802651003?gh_jid=7802651003", "company_key": "greenhouse:konradgroup", "location": "New York", "lat": 40.7127281, "lng": -74.0060152, "first_published": "2026-07-13T09:26:53-04:00", "observed_at": "2026-07-13T18:35:03.583967+00:00"}
{"url": "https://job-boards.greenhouse.io/monzo/jobs/8053285", "company_key": "greenhouse:monzo", "location": "Cardiff, London or Remote (UK)", "lat": null, "lng": null, "first_published": "2026-07-13T07:45:03-04:00", "observed_at": "2026-07-13T18:35:03.583967+00:00"}
{"url": "https://job-boards.greenhouse.io/monzo/jobs/8059461", "company_key": "greenhouse:monzo", "location": "Cardiff, London or Remote (UK)", "lat": null, "lng": null, "first_published": "2026-07-13T07:02:46-04:00", "observed_at": "2026-07-13T18:35:03.583967+00:00"}
{"url": "https://careers.onepeloton.com/en/all-jobs/?gh_jid=8021123", "company_key": "greenhouse:peloton", "location": "New York, New York", "lat": 40.7127281, "lng": -74.0060152, "first_published": "2026-07-13T14:06:55-04:00", "observed_at": "2026-07-13T18:35:03.583967+00:00"}
{"url": "https://www.qualtrics.com/careers/us/en/job/8055951?gh_jid=8055951", "company_key": "greenhouse:qualtrics", "location": "Seattle, Washington,  United States", "lat": 47.6038321, "lng": -122.330062, "first_published": "2026-07-13T12:52:18-04:00", "observed_at": "2026-07-13T18:35:03.583967+00:00"}
{"url": "https://ripple.com/careers/all-jobs/job/8054046?gh_jid=8054046", "company_key": "greenhouse:ripple", "location": "Chicago, Illinois, United States", "lat": 41.8755616, "lng": -87.6244212, "first_published": "2026-07-13T11:27:19-04:00", "observed_at": "2026-07-13T18:35:03.583967+00:00"}
{"url": "https://ripple.com/careers/all-jobs/job/8052544?gh_jid=8052544", "company_key": "greenhouse:ripple", "location": "Dublin, Ireland", "lat": 53.3493795, "lng": -6.2605593, "first_published": "2026-07-13T11:50:31-04:00", "observed_at": "2026-07-13T18:35:03.583967+00:00"}
{"url": "https://ripple.com/careers/all-jobs/job/8052546?gh_jid=8052546", "company_key": "greenhouse:ripple", "location": "London, UK", "lat": 51.5074456, "lng": -0.1277653, "first_published": "2026-07-13T11:51:05-04:00", "observed_at": "2026-07-13T18:35:03.583967+00:00"}
{"url": "https://job-boards.greenhouse.io/tecovas/jobs/8631353002", "company_key": "greenhouse:tecovas", "location": "Alpharetta, GA", "lat": 34.0755962, "lng": -84.2945964, "first_published": "2026-07-13T12:41:26-04:00", "observed_at": "2026-07-13T18:35:03.583967+00:00"}
{"url": "https://job-boards.greenhouse.io/truveta/jobs/6114475004", "company_key": "greenhouse:truveta", "location": "Hyderabad, India", "lat": 17.360589, "lng": 78.4740613, "first_published": "2026-07-13T07:29:21-04:00", "observed_at": "2026-07-13T18:35:03.583967+00:00"}
{"url": "https://job-boards.greenhouse.io/truveta/jobs/6114473004", "company_key": "greenhouse:truveta", "location": "Hyderabad, India", "lat": 17.360589, "lng": 78.4740613, "first_published": "2026-07-13T07:19:55-04:00", "observed_at": "2026-07-13T18:35:03.583967+00:00"}
{"url": "https://job-boards.greenhouse.io/via/jobs/8629901002", "company_key": "greenhouse:via", "location": "Tel Aviv", "lat": 32.0852997, "lng": 34.7818064, "first_published": "2026-07-13T07:37:52-04:00", "observed_at": "2026-07-13T18:35:03.583967+00:00"}
{"url": "https://boards.greenhouse.io/neo4j/jobs/4696600006?gh_jid=4696600006", "company_key": "greenhouse:neo4j", "location": "Remote: Midwest US", "lat": null, "lng": null, "first_published": "2026-07-13T14:09:47-04:00", "observed_at": "2026-07-13T18:35:03.583967+00:00"}
{"url": "https://job-boards.greenhouse.io/curaleaf/jobs/8631649002", "company_key": "greenhouse:curaleaf", "location": "Mt. Dora, FL", "lat": 28.8004955, "lng": -81.6446961, "first_published": "2026-07-13T14:07:09-04:00", "observed_at": "2026-07-13T18:35:03.583967+00:00"}
{"url": "https://job-boards.greenhouse.io/curaleaf/jobs/8627993002", "company_key": "greenhouse:curaleaf", "location": "Orlando, FL", "lat": 28.5421218, "lng": -81.379045, "first_published": "2026-07-13T10:38:24-04:00", "observed_at": "2026-07-13T18:35:03.583967+00:00"}
{"url": "https://job-boards.greenhouse.io/curaleaf/jobs/8592299002", "company_key": "greenhouse:curaleaf", "location": "1440 Manheim Pike Lancaster, PA", "lat": 40.0721066, "lng": -76.3339783, "first_published": "2026-07-13T09:47:04-04:00", "observed_at": "2026-07-13T18:35:03.583967+00:00"}
{"url": "https://job-boards.greenhouse.io/curaleaf/jobs/8625357002", "company_key": "greenhouse:curaleaf", "location": "10718 70th Rd, Forest Hills, NY 11375", "lat": 40.7209275, "lng": -73.8456669, "first_published": "2026-07-13T12:43:34-04:00", "observed_at": "2026-07-13T18:35:03.583967+00:00"}
{"url": "https://job-boards.greenhouse.io/curaleaf/jobs/8628861002", "company_key": "greenhouse:curaleaf", "location": "3704 84th Ave Cir E Sarasota, FL", "lat": 27.3895884, "lng": -82.5156163, "first_published": "2026-07-13T09:59:55-04:00", "observed_at": "2026-07-13T18:35:03.583967+00:00"}
{"url": "https://job-boards.greenhouse.io/66degrees/jobs/6109376004", "company_key": "greenhouse:66degrees", "location": "Bengaluru,KA", "lat": 12.9767936, "lng": 77.590082, "first_published": "2026-07-13T11:03:41-04:00", "observed_at": "2026-07-13T18:35:03.583967+00:00"}
{"url": "https://job-boards.greenhouse.io/8451/jobs/8631714002", "company_key": "greenhouse:8451", "location": "Cincinnati, OH; Chicago, IL", "lat": null, "lng": null, "first_published": "2026-07-13T14:28:39-04:00", "observed_at": "2026-07-13T18:35:03.583967+00:00"}
{"url": "https://job-boards.greenhouse.io/8451/jobs/8631473002", "company_key": "greenhouse:8451", "location": "Cincinnati, OH; Chicago, IL", "lat": null, "lng": null, "first_published": "2026-07-13T13:46:29-04:00", "observed_at": "2026-07-13T18:35:03.583967+00:00"}
{"url": "https://job-boards.greenhouse.io/8451/jobs/8631401002", "company_key": "greenhouse:8451", "location": "Cincinnati, OH; Chicago, IL", "lat": null, "lng": null, "first_published": "2026-07-13T12:26:26-04:00", "observed_at": "2026-07-13T18:35:03.583967+00:00"}
{"url": "https://job-boards.eu.greenhouse.io/abbyy/jobs/4909980101", "company_key": "greenhouse:abbyy", "location": "Bangalore, India (Hybrid)", "lat": 13.022506, "lng": 77.7122068, "first_published": "2026-07-13T08:28:09-04:00", "observed_at": "2026-07-13T18:35:03.583967+00:00"}
{"url": "https://www.abclegal.com/job-openings/job?id=7801233003&gh_jid=7801233003", "company_key": "greenhouse:abclegalservices", "location": "Seattle, WA", "lat": 47.6038321, "lng": -122.330062, "first_published": "2026-07-13T12:45:48-04:00", "observed_at": "2026-07-13T18:35:03.583967+00:00"}
{"url": "https://www.abclegal.com/job-openings/job?id=7802596003&gh_jid=7802596003", "company_key": "greenhouse:abclegalservices", "location": "Savannah, Georgia", "lat": 32.0790074, "lng": -81.0921335, "first_published": "2026-07-13T09:05:54-04:00", "observed_at": "2026-07-13T18:35:03.583967+00:00"}
{"url": "https://job-boards.greenhouse.io/abinbev/jobs/8630860002", "company_key": "greenhouse:abinbev", "location": "Campinas, Brazil", "lat": -22.9056391, "lng": -47.059564, "first_published": "2026-07-13T08:53:35-04:00", "observed_at": "2026-07-13T18:35:03.583967+00:00"}
{"url": "https://job-boards.greenhouse.io/abinbev/jobs/8630971002", "company_key": "greenhouse:abinbev", "location": "S\u00e3o Paulo, SP", "lat": -23.5506507, "lng": -46.6333824, "first_published": "2026-07-13T12:23:23-04:00", "observed_at": "2026-07-13T18:35:03.583967+00:00"}
{"url": "https://boards.greenhouse.io/accenturefederalservices/jobs/4696545006?gh_jid=4696545006", "company_key": "greenhouse:accenturefederalservices", "location": "Chantilly, VA", "lat": 38.885219, "lng": -77.4486772, "first_published": "2026-07-13T12:51:04-04:00", "observed_at": "2026-07-13T18:35:03.583967+00:00"}
{"url": "https://job-boards.greenhouse.io/acquia/jobs/8053504", "company_key": "greenhouse:acquia", "location": "Remote-United-States", "lat": 43.0059455, "lng": -123.8925908, "first_published": "2026-07-13T13:52:56-04:00", "observed_at": "2026-07-13T18:35:03.583967+00:00"}
{"url": "https://job-boards.greenhouse.io/advancedtechnologyservices/jobs/4686803006", "company_key": "greenhouse:advancedtechnologyservices", "location": "United States- Mossville, Illinois", "lat": null, "lng": null, "first_published": "2026-07-13T11:17:22-04:00", "observed_at": "2026-07-13T18:35:03.583967+00:00"}
{"url": "https://job-boards.greenhouse.io/aevexaerospace/jobs/5309306008", "company_key": "greenhouse:aevexaerospace", "location": "Tampa, Florida, United States", "lat": 27.9449854, "lng": -82.4583107, "first_published": "2026-07-13T13:21:20-04:00", "observed_at": "2026-07-13T18:35:03.583967+00:00"}
{"url": "https://job-boards.greenhouse.io/agibank/jobs/5324286008", "company_key": "greenhouse:agibank", "location": "Curitibanos, Santa Catarina, Brasil", "lat": -27.2900659, "lng": -50.5779683, "first_published": "2026-07-13T12:13:20-04:00", "observed_at": "2026-07-13T18:35:03.583967+00:00"}
{"url": "https://job-boards.greenhouse.io/agibank/jobs/5309832008", "company_key": "greenhouse:agibank", "location": "Fortaleza, Cear\u00e1, Brasil", "lat": -3.7932167, "lng": -38.5280359, "first_published": "2026-07-13T11:49:39-04:00", "observed_at": "2026-07-13T18:35:03.583967+00:00"}
{"url": "https://job-boards.greenhouse.io/agibank/jobs/5322424008", "company_key": "greenhouse:agibank", "location": "Bocai\u00fava, Minas Gerais, Brasil", "lat": -17.1160208, "lng": -43.8122678, "first_published": "2026-07-13T13:19:26-04:00", "observed_at": "2026-07-13T18:35:03.583967+00:00"}
{"url": "https://job-boards.greenhouse.io/agibank/jobs/5322345008", "company_key": "greenhouse:agibank", "location": "Coronel Fabriciano, Minas Gerais, Brasil", "lat": -19.5200067, "lng": -42.6282686, "first_published": "2026-07-13T13:12:05-04:00", "observed_at": "2026-07-13T18:35:03.583967+00:00"}
{"url": "https://job-boards.greenhouse.io/agibank/jobs/5309712008", "company_key": "greenhouse:agibank", "location": "Cuiab\u00e1, Mato Grosso, Brasil", "lat": -15.5986686, "lng": -56.0991301, "first_published": "2026-07-13T12:46:08-04:00", "observed_at": "2026-07-13T18:35:03.583967+00:00"}
{"url": "https://job-boards.greenhouse.io/agibank/jobs/5323664008", "company_key": "greenhouse:agibank", "location": "Montenegro, Rio Grande do Sul, Brasil", "lat": -29.6826112, "lng": -51.4687455, "first_published": "2026-07-13T11:58:44-04:00", "observed_at": "2026-07-13T18:35:03.583967+00:00"}
{"url": "https://job-boards.greenhouse.io/agibank/jobs/5322363008", "company_key": "greenhouse:agibank", "location": "Nova Lima, Minas Gerais, Brasil", "lat": -19.9854089, "lng": -43.8470691, "first_published": "2026-07-13T13:16:41-04:00", "observed_at": "2026-07-13T18:35:03.583967+00:00"}
{"url": "https://job-boards.greenhouse.io/agibank/jobs/5323579008", "company_key": "greenhouse:agibank", "location": "S\u00e3o Leopoldo, Rio Grande do Sul, Brasil", "lat": -29.7544405, "lng": -51.1516497, "first_published": "2026-07-13T12:03:34-04:00", "observed_at": "2026-07-13T18:35:03.583967+00:00"}
{"url": "https://job-boards.greenhouse.io/agibank/jobs/5323271008", "company_key": "greenhouse:agibank", "location": "V\u00e1rzea Grande, Mato Grosso, Brasil", "lat": -15.645816, "lng": -56.132218, "first_published": "2026-07-13T12:51:57-04:00", "observed_at": "2026-07-13T18:35:03.583967+00:00"}
{"url": "https://job-boards.greenhouse.io/agibank/jobs/5288063008", "company_key": "greenhouse:agibank", "location": "Santos, S\u00e3o Paulo, Brasil", "lat": -23.9609448, "lng": -46.3166316, "first_published": "2026-07-13T10:10:38-04:00", "observed_at": "2026-07-13T18:35:03.583967+00:00"}
{"url": "https://job-boards.greenhouse.io/agibank/jobs/5323337008", "company_key": "greenhouse:agibank", "location": "Erechim, Rio Grande do Sul, Brasil", "lat": -27.6350709, "lng": -52.2738654, "first_published": "2026-07-13T11:45:49-04:00", "observed_at": "2026-07-13T18:35:03.583967+00:00"}
{"url": "https://job-boards.greenhouse.io/agibank/jobs/5323340008", "company_key": "greenhouse:agibank", "location": "Videira, Santa Catarina, Brasil", "lat": -27.00544, "lng": -51.1533733, "first_published": "2026-07-13T11:42:15-04:00", "observed_at": "2026-07-13T18:35:03.583967+00:00"}
{"url": "https://www.agilityrobotics.com/about/job-post?gh_jid=6113722004", "company_key": "greenhouse:agilityrobotics", "location": "Hybrid- Salem, OR", "lat": null, "lng": null, "first_published": "2026-07-13T12:46:13-04:00", "observed_at": "2026-07-13T18:35:03.583967+00:00"}
{"url": "https://job-boards.greenhouse.io/agoda/jobs/8053092", "company_key": "greenhouse:agoda", "location": "Seoul, South Korea", "lat": 37.5666791, "lng": 126.9782914, "first_published": "2026-07-13T03:24:14-04:00", "observed_at": "2026-07-13T18:35:03.583967+00:00"}
{"url": "https://job-boards.greenhouse.io/agoda/jobs/8050071", "company_key": "greenhouse:agoda", "location": "Cairo, Egypt", "lat": 30.0443879, "lng": 31.2357257, "first_published": "2026-07-13T03:50:11-04:00", "observed_at": "2026-07-13T18:35:03.583967+00:00"}
{"url": "https://job-boards.greenhouse.io/agoda/jobs/8051906", "company_key": "greenhouse:agoda", "location": "Seoul, South Korea", "lat": 37.5666791, "lng": 126.9782914, "first_published": "2026-07-13T03:24:00-04:00", "observed_at": "2026-07-13T18:35:03.583967+00:00"}
{"url": "https://job-boards.greenhouse.io/agoda/jobs/8055467", "company_key": "greenhouse:agoda", "location": "Tokyo, Japan", "lat": 35.6768601, "lng": 139.7638947, "first_published": "2026-07-13T03:53:37-04:00", "observed_at": "2026-07-13T18:35:03.583967+00:00"}
{"url": "https://job-boards.greenhouse.io/alamarbiosciences/jobs/6110793004", "company_key": "greenhouse:alamarbiosciences", "location": "Fremont, California", "lat": 37.5482697, "lng": -121.988571, "first_published": "2026-07-13T11:08:10-04:00", "observed_at": "2026-07-13T18:35:03.583967+00:00"}
{"url": "https://job-boards.greenhouse.io/allcareers/jobs/8631720002", "company_key": "greenhouse:allcareers", "location": "Naperville, IL", "lat": 41.7728699, "lng": -88.1479278, "first_published": "2026-07-13T14:22:36-04:00", "observed_at": "2026-07-13T18:35:03.583967+00:00"}
{"url": "https://job-boards.greenhouse.io/allinc/jobs/8631080002", "company_key": "greenhouse:allinc", "location": "Trumbull, Connecticut", "lat": 41.2428742, "lng": -73.2006687, "first_published": "2026-07-13T10:12:57-04:00", "observed_at": "2026-07-13T18:35:03.583967+00:00"}
{"url": "https://job-boards.greenhouse.io/allinc/jobs/8631342002", "company_key": "greenhouse:allinc", "location": "Remote - Orange, CT; Leominster, MA; Bedford, NH; Burlington, VT", "lat": null, "lng": null, "first_published": "2026-07-13T11:56:45-04:00", "observed_at": "2026-07-13T18:35:03.583967+00:00"}
{"url": "https://boards.greenhouse.io/aloyoga/jobs/6114599004?gh_jid=6114599004", "company_key": "greenhouse:aloyoga", "location": "Garden State Plaza, Paramus, NJ (10044)", "lat": null, "lng": null, "first_published": "2026-07-13T10:40:56-04:00", "observed_at": "2026-07-13T18:35:03.583967+00:00"}
{"url": "https://boards.greenhouse.io/aloyoga/jobs/6110948004?gh_jid=6110948004", "company_key": "greenhouse:aloyoga", "location": "Beverly Hills, California, United States", "lat": 34.0696501, "lng": -118.3963062, "first_published": "2026-07-13T14:25:21-04:00", "observed_at": "2026-07-13T18:35:03.583967+00:00"}
{"url": "https://boards.greenhouse.io/aloyoga/jobs/6114773004?gh_jid=6114773004", "company_key": "greenhouse:aloyoga", "location": "Los Angeles, California, United States", "lat": 34.0536909, "lng": -118.242766, "first_published": "2026-07-13T14:12:24-04:00", "observed_at": "2026-07-13T18:35:03.583967+00:00"}
{"url": "https://job-boards.greenhouse.io/alphasense/jobs/8626099002", "company_key": "greenhouse:alphasense", "location": "India", "lat": 22.3511148, "lng": 78.6677428, "first_published": "2026-07-13T07:02:57-04:00", "observed_at": "2026-07-13T18:35:03.583967+00:00"}
{"url": "https://job-boards.greenhouse.io/alphasense/jobs/8626122002", "company_key": "greenhouse:alphasense", "location": "Remote - India", "lat": 17.4668554, "lng": 78.4499355, "first_published": "2026-07-13T07:03:36-04:00", "observed_at": "2026-07-13T18:35:03.583967+00:00"}
{"url": "https://job-boards.greenhouse.io/alphasenseindia/jobs/8623129002", "company_key": "greenhouse:alphasenseindia", "location": "India", "lat": 22.3511148, "lng": 78.6677428, "first_published": "2026-07-13T07:02:55-04:00", "observed_at": "2026-07-13T18:35:03.583967+00:00"}
{"url": "https://job-boards.greenhouse.io/alphasenseindia/jobs/8623141002", "company_key": "greenhouse:alphasenseindia", "location": "Remote - India", "lat": 17.4668554, "lng": 78.4499355, "first_published": "2026-07-13T07:03:36-04:00", "observed_at": "2026-07-13T18:35:03.583967+00:00"}
{"url": "https://job-boards.greenhouse.io/alu/jobs/8059453", "company_key": "greenhouse:alu", "location": "Remote", "lat": 43.0059455, "lng": -123.8925908, "first_published": "2026-07-13T06:58:42-04:00", "observed_at": "2026-07-13T18:35:03.583967+00:00"}
{"url": "https://job-boards.greenhouse.io/alumniventures/jobs/4314533009", "company_key": "greenhouse:alumniventures", "location": "Boston, MA", "lat": 42.3588336, "lng": -71.0578303, "first_published": "2026-07-13T12:42:57-04:00", "observed_at": "2026-07-13T18:35:03.583967+00:00"}
{"url": "https://job-boards.greenhouse.io/amyrisinc/jobs/4235356009", "company_key": "greenhouse:amyrisinc", "location": "Barra Bonita; Brazil", "lat": null, "lng": null, "first_published": "2026-07-13T11:03:53-04:00", "observed_at": "2026-07-13T18:35:03.583967+00:00"}
{"url": "https://job-boards.greenhouse.io/apexcompanies/jobs/5287405008", "company_key": "greenhouse:apexcompanies", "location": "Atlanta, GA", "lat": 33.7544657, "lng": -84.3898151, "first_published": "2026-07-13T10:46:26-04:00", "observed_at": "2026-07-13T18:35:03.583967+00:00"}
{"url": "https://job-boards.greenhouse.io/apexcompanies/jobs/5342480008", "company_key": "greenhouse:apexcompanies", "location": "Windsor, CT", "lat": null, "lng": null, "first_published": "2026-07-13T10:34:14-04:00", "observed_at": "2026-07-13T18:35:03.583967+00:00"}
{"url": "https://job-boards.greenhouse.io/apexcompanies/jobs/5342341008", "company_key": "greenhouse:apexcompanies", "location": "Baton Rouge, LA", "lat": 30.4494155, "lng": -91.1869659, "first_published": "2026-07-13T10:06:59-04:00", "observed_at": "2026-07-13T18:35:03.583967+00:00"}
{"url": "https://job-boards.greenhouse.io/apexcompanies/jobs/5342291008", "company_key": "greenhouse:apexcompanies", "location": "Buffalo, NY", "lat": 42.8864163, "lng": -78.8781493, "first_published": "2026-07-13T09:55:34-04:00", "observed_at": "2026-07-13T18:35:03.583967+00:00"}
{"url": "https://job-boards.greenhouse.io/apexcompanies/jobs/5342259008", "company_key": "greenhouse:apexcompanies", "location": "Urbandale, IA", "lat": null, "lng": null, "first_published": "2026-07-13T09:54:28-04:00", "observed_at": "2026-07-13T18:35:03.583967+00:00"}
{"url": "https://job-boards.greenhouse.io/apexcompanies/jobs/5342258008", "company_key": "greenhouse:apexcompanies", "location": "Baltimore, MD", "lat": 39.2908816, "lng": -76.610759, "first_published": "2026-07-13T09:53:21-04:00", "observed_at": "2026-07-13T18:35:03.583967+00:00"}
{"url": "https://job-boards.greenhouse.io/apexcompanies/jobs/5342254008", "company_key": "greenhouse:apexcompanies", "location": "Athens, PA", "lat": null, "lng": null, "first_published": "2026-07-13T09:52:19-04:00", "observed_at": "2026-07-13T18:35:03.583967+00:00"}
{"url": "https://job-boards.greenhouse.io/apexcompanies/jobs/5342253008", "company_key": "greenhouse:apexcompanies", "location": "Pittsburgh, PA", "lat": 40.4406968, "lng": -80.0025666, "first_published": "2026-07-13T09:50:49-04:00", "observed_at": "2026-07-13T18:35:03.583967+00:00"}
{"url": "https://job-boards.greenhouse.io/apexcompanies/jobs/5342244008", "company_key": "greenhouse:apexcompanies", "location": "Tulsa, OK", "lat": 36.1563122, "lng": -95.9927516, "first_published": "2026-07-13T09:44:57-04:00", "observed_at": "2026-07-13T18:35:03.583967+00:00"}
{"url": "https://job-boards.greenhouse.io/appdirect/jobs/8625376002", "company_key": "greenhouse:appdirect", "location": "Montreal, Canada", "lat": 45.5031824, "lng": -73.5698065, "first_published": "2026-07-13T09:15:29-04:00", "observed_at": "2026-07-13T18:35:03.583967+00:00"}
{"url": "https://job-boards.greenhouse.io/appdirect/jobs/8631112002", "company_key": "greenhouse:appdirect", "location": "Montreal, Canada", "lat": 45.5031824, "lng": -73.5698065, "first_published": "2026-07-13T10:30:56-04:00", "observed_at": "2026-07-13T18:35:03.583967+00:00"}
{"url": "https://job-boards.greenhouse.io/appodeal/jobs/5341409008", "company_key": "greenhouse:appodeal", "location": "Barcelona, Spain", "lat": 41.3825802, "lng": 2.177073, "first_published": "2026-07-13T06:49:09-04:00", "observed_at": "2026-07-13T18:35:03.583967+00:00"}
{"url": "https://job-boards.greenhouse.io/appodeal/jobs/5341160008", "company_key": "greenhouse:appodeal", "location": "Barcelona, Spain", "lat": 41.3825802, "lng": 2.177073, "first_published": "2026-07-13T05:58:38-04:00", "observed_at": "2026-07-13T18:35:03.583967+00:00"}
{"url": "https://job-boards.greenhouse.io/appodeal/jobs/5341542008", "company_key": "greenhouse:appodeal", "location": "Barcelona, Spain", "lat": 41.3825802, "lng": 2.177073, "first_published": "2026-07-13T07:37:08-04:00", "observed_at": "2026-07-13T18:35:03.583967+00:00"}
{"url": "https://careers.appsflyer.com/jobs/position/8630736002?gh_jid=8630736002", "company_key": "greenhouse:appsflyer", "location": "Bangalore", "lat": 12.9767936, "lng": 77.590082, "first_published": "2026-07-13T05:19:54-04:00", "observed_at": "2026-07-13T18:35:03.583967+00:00"}
{"url": "https://careers.appsflyer.com/jobs/position/8630938002?gh_jid=8630938002", "company_key": "greenhouse:appsflyer", "location": "New York", "lat": 40.7127281, "lng": -74.0060152, "first_published": "2026-07-13T08:54:46-04:00", "observed_at": "2026-07-13T18:35:03.583967+00:00"}
{"url": "https://job-boards.greenhouse.io/artefact/jobs/8630900002", "company_key": "greenhouse:artefact", "location": "Stationsplein 32, 3511 ED Utrecht", "lat": 52.0911472, "lng": 5.110259, "first_published": "2026-07-13T08:30:33-04:00", "observed_at": "2026-07-13T18:35:03.583967+00:00"}
{"url": "https://job-boards.greenhouse.io/artefact/jobs/8630752002", "company_key": "greenhouse:artefact", "location": "135 W 26th Street, New York, NY 10001; Montr\u00e9al, Quebec, Canada", "lat": null, "lng": null, "first_published": "2026-07-13T05:18:06-04:00", "observed_at": "2026-07-13T18:35:03.583967+00:00"}
{"url": "https://job-boards.greenhouse.io/artefact/jobs/8630758002", "company_key": "greenhouse:artefact", "location": "135 W 26th Street, New York, NY 10001; Montr\u00e9al, Quebec, Canada", "lat": null, "lng": null, "first_published": "2026-07-13T05:32:29-04:00", "observed_at": "2026-07-13T18:35:03.583967+00:00"}
{"url": "https://job-boards.greenhouse.io/artefact/jobs/8630722002", "company_key": "greenhouse:artefact", "location": "135 W 26th Street, New York, NY 10001", "lat": 40.7453094, "lng": -73.9923958, "first_published": "2026-07-13T04:14:31-04:00", "observed_at": "2026-07-13T18:35:03.583967+00:00"}
{"url": "https://job-boards.greenhouse.io/artefact/jobs/8631007002", "company_key": "greenhouse:artefact", "location": "Essen, North Rhine-Westphalia, Germany; Hamburg, Hamburg, Germany", "lat": null, "lng": null, "first_published": "2026-07-13T09:50:50-04:00", "observed_at": "2026-07-13T18:35:03.583967+00:00"}
{"url": "https://job-boards.greenhouse.io/artefactlinkedin/jobs/8630754002", "company_key": "greenhouse:artefactlinkedin", "location": "135 W 26th Street, New York, NY 10001; Montr\u00e9al, Quebec, Canada", "lat": null, "lng": null, "first_published": "2026-07-13T05:19:50-04:00", "observed_at": "2026-07-13T18:35:03.583967+00:00"}
{"url": "https://job-boards.greenhouse.io/artefactlinkedin/jobs/8630760002", "company_key": "greenhouse:artefactlinkedin", "location": "135 W 26th Street, New York, NY 10001; Montr\u00e9al, Quebec, Canada", "lat": null, "lng": null, "first_published": "2026-07-13T05:32:30-04:00", "observed_at": "2026-07-13T18:35:03.583967+00:00"}
{"url": "https://job-boards.greenhouse.io/artefactlinkedin/jobs/8631028002", "company_key": "greenhouse:artefactlinkedin", "location": "Essen, North Rhine-Westphalia, Germany; Hamburg, Hamburg, Germany", "lat": null, "lng": null, "first_published": "2026-07-13T09:50:51-04:00", "observed_at": "2026-07-13T18:35:03.583967+00:00"}
{"url": "https://www.ascendtogether.com/partner-firms-jobs/?gh_jid=5185741007", "company_key": "greenhouse:ascendtogether", "location": "New York, NY", "lat": 40.7127281, "lng": -74.0060152, "first_published": "2026-07-13T14:31:50-04:00", "observed_at": "2026-07-13T18:35:03.583967+00:00"}
{"url": "https://job-boards.greenhouse.io/aspirehealthalliance/jobs/4314392009", "company_key": "greenhouse:aspirehealthalliance", "location": "769 Plain Street, Marshfield", "lat": null, "lng": null, "first_published": "2026-07-13T11:30:54-04:00", "observed_at": "2026-07-13T18:35:03.583967+00:00"}
{"url": "https://job-boards.greenhouse.io/aspirehealthalliance/jobs/4314488009", "company_key": "greenhouse:aspirehealthalliance", "location": "Braintree, MA", "lat": 42.2205956, "lng": -71.0041229, "first_published": "2026-07-13T13:04:03-04:00", "observed_at": "2026-07-13T18:35:03.583967+00:00"}
{"url": "https://job-boards.greenhouse.io/assetliving/jobs/6114742004", "company_key": "greenhouse:assetliving", "location": "Dallas, TX", "lat": 32.7762719, "lng": -96.7968559, "first_published": "2026-07-13T12:49:18-04:00", "observed_at": "2026-07-13T18:35:03.583967+00:00"}
{"url": "https://job-boards.greenhouse.io/atek/jobs/5322806008", "company_key": "greenhouse:atek", "location": "Hybrid, Bethesda/Rockville, MD, United States", "lat": null, "lng": null, "first_published": "2026-07-13T12:48:58-04:00", "observed_at": "2026-07-13T18:35:03.583967+00:00"}
{"url": "https://job-boards.greenhouse.io/atek/jobs/5323199008", "company_key": "greenhouse:atek", "location": "Hybrid, Bethesda/Rockville, MD, United States", "lat": null, "lng": null, "first_published": "2026-07-13T12:50:11-04:00", "observed_at": "2026-07-13T18:35:03.583967+00:00"}
{"url": "https://www.augury.com/careers/8617668002?gh_jid=8617668002", "company_key": "greenhouse:augury", "location": "Bangalore, India", "lat": 12.9767936, "lng": 77.590082, "first_published": "2026-07-13T13:03:09-04:00", "observed_at": "2026-07-13T18:35:03.583967+00:00"}
{"url": "https://www.augury.com/careers/8631129002?gh_jid=8631129002", "company_key": "greenhouse:augury", "location": "US", "lat": 39.7837304, "lng": -100.445882, "first_published": "2026-07-13T11:09:12-04:00", "observed_at": "2026-07-13T18:35:03.583967+00:00"}
{"url": "https://job-boards.greenhouse.io/autoscout24/jobs/7802457003", "company_key": "greenhouse:autoscout24", "location": "Munich (Germany)", "lat": 48.1371079, "lng": 11.5753822, "first_published": "2026-07-13T06:29:14-04:00", "observed_at": "2026-07-13T18:35:03.583967+00:00"}
